{"type":"FeatureCollection","metadata":{"source":"SNCF — Gares de voyageurs","dataset":"https://www.data.gouv.fr/datasets/gares-de-voyageurs-1","license":"LOV2 / Etalab","generated_at":"2026-05-19T10:02:59.010Z","count":2782},"features":[{"type":"Feature","geometry":{"type":"Point","coordinates":[1.77431,49.68522]},"properties":{"nom":"Abancourt","lc":"ABT","seg":"C","uic":"87313759"}},{"type":"Feature","geometry":{"type":"Point","coordinates":[-1.52442,47.55464]},"properties":{"nom":"Abbaretz","lc":"AAR","seg":"C","uic":"87481614"}},{"type":"Feature","geometry":{"type":"Point","coordinates":[1.82449,50.10221]},"properties":{"nom":"Abbeville","lc":"ABB","seg":"B","uic":"87317362"}},{"type":"Feature","geometry":{"type":"Point","coordinates":[2.41915,48.72547]},"properties":{"nom":"Ablon-sur-Seine","lc":"ABL","seg":"B","uic":"87545269"}},{"type":"Feature","geometry":{"type":"Point","coordinates":[2.0919,48.95518]},"properties":{"nom":"Achères Grand Cormier","lc":"GCR","seg":"B","uic":"87386052"}},{"type":"Feature","geometry":{"type":"Point","coordinates":[2.07739,48.97011]},"properties":{"nom":"Achères Ville","lc":"ACW","seg":"B","uic":"87381657"}},{"type":"Feature","geometry":{"type":"Point","coordinates":[2.78017,50.13175]},"properties":{"nom":"Achiet-le-Grand","lc":"ACT","seg":"C","uic":"87342048"}},{"type":"Feature","geometry":{"type":"Point","coordinates":[2.56135,49.00956]},"properties":{"nom":"Aéroport Charles de Gaulle 1","lc":"RSY","seg":"B","uic":"87271460"}},{"type":"Feature","geometry":{"type":"Point","coordinates":[2.57089,49.00365]},"properties":{"nom":"Aéroport Charles de Gaulle 2 TGV","lc":"RYT","seg":"A;A","uic":"87001479;87271494"}},{"type":"Feature","geometry":{"type":"Point","coordinates":[6.8565,43.43137]},"properties":{"nom":"Agay","lc":"AGH","seg":"C","uic":"87757559"}},{"type":"Feature","geometry":{"type":"Point","coordinates":[3.4662,43.31728]},"properties":{"nom":"Agde","lc":"AGD","seg":"B","uic":"87781278"}},{"type":"Feature","geometry":{"type":"Point","coordinates":[0.62093,44.20831]},"properties":{"nom":"Agen","lc":"AGN","seg":"A","uic":"87586008"}},{"type":"Feature","geometry":{"type":"Point","coordinates":[0.74867,45.2866]},"properties":{"nom":"Agonac","lc":"AGA","seg":"C","uic":"87595157"}},{"type":"Feature","geometry":{"type":"Point","coordinates":[3.97314,49.40802]},"properties":{"nom":"Aguilcourt - Variscourt","lc":"AGK","seg":"C","uic":"87171702"}},{"type":"Feature","geometry":{"type":"Point","coordinates":[-0.95168,46.09402]},"properties":{"nom":"Aigrefeuille le Thou","lc":"AGR","seg":"C","uic":"87485193"}},{"type":"Feature","geometry":{"type":"Point","coordinates":[5.81315,45.5363]},"properties":{"nom":"Aiguebelette-le-Lac","lc":"AGQ","seg":"C","uic":"87741421"}},{"type":"Feature","geometry":{"type":"Point","coordinates":[6.30672,45.54372]},"properties":{"nom":"Aiguebelle","lc":"AEB","seg":"C","uic":"87741256"}},{"type":"Feature","geometry":{"type":"Point","coordinates":[3.19826,46.01479]},"properties":{"nom":"Aigueperse","lc":"AGE","seg":"C","uic":"87734129"}},{"type":"Feature","geometry":{"type":"Point","coordinates":[4.19121,43.5709]},"properties":{"nom":"Aigues-Mortes","lc":"AIM","seg":"C","uic":"87775858"}},{"type":"Feature","geometry":{"type":"Point","coordinates":[0.33524,44.29872]},"properties":{"nom":"Aiguillon","lc":"AIN","seg":"B","uic":"87586693"}},{"type":"Feature","geometry":{"type":"Point","coordinates":[6.3373,47.91389]},"properties":{"nom":"Aillevillers","lc":"AIP","seg":"C","uic":"87185629"}},{"type":"Feature","geometry":{"type":"Point","coordinates":[2.36419,49.75448]},"properties":{"nom":"Ailly-sur-Noye","lc":"ASN","seg":"B","uic":"87313221"}},{"type":"Feature","geometry":{"type":"Point","coordinates":[2.20059,49.92838]},"properties":{"nom":"Ailly-sur-Somme","lc":"AYS","seg":"B","uic":"87313098"}},{"type":"Feature","geometry":{"type":"Point","coordinates":[4.20829,43.67861]},"properties":{"nom":"Aimargues","lc":"AIA","seg":"C","uic":"87775833"}},{"type":"Feature","geometry":{"type":"Point","coordinates":[6.64865,45.5544]},"properties":{"nom":"Aime - La Plagne","lc":"ANJ","seg":"B","uic":"87741769"}},{"type":"Feature","geometry":{"type":"Point","coordinates":[5.15824,47.1705]},"properties":{"nom":"Aiserey","lc":"ASI","seg":"C","uic":"87713636"}},{"type":"Feature","geometry":{"type":"Point","coordinates":[5.44535,43.52291]},"properties":{"nom":"Aix-en-Provence","lc":"AXP","seg":"B","uic":"87751404"}},{"type":"Feature","geometry":{"type":"Point","coordinates":[5.31753,43.45524]},"properties":{"nom":"Aix-en-Provence TGV","lc":"AXV","seg":"A","uic":"87319012"}},{"type":"Feature","geometry":{"type":"Point","coordinates":[5.90937,45.68816]},"properties":{"nom":"Aix-les-Bains le Revard","lc":"AIX","seg":"B","uic":"87741132"}},{"type":"Feature","geometry":{"type":"Point","coordinates":[1.14569,45.7965]},"properties":{"nom":"Aixe-sur-Vienne","lc":"ASV","seg":"C","uic":"87592667"}},{"type":"Feature","geometry":{"type":"Point","coordinates":[4.77178,45.75212]},"properties":{"nom":"Alaï","lc":"ALA","seg":"C","uic":"87722744"}},{"type":"Feature","geometry":{"type":"Point","coordinates":[5.94834,45.78595]},"properties":{"nom":"Albens","lc":"ABN","seg":"B","uic":"87746115"}},{"type":"Feature","geometry":{"type":"Point","coordinates":[2.64453,50.00546]},"properties":{"nom":"Albert","lc":"ALJ","seg":"B","uic":"87313072"}},{"type":"Feature","geometry":{"type":"Point","coordinates":[6.38317,45.67298]},"properties":{"nom":"Albertville","lc":"ALV","seg":"B","uic":"87741645"}},{"type":"Feature","geometry":{"type":"Point","coordinates":[2.13796,43.92238]},"properties":{"nom":"Albi","lc":"ALB","seg":"B","uic":"87615005"}},{"type":"Feature","geometry":{"type":"Point","coordinates":[2.14096,43.93801]},"properties":{"nom":"Albi Madeleine","lc":"ALM","seg":"C","uic":"87615195"}},{"type":"Feature","geometry":{"type":"Point","coordinates":[1.4448,44.09191]},"properties":{"nom":"Albias","lc":"ALE","seg":"C","uic":"87613398"}},{"type":"Feature","geometry":{"type":"Point","coordinates":[4.83287,45.87492]},"properties":{"nom":"Albigny - Neuville","lc":"VVN","seg":"B","uic":"87721266"}},{"type":"Feature","geometry":{"type":"Point","coordinates":[0.09853,48.43388]},"properties":{"nom":"Alençon","lc":"ALN","seg":"B","uic":"87444711"}},{"type":"Feature","geometry":{"type":"Point","coordinates":[4.08495,44.12783]},"properties":{"nom":"Alès","lc":"ALS","seg":"B","uic":"87775288"}},{"type":"Feature","geometry":{"type":"Point","coordinates":[1.47315,45.25894]},"properties":{"nom":"Allassac","lc":"AAA","seg":"C","uic":"87594234"}},{"type":"Feature","geometry":{"type":"Point","coordinates":[2.50648,48.89711]},"properties":{"nom":"Allée de la Tour Rendez-Vous","lc":"AET","seg":"B","uic":"87113878"}},{"type":"Feature","geometry":{"type":"Point","coordinates":[2.07827,48.81431]},"properties":{"nom":"Allée Royale","lc":"AYL","seg":"B","uic":"87710913"}},{"type":"Feature","geometry":{"type":"Point","coordinates":[3.66389,44.5413]},"properties":{"nom":"Allenc","lc":"AEN","seg":"C","uic":"87783654"}},{"type":"Feature","geometry":{"type":"Point","coordinates":[3.67352,44.91922]},"properties":{"nom":"Alleyras","lc":"AES","seg":"C","uic":"87731885"}},{"type":"Feature","geometry":{"type":"Point","coordinates":[7.23925,47.62702]},"properties":{"nom":"Altkirch","lc":"ALK","seg":"B","uic":"87182238"}},{"type":"Feature","geometry":{"type":"Point","coordinates":[4.47388,49.52382]},"properties":{"nom":"Amagne - Lucquy","lc":"AMA","seg":"C","uic":"87172262"}},{"type":"Feature","geometry":{"type":"Point","coordinates":[1.4065,45.95291]},"properties":{"nom":"Ambazac","lc":"ABZ","seg":"C","uic":"87592311"}},{"type":"Feature","geometry":{"type":"Point","coordinates":[5.34239,45.95401]},"properties":{"nom":"Ambérieu-en-Bugey","lc":"AMB","seg":"B","uic":"87743716"}},{"type":"Feature","geometry":{"type":"Point","coordinates":[0.9813,47.42148]},"properties":{"nom":"Amboise","lc":"AMQ","seg":"B","uic":"87574343"}},{"type":"Feature","geometry":{"type":"Point","coordinates":[5.33826,46.01159]},"properties":{"nom":"Ambronay - Priay","lc":"AAI","seg":"C","uic":"87743146"}},{"type":"Feature","geometry":{"type":"Point","coordinates":[2.31259,49.89075]},"properties":{"nom":"Amiens","lc":"AMS","seg":"A","uic":"87313874"}},{"type":"Feature","geometry":{"type":"Point","coordinates":[3.91058,49.48473]},"properties":{"nom":"Amifontaine","lc":"AMF","seg":"C","uic":"87171744"}},{"type":"Feature","geometry":{"type":"Point","coordinates":[1.38929,48.43818]},"properties":{"nom":"Amilly Ouerray","lc":"AMY","seg":"C","uic":"87394205"}},{"type":"Feature","geometry":{"type":"Point","coordinates":[4.32684,45.97098]},"properties":{"nom":"Amplepuis","lc":"AMP","seg":"B","uic":"87721035"}},{"type":"Feature","geometry":{"type":"Point","coordinates":[-1.17776,47.36933]},"properties":{"nom":"Ancenis","lc":"ANC","seg":"B","uic":"87481192"}},{"type":"Feature","geometry":{"type":"Point","coordinates":[4.67024,49.93074]},"properties":{"nom":"Anchamps","lc":"ACP","seg":"C","uic":"87172858"}},{"type":"Feature","geometry":{"type":"Point","coordinates":[0.25034,46.34962]},"properties":{"nom":"Anché - Voulon","lc":"ACV","seg":"C","uic":"87575332"}},{"type":"Feature","geometry":{"type":"Point","coordinates":[6.06277,49.05751]},"properties":{"nom":"Ancy-sur-Moselle","lc":"AYM","seg":"C","uic":"87192419"}},{"type":"Feature","geometry":{"type":"Point","coordinates":[5.92358,46.85947]},"properties":{"nom":"Andelot-en-Montagne","lc":"AND","seg":"C","uic":"87715102"}},{"type":"Feature","geometry":{"type":"Point","coordinates":[1.80026,42.58945]},"properties":{"nom":"Andorre – l’Hospitalet","lc":"LHT","seg":"C","uic":"87611517"}},{"type":"Feature","geometry":{"type":"Point","coordinates":[2.04928,48.9747]},"properties":{"nom":"Andrésy","lc":"ACY","seg":"B","uic":"87381491"}},{"type":"Feature","geometry":{"type":"Point","coordinates":[4.25483,45.5217]},"properties":{"nom":"Andrézieux-Bouthéon","lc":"ANZ","seg":"C","uic":"87726406"}},{"type":"Feature","geometry":{"type":"Point","coordinates":[-0.53189,47.46709]},"properties":{"nom":"Angers Maître École","lc":"AME","seg":"C","uic":"87484048"}},{"type":"Feature","geometry":{"type":"Point","coordinates":[-0.55682,47.46465]},"properties":{"nom":"Angers Saint-Laud","lc":"ASL","seg":"A","uic":"87484006"}},{"type":"Feature","geometry":{"type":"Point","coordinates":[2.00349,48.31121]},"properties":{"nom":"Angerville","lc":"AGV","seg":"B","uic":"87543090"}},{"type":"Feature","geometry":{"type":"Point","coordinates":[0.16461,45.65357]},"properties":{"nom":"Angoulême","lc":"ANG","seg":"A","uic":"87583005"}},{"type":"Feature","geometry":{"type":"Point","coordinates":[-1.11545,46.10806]},"properties":{"nom":"Angoulins sur Mer","lc":"AOM","seg":"C","uic":"87485102"}},{"type":"Feature","geometry":{"type":"Point","coordinates":[3.44876,49.49601]},"properties":{"nom":"Anizy - Pinon","lc":"API","seg":"B","uic":"87296566"}},{"type":"Feature","geometry":{"type":"Point","coordinates":[3.14754,50.62277]},"properties":{"nom":"Annappes","lc":"ANP","seg":"C","uic":"87286856"}},{"type":"Feature","geometry":{"type":"Point","coordinates":[6.12184,45.90197]},"properties":{"nom":"Annecy","lc":"ANY","seg":"A","uic":"87746008"}},{"type":"Feature","geometry":{"type":"Point","coordinates":[6.23652,46.19922]},"properties":{"nom":"Annemasse","lc":"ANE","seg":"B","uic":"87745497"}},{"type":"Feature","geometry":{"type":"Point","coordinates":[4.09298,49.98489]},"properties":{"nom":"Anor","lc":"ANO","seg":"C","uic":"87295055"}},{"type":"Feature","geometry":{"type":"Point","coordinates":[4.71987,45.93929]},"properties":{"nom":"Anse Halte","lc":"AHA","seg":"B","uic":"87721324"}},{"type":"Feature","geometry":{"type":"Point","coordinates":[6.8921,43.43496]},"properties":{"nom":"Anthéor Cap Roux","lc":"AHC","seg":"C","uic":"87757567"}},{"type":"Feature","geometry":{"type":"Point","coordinates":[7.1195,43.58578]},"properties":{"nom":"Antibes","lc":"ATB","seg":"A","uic":"87757674"}},{"type":"Feature","geometry":{"type":"Point","coordinates":[2.25494,50.44685]},"properties":{"nom":"Anvin","lc":"ANV","seg":"C","uic":"87317255"}},{"type":"Feature","geometry":{"type":"Point","coordinates":[6.37197,49.45884]},"properties":{"nom":"Apach","lc":"APJ","seg":"C","uic":"87191643"}},{"type":"Feature","geometry":{"type":"Point","coordinates":[3.12219,49.58088]},"properties":{"nom":"Appilly","lc":"APP","seg":"C","uic":"87296459"}},{"type":"Feature","geometry":{"type":"Point","coordinates":[-0.39545,44.67436]},"properties":{"nom":"Arbanats","lc":"ABH","seg":"C","uic":"87582726"}},{"type":"Feature","geometry":{"type":"Point","coordinates":[5.76483,46.91251]},"properties":{"nom":"Arbois","lc":"AOI","seg":"C","uic":"87718155"}},{"type":"Feature","geometry":{"type":"Point","coordinates":[5.77678,47.03035]},"properties":{"nom":"Arc-et-Senans","lc":"ACA","seg":"C","uic":"87718841"}},{"type":"Feature","geometry":{"type":"Point","coordinates":[-1.16523,44.65901]},"properties":{"nom":"Arcachon","lc":"ARC","seg":"B","uic":"87582668"}},{"type":"Feature","geometry":{"type":"Point","coordinates":[6.52831,48.11981]},"properties":{"nom":"Arches","lc":"ARH","seg":"C","uic":"87144410"}},{"type":"Feature","geometry":{"type":"Point","coordinates":[3.76689,47.60085]},"properties":{"nom":"Arcy-sur-Cure","lc":"ACU","seg":"C","uic":"87683680"}},{"type":"Feature","geometry":{"type":"Point","coordinates":[5.36762,43.31323]},"properties":{"nom":"Arenc Euroméditerranée","lc":"AEM","seg":"C","uic":"87580340"}},{"type":"Feature","geometry":{"type":"Point","coordinates":[-0.80938,44.00698]},"properties":{"nom":"Arengosse","lc":"ARO","seg":"C","uic":"87671479"}},{"type":"Feature","geometry":{"type":"Point","coordinates":[3.02235,42.54397]},"properties":{"nom":"Argelès-sur-Mer","lc":"AMR","seg":"B","uic":"87784231"}},{"type":"Feature","geometry":{"type":"Point","coordinates":[-0.02529,48.73855]},"properties":{"nom":"Argentan","lc":"ARG","seg":"B","uic":"87444539"}},{"type":"Feature","geometry":{"type":"Point","coordinates":[2.25727,48.94686]},"properties":{"nom":"Argenteuil","lc":"ARW","seg":"B","uic":"87381848"}},{"type":"Feature","geometry":{"type":"Point","coordinates":[6.92648,45.98194]},"properties":{"nom":"Argentière","lc":"AGI","seg":"C","uic":"87746859"}},{"type":"Feature","geometry":{"type":"Point","coordinates":[1.51831,46.59225]},"properties":{"nom":"Argenton-sur-Creuse","lc":"AGC","seg":"B","uic":"87597120"}},{"type":"Feature","geometry":{"type":"Point","coordinates":[4.63203,43.68485]},"properties":{"nom":"Arles","lc":"ARS","seg":"B","uic":"87753657"}},{"type":"Feature","geometry":{"type":"Point","coordinates":[3.12081,50.28632]},"properties":{"nom":"Arleux","lc":"ARX","seg":"C","uic":"87345421"}},{"type":"Feature","geometry":{"type":"Point","coordinates":[2.87763,50.68084]},"properties":{"nom":"Armentières","lc":"ARM","seg":"B","uic":"87286146"}},{"type":"Feature","geometry":{"type":"Point","coordinates":[0.18988,47.92857]},"properties":{"nom":"Arnage","lc":"AAG","seg":"C","uic":"87396549"}},{"type":"Feature","geometry":{"type":"Point","coordinates":[2.40831,50.83152]},"properties":{"nom":"Arnèke","lc":"ARN","seg":"B","uic":"87281121"}},{"type":"Feature","geometry":{"type":"Point","coordinates":[2.24112,48.58617]},"properties":{"nom":"Arpajon","lc":"ARP","seg":"B","uic":"87545467"}},{"type":"Feature","geometry":{"type":"Point","coordinates":[2.78194,50.28667]},"properties":{"nom":"Arras","lc":"ARR","seg":"A","uic":"87342014"}},{"type":"Feature","geometry":{"type":"Point","coordinates":[1.12856,48.09979]},"properties":{"nom":"Arrou","lc":"AOU","seg":"C","uic":"87394486"}},{"type":"Feature","geometry":{"type":"Point","coordinates":[6.07765,49.07447]},"properties":{"nom":"Ars-sur-Moselle","lc":"ASM","seg":"B","uic":"87192401"}},{"type":"Feature","geometry":{"type":"Point","coordinates":[1.88337,48.08088]},"properties":{"nom":"Artenay","lc":"ATY","seg":"C","uic":"87543058"}},{"type":"Feature","geometry":{"type":"Point","coordinates":[-0.57019,43.39311]},"properties":{"nom":"Artix","lc":"ATI","seg":"C","uic":"87672212"}},{"type":"Feature","geometry":{"type":"Point","coordinates":[3.31067,45.36538]},"properties":{"nom":"Arvant","lc":"ARV","seg":"C","uic":"87734251"}},{"type":"Feature","geometry":{"type":"Point","coordinates":[3.1599,50.62186]},"properties":{"nom":"Ascq","lc":"ASC","seg":"C","uic":"87286864"}},{"type":"Feature","geometry":{"type":"Point","coordinates":[2.28324,48.9058]},"properties":{"nom":"Asnières-sur-Seine","lc":"AEE","seg":"B","uic":"87381137"}},{"type":"Feature","geometry":{"type":"Point","coordinates":[5.75457,44.51943]},"properties":{"nom":"Aspres-sur-Buëch","lc":"ASH","seg":"C","uic":"87763250"}},{"type":"Feature","geometry":{"type":"Point","coordinates":[-0.29502,43.2544]},"properties":{"nom":"Assat","lc":"ATK","seg":"C","uic":"87672162"}},{"type":"Feature","geometry":{"type":"Point","coordinates":[1.86977,44.67462]},"properties":{"nom":"Assier","lc":"AER","seg":"C","uic":"87613075"}},{"type":"Feature","geometry":{"type":"Point","coordinates":[2.40375,48.71256]},"properties":{"nom":"Athis-Mons","lc":"ATH","seg":"B","uic":"87545251"}},{"type":"Feature","geometry":{"type":"Point","coordinates":[5.56658,43.29605]},"properties":{"nom":"Aubagne","lc":"AUB","seg":"B","uic":"87751750"}},{"type":"Feature","geometry":{"type":"Point","coordinates":[1.64123,45.18168]},"properties":{"nom":"Aubazines - Saint-Hilaire","lc":"ABA","seg":"C","uic":"87594465"}},{"type":"Feature","geometry":{"type":"Point","coordinates":[1.8485,48.97183]},"properties":{"nom":"Aubergenville Élisabethville","lc":"AEH","seg":"B","uic":"87386730"}},{"type":"Feature","geometry":{"type":"Point","coordinates":[3.16051,45.98381]},"properties":{"nom":"Aubiat","lc":"AUK","seg":"C","uic":"87734111"}},{"type":"Feature","geometry":{"type":"Point","coordinates":[-0.41988,45.01514]},"properties":{"nom":"Aubie - Saint-Antoine","lc":"ATX","seg":"C","uic":"87491233"}},{"type":"Feature","geometry":{"type":"Point","coordinates":[0.78912,43.65021]},"properties":{"nom":"Aubiet","lc":"AIT","seg":"C","uic":"87611764"}},{"type":"Feature","geometry":{"type":"Point","coordinates":[0.26577,47.68695]},"properties":{"nom":"Aubigné-Racan","lc":"ABG","seg":"C","uic":"87396572"}},{"type":"Feature","geometry":{"type":"Point","coordinates":[3.15871,50.26853]},"properties":{"nom":"Aubigny-au-Bac","lc":"AAB","seg":"C","uic":"87345447"}},{"type":"Feature","geometry":{"type":"Point","coordinates":[2.5928,50.35297]},"properties":{"nom":"Aubigny-en-Artois","lc":"ABI","seg":"C","uic":"87342246"}},{"type":"Feature","geometry":{"type":"Point","coordinates":[2.23931,44.52728]},"properties":{"nom":"Aubin","lc":"AVB","seg":"C","uic":"87613224"}},{"type":"Feature","geometry":{"type":"Point","coordinates":[1.97054,50.39461]},"properties":{"nom":"Aubin-Saint-Vaast","lc":"AUV","seg":"C","uic":"87316604"}},{"type":"Feature","geometry":{"type":"Point","coordinates":[5.97146,49.21616]},"properties":{"nom":"Auboué","lc":"ABE","seg":"C","uic":"87191684"}},{"type":"Feature","geometry":{"type":"Point","coordinates":[4.76165,50.10445]},"properties":{"nom":"Aubrives","lc":"ARI","seg":"C","uic":"87172122"}},{"type":"Feature","geometry":{"type":"Point","coordinates":[0.59666,43.64749]},"properties":{"nom":"Auch","lc":"AUH","seg":"B","uic":"87611749"}},{"type":"Feature","geometry":{"type":"Point","coordinates":[2.10224,50.39636]},"properties":{"nom":"Auchy-lès-Hesdin","lc":"AHH","seg":"C","uic":"87317230"}},{"type":"Feature","geometry":{"type":"Point","coordinates":[-0.59601,49.21613]},"properties":{"nom":"Audrieu","lc":"ADR","seg":"C","uic":"87444059"}},{"type":"Feature","geometry":{"type":"Point","coordinates":[2.07636,50.87567]},"properties":{"nom":"Audruicq","lc":"ADQ","seg":"B","uic":"87281428"}},{"type":"Feature","geometry":{"type":"Point","coordinates":[5.89139,49.36682]},"properties":{"nom":"Audun-le-Roman","lc":"ALR","seg":"C","uic":"87194357"}},{"type":"Feature","geometry":{"type":"Point","coordinates":[1.09844,49.71604]},"properties":{"nom":"Auffay","lc":"AUF","seg":"B","uic":"87415158"}},{"type":"Feature","geometry":{"type":"Point","coordinates":[3.16143,45.79206]},"properties":{"nom":"Aulnat Aéroport","lc":"AUL","seg":"C","uic":"87562421"}},{"type":"Feature","geometry":{"type":"Point","coordinates":[2.49431,48.93179]},"properties":{"nom":"Aulnay-sous-Bois","lc":"ABM","seg":"B","uic":"87271411"}},{"type":"Feature","geometry":{"type":"Point","coordinates":[3.84337,50.19749]},"properties":{"nom":"Aulnoye-Aymeries","lc":"AYE","seg":"B","uic":"87295600"}},{"type":"Feature","geometry":{"type":"Point","coordinates":[1.75604,49.76504]},"properties":{"nom":"Aumale","lc":"AUM","seg":"C","uic":"87313767"}},{"type":"Feature","geometry":{"type":"Point","coordinates":[3.28355,44.71817]},"properties":{"nom":"Aumont-Aubrac","lc":"AAU","seg":"C","uic":"87783266"}},{"type":"Feature","geometry":{"type":"Point","coordinates":[1.77998,48.44582]},"properties":{"nom":"Auneau","lc":"AUN","seg":"C","uic":"87545657"}},{"type":"Feature","geometry":{"type":"Point","coordinates":[-2.99999,47.68022]},"properties":{"nom":"Auray","lc":"ARY","seg":"A","uic":"87476200"}},{"type":"Feature","geometry":{"type":"Point","coordinates":[4.19834,45.37116]},"properties":{"nom":"Aurec-sur-Loire","lc":"AEC","seg":"C","uic":"87726760"}},{"type":"Feature","geometry":{"type":"Point","coordinates":[2.43566,44.92109]},"properties":{"nom":"Aurillac","lc":"AUC","seg":"B","uic":"87645002"}},{"type":"Feature","geometry":{"type":"Point","coordinates":[1.46883,43.34899]},"properties":{"nom":"Auterive","lc":"AIE","seg":"B","uic":"87611384"}},{"type":"Feature","geometry":{"type":"Point","coordinates":[2.17526,49.07062]},"properties":{"nom":"Auvers-sur-Oise","lc":"AUW","seg":"C","uic":"87276543"}},{"type":"Feature","geometry":{"type":"Point","coordinates":[3.58514,47.79765]},"properties":{"nom":"Auxerre Saint-Gervais","lc":"AUX","seg":"B","uic":"87683573"}},{"type":"Feature","geometry":{"type":"Point","coordinates":[5.37737,47.19266]},"properties":{"nom":"Auxonne","lc":"AXO","seg":"B","uic":"87713347"}},{"type":"Feature","geometry":{"type":"Point","coordinates":[3.91245,47.49576]},"properties":{"nom":"Avallon","lc":"AVA","seg":"C","uic":"87683789"}},{"type":"Feature","geometry":{"type":"Point","coordinates":[4.04369,49.06478]},"properties":{"nom":"Avenay","lc":"AAY","seg":"C","uic":"87171579"}},{"type":"Feature","geometry":{"type":"Point","coordinates":[2.27997,48.85332]},"properties":{"nom":"Avenue du Président Kennedy Maison de Radio France","lc":"APK","seg":"B","uic":"87543207"}},{"type":"Feature","geometry":{"type":"Point","coordinates":[2.27562,48.87097]},"properties":{"nom":"Avenue Foch","lc":"AVF","seg":"B","uic":"87381038"}},{"type":"Feature","geometry":{"type":"Point","coordinates":[2.27224,48.86441]},"properties":{"nom":"Avenue Henri Martin","lc":"AHM","seg":"B","uic":"87381046"}},{"type":"Feature","geometry":{"type":"Point","coordinates":[3.94859,50.11855]},"properties":{"nom":"Avesnelles","lc":"AVS","seg":"C","uic":"87295725"}},{"type":"Feature","geometry":{"type":"Point","coordinates":[3.93295,50.12674]},"properties":{"nom":"Avesnes-sur-Helpe","lc":"AVN","seg":"B","uic":"87295733"}},{"type":"Feature","geometry":{"type":"Point","coordinates":[4.80528,43.9419]},"properties":{"nom":"Avignon Centre","lc":"AVI","seg":"A","uic":"87765008"}},{"type":"Feature","geometry":{"type":"Point","coordinates":[4.78608,43.92159]},"properties":{"nom":"Avignon TGV","lc":"AVV","seg":"A;A","uic":"87981902;87318964"}},{"type":"Feature","geometry":{"type":"Point","coordinates":[1.78727,43.36388]},"properties":{"nom":"Avignonet-Lauragais","lc":"AWG","seg":"C","uic":"87616011"}},{"type":"Feature","geometry":{"type":"Point","coordinates":[2.83365,50.40723]},"properties":{"nom":"Avion","lc":"AON","seg":"C","uic":"87342584"}},{"type":"Feature","geometry":{"type":"Point","coordinates":[2.65238,47.03491]},"properties":{"nom":"Avord","lc":"ADG","seg":"C","uic":"87576439"}},{"type":"Feature","geometry":{"type":"Point","coordinates":[6.43457,47.12984]},"properties":{"nom":"Avoudrey","lc":"AVO","seg":"C","uic":"87718551"}},{"type":"Feature","geometry":{"type":"Point","coordinates":[-1.37008,48.69024]},"properties":{"nom":"Avranches","lc":"AVR","seg":"C","uic":"87448514"}},{"type":"Feature","geometry":{"type":"Point","coordinates":[2.41796,49.44464]},"properties":{"nom":"Avrechy","lc":"AVY","seg":"C","uic":"87313296"}},{"type":"Feature","geometry":{"type":"Point","coordinates":[1.83325,42.7248]},"properties":{"nom":"Ax-les-Thermes","lc":"AXN","seg":"C","uic":"87611533"}},{"type":"Feature","geometry":{"type":"Point","coordinates":[4.00156,49.04873]},"properties":{"nom":"Ay","lc":"AYN","seg":"C","uic":"87171561"}},{"type":"Feature","geometry":{"type":"Point","coordinates":[-1.12805,46.12738]},"properties":{"nom":"Aytré Plage","lc":"ATL","seg":"C","uic":"87437806"}},{"type":"Feature","geometry":{"type":"Point","coordinates":[0.44754,47.26634]},"properties":{"nom":"Azay-le-Rideau","lc":"AZR","seg":"B","uic":"87571638"}},{"type":"Feature","geometry":{"type":"Point","coordinates":[0.85999,47.36527]},"properties":{"nom":"Azay-sur-Cher","lc":"EUR","seg":"C","uic":"87574442"}},{"type":"Feature","geometry":{"type":"Point","coordinates":[6.69578,48.49134]},"properties":{"nom":"Azerailles","lc":"AZE","seg":"C","uic":"87141408"}},{"type":"Feature","geometry":{"type":"Point","coordinates":[-1.54493,47.25875]},"properties":{"nom":"Babinière","lc":"BBR","seg":"C","uic":"87590349"}},{"type":"Feature","geometry":{"type":"Point","coordinates":[6.74383,48.45241]},"properties":{"nom":"Baccarat","lc":"BAC","seg":"B","uic":"87141416"}},{"type":"Feature","geometry":{"type":"Point","coordinates":[2.16025,44.66521]},"properties":{"nom":"Bagnac-sur-Célé","lc":"BAG","seg":"C","uic":"87613604"}},{"type":"Feature","geometry":{"type":"Point","coordinates":[2.70333,48.23048]},"properties":{"nom":"Bagneaux-sur-Loing","lc":"BXN","seg":"C","uic":"87684191"}},{"type":"Feature","geometry":{"type":"Point","coordinates":[3.62818,44.52861]},"properties":{"nom":"Bagnols - Chadenet","lc":"BCT","seg":"C","uic":"87783647"}},{"type":"Feature","geometry":{"type":"Point","coordinates":[4.62703,44.16163]},"properties":{"nom":"Bagnols-sur-Cèze","lc":"BSC","seg":"C","uic":"87764571"}},{"type":"Feature","geometry":{"type":"Point","coordinates":[4.00716,43.65332]},"properties":{"nom":"Baillargues","lc":"BGU","seg":"B","uic":"87773457"}},{"type":"Feature","geometry":{"type":"Point","coordinates":[1.32489,48.3668]},"properties":{"nom":"Bailleau-le-Pin","lc":"BAP","seg":"B","uic":"87394411"}},{"type":"Feature","geometry":{"type":"Point","coordinates":[2.73445,50.72916]},"properties":{"nom":"Bailleul","lc":"BIU","seg":"B","uic":"87286179"}},{"type":"Feature","geometry":{"type":"Point","coordinates":[2.84098,50.33513]},"properties":{"nom":"Bailleul-Sir-Berthoult","lc":"BSH","seg":"C","uic":"87342592"}},{"type":"Feature","geometry":{"type":"Point","coordinates":[2.07398,48.83733]},"properties":{"nom":"Bailly","lc":"BLY","seg":"B","uic":"87710780"}},{"type":"Feature","geometry":{"type":"Point","coordinates":[6.29527,47.98113]},"properties":{"nom":"Bains-les-Bains","lc":"BNS","seg":"C","uic":"87144147"}},{"type":"Feature","geometry":{"type":"Point","coordinates":[3.23478,50.61845]},"properties":{"nom":"Baisieux","lc":"BAI","seg":"C","uic":"87286872"}},{"type":"Feature","geometry":{"type":"Point","coordinates":[2.3442,49.29424]},"properties":{"nom":"Balagny Saint-Épin","lc":"BXE","seg":"C","uic":"87313569"}},{"type":"Feature","geometry":{"type":"Point","coordinates":[4.18744,45.81786]},"properties":{"nom":"Balbigny","lc":"BBY","seg":"C","uic":"87726869"}},{"type":"Feature","geometry":{"type":"Point","coordinates":[0.6189,47.33699]},"properties":{"nom":"Ballan-Miré","lc":"BME","seg":"C","uic":"87571604"}},{"type":"Feature","geometry":{"type":"Point","coordinates":[2.37127,48.53211]},"properties":{"nom":"Ballancourt-sur-Essonne","lc":"BUR","seg":"B","uic":"87681437"}},{"type":"Feature","geometry":{"type":"Point","coordinates":[3.4561,44.48201]},"properties":{"nom":"Balsièges","lc":"BKB","seg":"C","uic":"87111864"}},{"type":"Feature","geometry":{"type":"Point","coordinates":[3.19585,44.44776]},"properties":{"nom":"Banassac - La Canourgue","lc":"BAA","seg":"C","uic":"87783324"}},{"type":"Feature","geometry":{"type":"Point","coordinates":[5.75012,43.14034]},"properties":{"nom":"Bandol","lc":"BND","seg":"B","uic":"87755223"}},{"type":"Feature","geometry":{"type":"Point","coordinates":[-3.70653,47.92675]},"properties":{"nom":"Bannalec","lc":"BNC","seg":"C","uic":"87474189"}},{"type":"Feature","geometry":{"type":"Point","coordinates":[7.50387,47.81097]},"properties":{"nom":"Bantzenheim","lc":"BTZ","seg":"C","uic":"87182840"}},{"type":"Feature","geometry":{"type":"Point","coordinates":[3.12505,42.48296]},"properties":{"nom":"Banyuls-sur-Mer","lc":"BAN","seg":"B","uic":"87784298"}},{"type":"Feature","geometry":{"type":"Point","coordinates":[5.16682,48.77331]},"properties":{"nom":"Bar-le-Duc","lc":"BLD","seg":"B","uic":"87175042"}},{"type":"Feature","geometry":{"type":"Point","coordinates":[4.70667,48.23854]},"properties":{"nom":"Bar-sur-Aube","lc":"BRB","seg":"C","uic":"87118299"}},{"type":"Feature","geometry":{"type":"Point","coordinates":[2.42755,44.27044]},"properties":{"nom":"Baraqueville Carcenac Peyralès","lc":"BAQ","seg":"C","uic":"87615757"}},{"type":"Feature","geometry":{"type":"Point","coordinates":[0.95352,49.54912]},"properties":{"nom":"Barentin","lc":"BTM","seg":"B","uic":"87411264"}},{"type":"Feature","geometry":{"type":"Point","coordinates":[3.41098,44.49926]},"properties":{"nom":"Barjac","lc":"BJC","seg":"C","uic":"87783563"}},{"type":"Feature","geometry":{"type":"Point","coordinates":[5.69974,49.28453]},"properties":{"nom":"Baroncourt","lc":"BTS","seg":"C","uic":"87192658"}},{"type":"Feature","geometry":{"type":"Point","coordinates":[7.45652,48.40329]},"properties":{"nom":"Barr","lc":"BAR","seg":"B","uic":"87214247"}},{"type":"Feature","geometry":{"type":"Point","coordinates":[-0.32158,44.60543]},"properties":{"nom":"Barsac","lc":"BSQ","seg":"C","uic":"87582759"}},{"type":"Feature","geometry":{"type":"Point","coordinates":[7.48726,47.63493]},"properties":{"nom":"Bartenheim","lc":"BTK","seg":"B","uic":"87182113"}},{"type":"Feature","geometry":{"type":"Point","coordinates":[4.1396,45.2976]},"properties":{"nom":"Bas - Monistrol-sur-Loire","lc":"BMO","seg":"B","uic":"87726778"}},{"type":"Feature","geometry":{"type":"Point","coordinates":[6.80685,47.68101]},"properties":{"nom":"Bas Évette","lc":"BEV","seg":"C","uic":"87184200"}},{"type":"Feature","geometry":{"type":"Point","coordinates":[1.68187,47.32018]},"properties":{"nom":"Base Aérienne","lc":"BAE","seg":"C","uic":"87699223"}},{"type":"Feature","geometry":{"type":"Point","coordinates":[6.23487,49.38057]},"properties":{"nom":"Basse-Ham","lc":"BHD","seg":"C","uic":"87191601"}},{"type":"Feature","geometry":{"type":"Point","coordinates":[-0.52231,44.90129]},"properties":{"nom":"Bassens","lc":"BAS","seg":"C","uic":"87581850"}},{"type":"Feature","geometry":{"type":"Point","coordinates":[-2.47899,47.28095]},"properties":{"nom":"Batz-sur-Mer","lc":"BSK","seg":"C","uic":"87481770"}},{"type":"Feature","geometry":{"type":"Point","coordinates":[1.66813,47.81175]},"properties":{"nom":"Baule","lc":"BLJ","seg":"C","uic":"87574152"}},{"type":"Feature","geometry":{"type":"Point","coordinates":[6.3596,47.35394]},"properties":{"nom":"Baume-les-Dames","lc":"BDA","seg":"B","uic":"87718460"}},{"type":"Feature","geometry":{"type":"Point","coordinates":[2.9054,50.51168]},"properties":{"nom":"Bauvin - Provin","lc":"BVP","seg":"B","uic":"87345280"}},{"type":"Feature","geometry":{"type":"Point","coordinates":[-0.69806,49.26984]},"properties":{"nom":"Bayeux","lc":"BAY","seg":"B","uic":"87444067"}},{"type":"Feature","geometry":{"type":"Point","coordinates":[6.32257,48.46805]},"properties":{"nom":"Bayon","lc":"BYN","seg":"B","uic":"87141218"}},{"type":"Feature","geometry":{"type":"Point","coordinates":[-1.47031,43.4968]},"properties":{"nom":"Bayonne","lc":"BYE","seg":"A","uic":"87673004"}},{"type":"Feature","geometry":{"type":"Point","coordinates":[4.17389,49.3612]},"properties":{"nom":"Bazancourt","lc":"BZT","seg":"B","uic":"87171462"}},{"type":"Feature","geometry":{"type":"Point","coordinates":[1.6205,43.45357]},"properties":{"nom":"Baziège","lc":"BAZ","seg":"C","uic":"87611723"}},{"type":"Feature","geometry":{"type":"Point","coordinates":[3.31799,46.86522]},"properties":{"nom":"Béard","lc":"BVE","seg":"C","uic":"87696468"}},{"type":"Feature","geometry":{"type":"Point","coordinates":[1.89833,50.94537]},"properties":{"nom":"Beau Marais","lc":"BMQ","seg":"C","uic":"87317610"}},{"type":"Feature","geometry":{"type":"Point","coordinates":[4.64709,43.80209]},"properties":{"nom":"Beaucaire","lc":"BCK","seg":"C","uic":"87775023"}},{"type":"Feature","geometry":{"type":"Point","coordinates":[1.62594,47.77837]},"properties":{"nom":"Beaugency","lc":"BGY","seg":"B","uic":"87574160"}},{"type":"Feature","geometry":{"type":"Point","coordinates":[7.33155,43.70665]},"properties":{"nom":"Beaulieu-sur-Mer","lc":"BUM","seg":"B","uic":"87756379"}},{"type":"Feature","geometry":{"type":"Point","coordinates":[0.77279,49.07417]},"properties":{"nom":"Beaumont-le-Roger","lc":"BLR","seg":"C","uic":"87387183"}},{"type":"Feature","geometry":{"type":"Point","coordinates":[4.84838,47.02305]},"properties":{"nom":"Beaune","lc":"BEA","seg":"B","uic":"87713545"}},{"type":"Feature","geometry":{"type":"Point","coordinates":[1.89535,50.42289]},"properties":{"nom":"Beaurainville","lc":"BIV","seg":"C","uic":"87317198"}},{"type":"Feature","geometry":{"type":"Point","coordinates":[-0.45017,44.70104]},"properties":{"nom":"Beautiran","lc":"BIR","seg":"B","uic":"87582700"}},{"type":"Feature","geometry":{"type":"Point","coordinates":[2.08869,49.42648]},"properties":{"nom":"Beauvais","lc":"BVS","seg":"B","uic":"87313510"}},{"type":"Feature","geometry":{"type":"Point","coordinates":[-0.46875,46.17689]},"properties":{"nom":"Beauvoir-sur-Niort","lc":"BVK","seg":"C","uic":"87485342"}},{"type":"Feature","geometry":{"type":"Point","coordinates":[4.32122,43.7245]},"properties":{"nom":"Beauvoisin","lc":"BVW","seg":"C","uic":"87775809"}},{"type":"Feature","geometry":{"type":"Point","coordinates":[2.26838,48.90592]},"properties":{"nom":"Bécon les Bruyères","lc":"BEC","seg":"B","uic":"87382002"}},{"type":"Feature","geometry":{"type":"Point","coordinates":[3.14957,43.6087]},"properties":{"nom":"Bédarieux","lc":"BED","seg":"C","uic":"87781609"}},{"type":"Feature","geometry":{"type":"Point","coordinates":[4.89313,44.04076]},"properties":{"nom":"Bédarrides","lc":"BDR","seg":"C","uic":"87765198"}},{"type":"Feature","geometry":{"type":"Point","coordinates":[-0.60348,42.99589]},"properties":{"nom":"Bedous","lc":"GGM","seg":"C","uic":"87672774"}},{"type":"Feature","geometry":{"type":"Point","coordinates":[-0.55525,44.79954]},"properties":{"nom":"Bègles","lc":"BGL","seg":"C","uic":"87581801"}},{"type":"Feature","geometry":{"type":"Point","coordinates":[-0.52651,45.7008]},"properties":{"nom":"Beillant","lc":"BIL","seg":"C","uic":"87491076"}},{"type":"Feature","geometry":{"type":"Point","coordinates":[6.85396,47.63328]},"properties":{"nom":"Belfort","lc":"BFT","seg":"B","uic":"87184002"}},{"type":"Feature","geometry":{"type":"Point","coordinates":[6.89769,47.58594]},"properties":{"nom":"Belfort - Montbéliard TGV","lc":"BFB","seg":"A","uic":"87300822"}},{"type":"Feature","geometry":{"type":"Point","coordinates":[1.04612,46.1252]},"properties":{"nom":"Bellac","lc":"BLL","seg":"C","uic":"87592485"}},{"type":"Feature","geometry":{"type":"Point","coordinates":[-3.32285,48.59359]},"properties":{"nom":"Belle-Isle - Bégard","lc":"BIB","seg":"C","uic":"87473165"}},{"type":"Feature","geometry":{"type":"Point","coordinates":[5.82348,46.10943]},"properties":{"nom":"Bellegarde-sur-Valserine","lc":"BGD","seg":"A","uic":"87745000"}},{"type":"Feature","geometry":{"type":"Point","coordinates":[3.06652,46.19926]},"properties":{"nom":"Bellenaves","lc":"BLE","seg":"C","uic":"87641068"}},{"type":"Feature","geometry":{"type":"Point","coordinates":[-1.43467,46.78832]},"properties":{"nom":"Bellevigny","lc":"BVD","seg":"B","uic":"87486142"}},{"type":"Feature","geometry":{"type":"Point","coordinates":[6.10186,48.81957]},"properties":{"nom":"Belleville","lc":"BEE","seg":"C","uic":"87141804"}},{"type":"Feature","geometry":{"type":"Point","coordinates":[4.72903,46.11192]},"properties":{"nom":"Belleville sur Sâone","lc":"BVL","seg":"B","uic":"87721357"}},{"type":"Feature","geometry":{"type":"Point","coordinates":[2.22967,48.819]},"properties":{"nom":"Bellevue","lc":"BLU","seg":"B","uic":"87393116"}},{"type":"Feature","geometry":{"type":"Point","coordinates":[5.62988,46.23813]},"properties":{"nom":"Bellignat","lc":"BNI","seg":"C","uic":"87743526"}},{"type":"Feature","geometry":{"type":"Point","coordinates":[2.36135,49.09807]},"properties":{"nom":"Belloy - Saint-Martin","lc":"BSW","seg":"B","uic":"87276550"}},{"type":"Feature","geometry":{"type":"Point","coordinates":[1.01188,44.7774]},"properties":{"nom":"Belvès","lc":"BES","seg":"C","uic":"87595876"}},{"type":"Feature","geometry":{"type":"Point","coordinates":[3.75189,44.5618]},"properties":{"nom":"Belvezet","lc":"BVZ","seg":"C","uic":"87783670"}},{"type":"Feature","geometry":{"type":"Point","coordinates":[-3.07219,47.65247]},"properties":{"nom":"Belz - Ploemel","lc":"BZP","seg":"C","uic":"87476408"}},{"type":"Feature","geometry":{"type":"Point","coordinates":[-1.36985,43.62775]},"properties":{"nom":"Bénesse-Maremne","lc":"BMX","seg":"C","uic":"87673285"}},{"type":"Feature","geometry":{"type":"Point","coordinates":[6.75266,48.90656]},"properties":{"nom":"Bénestroff","lc":"BEN","seg":"C","uic":"87192302"}},{"type":"Feature","geometry":{"type":"Point","coordinates":[7.58413,48.37354]},"properties":{"nom":"Benfeld","lc":"BFD","seg":"B","uic":"87214122"}},{"type":"Feature","geometry":{"type":"Point","coordinates":[2.74924,47.00047]},"properties":{"nom":"Bengy-sur-Craon","lc":"BNH","seg":"C","uic":"87576447"}},{"type":"Feature","geometry":{"type":"Point","coordinates":[6.8283,49.13795]},"properties":{"nom":"Béning-lès-Saint-Avold","lc":"BNG","seg":"B","uic":"87193250"}},{"type":"Feature","geometry":{"type":"Point","coordinates":[0.48917,44.85706]},"properties":{"nom":"Bergerac","lc":"BGC","seg":"B","uic":"87584268"}},{"type":"Feature","geometry":{"type":"Point","coordinates":[2.42574,50.96901]},"properties":{"nom":"Bergues","lc":"BEG","seg":"B","uic":"87281105"}},{"type":"Feature","geometry":{"type":"Point","coordinates":[3.81053,50.19801]},"properties":{"nom":"Berlaimont","lc":"BER","seg":"C","uic":"87295808"}},{"type":"Feature","geometry":{"type":"Point","coordinates":[0.59563,49.0871]},"properties":{"nom":"Bernay","lc":"BEY","seg":"A","uic":"87444299"}},{"type":"Feature","geometry":{"type":"Point","coordinates":[1.43217,46.08375]},"properties":{"nom":"Bersac-sur-Rivalier","lc":"BHA","seg":"C","uic":"87592352"}},{"type":"Feature","geometry":{"type":"Point","coordinates":[7.00879,48.80965]},"properties":{"nom":"Berthelming","lc":"BHN","seg":"C","uic":"87215335"}},{"type":"Feature","geometry":{"type":"Point","coordinates":[6.79123,48.42834]},"properties":{"nom":"Bertrichamps","lc":"BHZ","seg":"C","uic":"87141424"}},{"type":"Feature","geometry":{"type":"Point","coordinates":[3.449,50.09113]},"properties":{"nom":"Bertry","lc":"BTD","seg":"C","uic":"87345553"}},{"type":"Feature","geometry":{"type":"Point","coordinates":[5.9532,47.30736]},"properties":{"nom":"Besançon Franche-Comté TGV","lc":"BFC","seg":"A","uic":"87300863"}},{"type":"Feature","geometry":{"type":"Point","coordinates":[6.03391,47.24037]},"properties":{"nom":"Besançon Mouillère","lc":"BNM","seg":"C","uic":"87718015"}},{"type":"Feature","geometry":{"type":"Point","coordinates":[6.022,47.24702]},"properties":{"nom":"Besançon Viotte","lc":"BNV","seg":"A","uic":"87718007"}},{"type":"Feature","geometry":{"type":"Point","coordinates":[-1.87064,47.69888]},"properties":{"nom":"Beslé","lc":"BIQ","seg":"C","uic":"87471219"}},{"type":"Feature","geometry":{"type":"Point","coordinates":[2.21004,49.03576]},"properties":{"nom":"Bessancourt","lc":"BSR","seg":"B","uic":"87276642"}},{"type":"Feature","geometry":{"type":"Point","coordinates":[3.36065,46.44358]},"properties":{"nom":"Bessay-sur-Allier","lc":"BSS","seg":"C","uic":"87696336"}},{"type":"Feature","geometry":{"type":"Point","coordinates":[1.73441,44.94243]},"properties":{"nom":"Bétaille","lc":"BIK","seg":"C","uic":"87594747"}},{"type":"Feature","geometry":{"type":"Point","coordinates":[2.64055,50.52144]},"properties":{"nom":"Béthune","lc":"BET","seg":"B","uic":"87342006"}},{"type":"Feature","geometry":{"type":"Point","coordinates":[-1.63447,48.18148]},"properties":{"nom":"Betton","lc":"BTN","seg":"C","uic":"87471045"}},{"type":"Feature","geometry":{"type":"Point","coordinates":[3.50614,50.38949]},"properties":{"nom":"Beuvrages","lc":"BUS","seg":"C","uic":"87343160"}},{"type":"Feature","geometry":{"type":"Point","coordinates":[2.69241,50.5356]},"properties":{"nom":"Beuvry lès Béthune","lc":"BVR","seg":"C","uic":"87342402"}},{"type":"Feature","geometry":{"type":"Point","coordinates":[1.87557,48.85936]},"properties":{"nom":"Beynes","lc":"BYS","seg":"B","uic":"87393363"}},{"type":"Feature","geometry":{"type":"Point","coordinates":[5.00697,45.83392]},"properties":{"nom":"Beynost","lc":"BNO","seg":"B","uic":"87723544"}},{"type":"Feature","geometry":{"type":"Point","coordinates":[3.21887,43.33633]},"properties":{"nom":"Béziers","lc":"BZS","seg":"A","uic":"87781005"}},{"type":"Feature","geometry":{"type":"Point","coordinates":[2.9415,50.31625]},"properties":{"nom":"Biache-Saint-Vaast","lc":"BIA","seg":"C","uic":"87342097"}},{"type":"Feature","geometry":{"type":"Point","coordinates":[-1.54591,43.4594]},"properties":{"nom":"Biarritz","lc":"BIZ","seg":"A","uic":"87673400"}},{"type":"Feature","geometry":{"type":"Point","coordinates":[2.37684,48.82984]},"properties":{"nom":"Bibliothèque François Mitterrand","lc":"BFM","seg":"B","uic":"87328328"}},{"type":"Feature","geometry":{"type":"Point","coordinates":[-1.34532,43.2683]},"properties":{"nom":"Bidarray Pont Noblia","lc":"PBJ","seg":"C","uic":"87673699"}},{"type":"Feature","geometry":{"type":"Point","coordinates":[-0.6069,43.17892]},"properties":{"nom":"Bidos","lc":"EON","seg":"C","uic":"87691949"}},{"type":"Feature","geometry":{"type":"Point","coordinates":[2.21573,48.75133]},"properties":{"nom":"Bièvres","lc":"BSI","seg":"B","uic":"87393546"}},{"type":"Feature","geometry":{"type":"Point","coordinates":[-0.96621,44.63738]},"properties":{"nom":"Biganos Facture","lc":"FAT","seg":"B","uic":"87582478"}},{"type":"Feature","geometry":{"type":"Point","coordinates":[2.36864,46.80158]},"properties":{"nom":"Bigny","lc":"BIG","seg":"C","uic":"87576306"}},{"type":"Feature","geometry":{"type":"Point","coordinates":[2.91206,50.41556]},"properties":{"nom":"Billy-Montigny","lc":"BYM","seg":"B","uic":"87345140"}},{"type":"Feature","geometry":{"type":"Point","coordinates":[7.12609,43.61095]},"properties":{"nom":"Biot","lc":"BJO","seg":"B","uic":"87757690"}},{"type":"Feature","geometry":{"type":"Point","coordinates":[7.74222,48.61184]},"properties":{"nom":"Bischheim","lc":"BHM","seg":"C","uic":"87212308"}},{"type":"Feature","geometry":{"type":"Point","coordinates":[7.49772,48.48701]},"properties":{"nom":"Bischoffsheim","lc":"BFH","seg":"B","uic":"87214296"}},{"type":"Feature","geometry":{"type":"Point","coordinates":[7.85165,48.76575]},"properties":{"nom":"Bischwiller","lc":"BHW","seg":"B","uic":"87213611"}},{"type":"Feature","geometry":{"type":"Point","coordinates":[7.07851,47.82737]},"properties":{"nom":"Bitschwiller-lès-Thann","lc":"BWP","seg":"C","uic":"87182576"}},{"type":"Feature","geometry":{"type":"Point","coordinates":[6.38695,48.56497]},"properties":{"nom":"Blainville - Damelevières","lc":"BLV","seg":"B","uic":"87141135"}},{"type":"Feature","geometry":{"type":"Point","coordinates":[4.74108,47.37344]},"properties":{"nom":"Blaisy-Bas","lc":"BSB","seg":"C","uic":"87713073"}},{"type":"Feature","geometry":{"type":"Point","coordinates":[1.62591,49.93261]},"properties":{"nom":"Blangy-sur-Bresle","lc":"BBM","seg":"C","uic":"87313809"}},{"type":"Feature","geometry":{"type":"Point","coordinates":[2.17216,50.42467]},"properties":{"nom":"Blangy-sur-Ternoise","lc":"BIP","seg":"C","uic":"87317248"}},{"type":"Feature","geometry":{"type":"Point","coordinates":[-0.62392,44.91756]},"properties":{"nom":"Blanquefort","lc":"BQF","seg":"B","uic":"87581728"}},{"type":"Feature","geometry":{"type":"Point","coordinates":[4.39136,46.69406]},"properties":{"nom":"Blanzy","lc":"BYK","seg":"C","uic":"87694612"}},{"type":"Feature","geometry":{"type":"Point","coordinates":[0.98776,47.33772]},"properties":{"nom":"Bléré - La Croix","lc":"BCX","seg":"B","uic":"87574475"}},{"type":"Feature","geometry":{"type":"Point","coordinates":[1.32382,47.58545]},"properties":{"nom":"Blois - Chambord","lc":"BLO","seg":"A","uic":"87574004"}},{"type":"Feature","geometry":{"type":"Point","coordinates":[0.03569,49.33139]},"properties":{"nom":"Blonville-sur-Mer - Benerville","lc":"BWB","seg":"C","uic":"87444380"}},{"type":"Feature","geometry":{"type":"Point","coordinates":[4.00515,45.74136]},"properties":{"nom":"Boën-sur-Lignon","lc":"BOE","seg":"C","uic":"87726471"}},{"type":"Feature","geometry":{"type":"Point","coordinates":[4.76323,49.85831]},"properties":{"nom":"Bogny-sur-Meuse","lc":"BYU","seg":"C","uic":"87172049"}},{"type":"Feature","geometry":{"type":"Point","coordinates":[3.44313,49.98841]},"properties":{"nom":"Bohain-en-Vermandois","lc":"BHI","seg":"B","uic":"87296269"}},{"type":"Feature","geometry":{"type":"Point","coordinates":[2.37898,48.34208]},"properties":{"nom":"Boigneville","lc":"BWI","seg":"C","uic":"87684407"}},{"type":"Feature","geometry":{"type":"Point","coordinates":[2.27256,48.91348]},"properties":{"nom":"Bois-Colombes","lc":"BCO","seg":"B","uic":"87381079"}},{"type":"Feature","geometry":{"type":"Point","coordinates":[4.57504,45.90658]},"properties":{"nom":"Bois-d'Oingt - Légny","lc":"BDO","seg":"C","uic":"87721787"}},{"type":"Feature","geometry":{"type":"Point","coordinates":[2.69161,48.47557]},"properties":{"nom":"Bois-le-Roi","lc":"BJR","seg":"B","uic":"87682203"}},{"type":"Feature","geometry":{"type":"Point","coordinates":[2.77186,50.21047]},"properties":{"nom":"Boisleux-au-Mont","lc":"BLX","seg":"C","uic":"87342071"}},{"type":"Feature","geometry":{"type":"Point","coordinates":[1.97277,48.25662]},"properties":{"nom":"Boisseaux","lc":"BAX","seg":"C","uic":"87543082"}},{"type":"Feature","geometry":{"type":"Point","coordinates":[2.24977,44.78604]},"properties":{"nom":"Boisset","lc":"BCL","seg":"C","uic":"87645184"}},{"type":"Feature","geometry":{"type":"Point","coordinates":[2.57295,48.52932]},"properties":{"nom":"Boissise-le-Roi","lc":"BKR","seg":"B","uic":"87682518"}},{"type":"Feature","geometry":{"type":"Point","coordinates":[2.02513,49.07598]},"properties":{"nom":"Boissy-l'Aillerie","lc":"BLA","seg":"B","uic":"87381152"}},{"type":"Feature","geometry":{"type":"Point","coordinates":[4.70791,44.27153]},"properties":{"nom":"Bollène La Croisière","lc":"BLN","seg":"B","uic":"87764357"}},{"type":"Feature","geometry":{"type":"Point","coordinates":[7.26726,47.85697]},"properties":{"nom":"Bollwiller","lc":"BOW","seg":"B","uic":"87182709"}},{"type":"Feature","geometry":{"type":"Point","coordinates":[5.13422,48.19869]},"properties":{"nom":"Bologne","lc":"BOG","seg":"C","uic":"87142224"}},{"type":"Feature","geometry":{"type":"Point","coordinates":[2.4786,48.89421]},"properties":{"nom":"Bondy","lc":"BDY","seg":"B","uic":"87113407"}},{"type":"Feature","geometry":{"type":"Point","coordinates":[-1.76541,48.4764]},"properties":{"nom":"Bonnemain","lc":"BMV","seg":"C","uic":"87478065"}},{"type":"Feature","geometry":{"type":"Point","coordinates":[1.38618,48.1863]},"properties":{"nom":"Bonneval","lc":"BOJ","seg":"C","uic":"87545731"}},{"type":"Feature","geometry":{"type":"Point","coordinates":[6.41652,46.07777]},"properties":{"nom":"Bonneville","lc":"BON","seg":"B","uic":"87746339"}},{"type":"Feature","geometry":{"type":"Point","coordinates":[1.58221,49.03879]},"properties":{"nom":"Bonnières-sur-Seine","lc":"BNR","seg":"B","uic":"87415893"}},{"type":"Feature","geometry":{"type":"Point","coordinates":[6.36625,46.27005]},"properties":{"nom":"Bons-en-Chablais","lc":"BAB","seg":"B","uic":"87745596"}},{"type":"Feature","geometry":{"type":"Point","coordinates":[4.21631,45.52219]},"properties":{"nom":"Bonson","lc":"BSN","seg":"C","uic":"87726414"}},{"type":"Feature","geometry":{"type":"Point","coordinates":[2.36254,49.16713]},"properties":{"nom":"Boran-sur-Oise","lc":"BRN","seg":"C","uic":"87276444"}},{"type":"Feature","geometry":{"type":"Point","coordinates":[-0.5567,44.82587]},"properties":{"nom":"Bordeaux Saint-Jean","lc":"BXJ","seg":"A","uic":"87581009"}},{"type":"Feature","geometry":{"type":"Point","coordinates":[-0.79854,45.89446]},"properties":{"nom":"Bords","lc":"BOR","seg":"C","uic":"87491019"}},{"type":"Feature","geometry":{"type":"Point","coordinates":[2.20717,49.19471]},"properties":{"nom":"Bornel - Belle-Église","lc":"BBI","seg":"B","uic":"87276717"}},{"type":"Feature","geometry":{"type":"Point","coordinates":[-1.6811,47.13808]},"properties":{"nom":"Bouaye","lc":"BLQ","seg":"C","uic":"87481200"}},{"type":"Feature","geometry":{"type":"Point","coordinates":[-1.49059,43.52342]},"properties":{"nom":"Boucau","lc":"BUU","seg":"C","uic":"87673095"}},{"type":"Feature","geometry":{"type":"Point","coordinates":[3.33191,50.27809]},"properties":{"nom":"Bouchain","lc":"BAK","seg":"C","uic":"87345389"}},{"type":"Feature","geometry":{"type":"Point","coordinates":[4.18763,43.99269]},"properties":{"nom":"Boucoiran-et-Nozières","lc":"BKW","seg":"C","uic":"87775346"}},{"type":"Feature","geometry":{"type":"Point","coordinates":[2.32272,49.04514]},"properties":{"nom":"Bouffémont - Moisselles","lc":"BOF","seg":"B","uic":"87276485"}},{"type":"Feature","geometry":{"type":"Point","coordinates":[2.13237,48.85421]},"properties":{"nom":"Bougival","lc":"BGV","seg":"B","uic":"87382440"}},{"type":"Feature","geometry":{"type":"Point","coordinates":[2.27515,48.85645]},"properties":{"nom":"Boulainvilliers","lc":"BWR","seg":"B","uic":"87543181"}},{"type":"Feature","geometry":{"type":"Point","coordinates":[0.77265,45.17229]},"properties":{"nom":"Boulazac","lc":"BZC","seg":"C","uic":"87725473"}},{"type":"Feature","geometry":{"type":"Point","coordinates":[1.60904,50.72729]},"properties":{"nom":"Boulogne Tintelleries","lc":"BKI","seg":"B","uic":"87317016"}},{"type":"Feature","geometry":{"type":"Point","coordinates":[1.60964,50.7157]},"properties":{"nom":"Boulogne-sur-Mer","lc":"BEM","seg":"B","uic":"87317586"}},{"type":"Feature","geometry":{"type":"Point","coordinates":[6.80825,43.41635]},"properties":{"nom":"Boulouris sur Mer","lc":"BOU","seg":"C","uic":"87757534"}},{"type":"Feature","geometry":{"type":"Point","coordinates":[2.2906,48.53315]},"properties":{"nom":"Bouray","lc":"BSO","seg":"B","uic":"87545178"}},{"type":"Feature","geometry":{"type":"Point","coordinates":[2.19423,50.95227]},"properties":{"nom":"Bourbourg","lc":"BBU","seg":"C","uic":"87281279"}},{"type":"Feature","geometry":{"type":"Point","coordinates":[7.13719,48.35986]},"properties":{"nom":"Bourg-Bruche","lc":"BFZ","seg":"C","uic":"87214775"}},{"type":"Feature","geometry":{"type":"Point","coordinates":[5.21506,46.20035]},"properties":{"nom":"Bourg-en-Bresse","lc":"BGB","seg":"A","uic":"87743005"}},{"type":"Feature","geometry":{"type":"Point","coordinates":[1.94867,42.43241]},"properties":{"nom":"Bourg-Madame","lc":"BMD","seg":"C","uic":"87784876"}},{"type":"Feature","geometry":{"type":"Point","coordinates":[6.77127,45.61904]},"properties":{"nom":"Bourg-Saint-Maurice","lc":"BSM","seg":"B","uic":"87741793"}},{"type":"Feature","geometry":{"type":"Point","coordinates":[2.39425,47.09415]},"properties":{"nom":"Bourges","lc":"BGS","seg":"A","uic":"87576207"}},{"type":"Feature","geometry":{"type":"Point","coordinates":[-1.95519,47.04696]},"properties":{"nom":"Bourgneuf-en-Retz","lc":"BGZ","seg":"C","uic":"87481242"}},{"type":"Feature","geometry":{"type":"Point","coordinates":[5.2734,45.58395]},"properties":{"nom":"Bourgoin-Jallieu","lc":"BRG","seg":"B","uic":"87723429"}},{"type":"Feature","geometry":{"type":"Point","coordinates":[0.83832,49.31744]},"properties":{"nom":"Bourgtheroulde - Thuit-Hébert","lc":"BGT","seg":"C","uic":"87415323"}},{"type":"Feature","geometry":{"type":"Point","coordinates":[-1.18062,46.65183]},"properties":{"nom":"Bournezeau","lc":"BNZ","seg":"C","uic":"87486324"}},{"type":"Feature","geometry":{"type":"Point","coordinates":[2.69246,48.33269]},"properties":{"nom":"Bourron-Marlotte - Grez","lc":"BOM","seg":"B","uic":"87684118"}},{"type":"Feature","geometry":{"type":"Point","coordinates":[-1.1828,47.05057]},"properties":{"nom":"Boussay - La Bruffière","lc":"BBF","seg":"C","uic":"87481176"}},{"type":"Feature","geometry":{"type":"Point","coordinates":[0.97254,43.17962]},"properties":{"nom":"Boussens","lc":"BQY","seg":"B","uic":"87611095"}},{"type":"Feature","geometry":{"type":"Point","coordinates":[2.53273,48.68089]},"properties":{"nom":"Boussy-Saint-Antoine","lc":"BXI","seg":"B","uic":"87682138"}},{"type":"Feature","geometry":{"type":"Point","coordinates":[4.27772,45.52463]},"properties":{"nom":"Bouthéon","lc":"BOH","seg":"C","uic":"87726216"}},{"type":"Feature","geometry":{"type":"Point","coordinates":[2.37636,48.43495]},"properties":{"nom":"Boutigny-sur-Essonne","lc":"BJN","seg":"B","uic":"87681478"}},{"type":"Feature","geometry":{"type":"Point","coordinates":[2.39812,49.84624]},"properties":{"nom":"Boves","lc":"BOV","seg":"C","uic":"87313213"}},{"type":"Feature","geometry":{"type":"Point","coordinates":[2.11915,43.2441]},"properties":{"nom":"Bram","lc":"BRA","seg":"B","uic":"87615054"}},{"type":"Feature","geometry":{"type":"Point","coordinates":[-3.19404,47.78232]},"properties":{"nom":"Brandérion","lc":"BPZ","seg":"C","uic":"87476242"}},{"type":"Feature","geometry":{"type":"Point","coordinates":[3.33017,45.41425]},"properties":{"nom":"Brassac-les-Mines - Sainte-Florine","lc":"BLM","seg":"B","uic":"87734244"}},{"type":"Feature","geometry":{"type":"Point","coordinates":[1.23692,43.61489]},"properties":{"nom":"Brax - Léguevin","lc":"BXL","seg":"B","uic":"87611822"}},{"type":"Feature","geometry":{"type":"Point","coordinates":[5.21213,47.13145]},"properties":{"nom":"Brazey-en-Plaine","lc":"BEP","seg":"C","uic":"87713644"}},{"type":"Feature","geometry":{"type":"Point","coordinates":[0.41749,49.6034]},"properties":{"nom":"Bréauté - Beuzeville","lc":"BTB","seg":"B","uic":"87413344"}},{"type":"Feature","geometry":{"type":"Point","coordinates":[3.0142,50.33624]},"properties":{"nom":"Brebières","lc":"BSU","seg":"C","uic":"87345108"}},{"type":"Feature","geometry":{"type":"Point","coordinates":[7.10405,48.02853]},"properties":{"nom":"Breitenbach","lc":"BHH","seg":"C","uic":"87182659"}},{"type":"Feature","geometry":{"type":"Point","coordinates":[-3.19627,48.6692]},"properties":{"nom":"Brélidy - Plouëc","lc":"BYP","seg":"C","uic":"87473827"}},{"type":"Feature","geometry":{"type":"Point","coordinates":[-0.49633,46.83845]},"properties":{"nom":"Bressuire","lc":"BRS","seg":"C","uic":"87487249"}},{"type":"Feature","geometry":{"type":"Point","coordinates":[-4.4789,48.38811]},"properties":{"nom":"Brest","lc":"BRT","seg":"A","uic":"87474007"}},{"type":"Feature","geometry":{"type":"Point","coordinates":[-1.89721,48.14057]},"properties":{"nom":"Breteil","lc":"BTU","seg":"C","uic":"87471102"}},{"type":"Feature","geometry":{"type":"Point","coordinates":[1.84369,44.92737]},"properties":{"nom":"Bretenoux - Biars","lc":"BXB","seg":"C","uic":"87594762"}},{"type":"Feature","geometry":{"type":"Point","coordinates":[2.38452,49.62639]},"properties":{"nom":"Breteuil","lc":"BEB","seg":"C","uic":"87313247"}},{"type":"Feature","geometry":{"type":"Point","coordinates":[5.11058,47.39004]},"properties":{"nom":"Bretigny - Norges","lc":"BTQ","seg":"C","uic":"87712265"}},{"type":"Feature","geometry":{"type":"Point","coordinates":[2.30238,48.60668]},"properties":{"nom":"Brétigny-sur-Orge","lc":"BYR","seg":"B","uic":"87545194"}},{"type":"Feature","geometry":{"type":"Point","coordinates":[0.89238,48.43267]},"properties":{"nom":"Bretoncelles","lc":"BTO","seg":"C","uic":"87394270"}},{"type":"Feature","geometry":{"type":"Point","coordinates":[-0.51274,49.20341]},"properties":{"nom":"Bretteville - Norrey","lc":"BVO","seg":"C","uic":"87444042"}},{"type":"Feature","geometry":{"type":"Point","coordinates":[3.76653,49.30841]},"properties":{"nom":"Breuil - Romain","lc":"BPR","seg":"C","uic":"87171322"}},{"type":"Feature","geometry":{"type":"Point","coordinates":[2.19172,48.57723]},"properties":{"nom":"Breuillet - Bruyères-le-Châtel","lc":"BIH","seg":"B","uic":"87545483"}},{"type":"Feature","geometry":{"type":"Point","coordinates":[2.17121,48.56478]},"properties":{"nom":"Breuillet Village","lc":"BRW","seg":"B","uic":"87545491"}},{"type":"Feature","geometry":{"type":"Point","coordinates":[1.54191,48.94336]},"properties":{"nom":"Bréval","lc":"BVA","seg":"B","uic":"87381624"}},{"type":"Feature","geometry":{"type":"Point","coordinates":[6.63301,44.88985]},"properties":{"nom":"Briançon","lc":"BRI","seg":"B","uic":"87763607"}},{"type":"Feature","geometry":{"type":"Point","coordinates":[2.73372,47.64643]},"properties":{"nom":"Briare","lc":"BEW","seg":"C","uic":"87696088"}},{"type":"Feature","geometry":{"type":"Point","coordinates":[1.44063,45.86358]},"properties":{"nom":"Brignac","lc":"BKX","seg":"C","uic":"87592063"}},{"type":"Feature","geometry":{"type":"Point","coordinates":[4.76366,45.67377]},"properties":{"nom":"Brignais","lc":"BGN","seg":"B","uic":"87722728"}},{"type":"Feature","geometry":{"type":"Point","coordinates":[5.90147,45.26245]},"properties":{"nom":"Brignoud","lc":"BNU","seg":"B","uic":"87747451"}},{"type":"Feature","geometry":{"type":"Point","coordinates":[1.83138,50.44704]},"properties":{"nom":"Brimeux","lc":"BWM","seg":"C","uic":"87317180"}},{"type":"Feature","geometry":{"type":"Point","coordinates":[5.55852,46.1757]},"properties":{"nom":"Brion - Montréal-la-Cluse","lc":"BMC","seg":"C","uic":"87131961"}},{"type":"Feature","geometry":{"type":"Point","coordinates":[0.71153,49.19642]},"properties":{"nom":"Brionne","lc":"BEU","seg":"C","uic":"87415364"}},{"type":"Feature","geometry":{"type":"Point","coordinates":[3.37863,45.30065]},"properties":{"nom":"Brioude","lc":"BRD","seg":"B","uic":"87734269"}},{"type":"Feature","geometry":{"type":"Point","coordinates":[-0.3682,48.70186]},"properties":{"nom":"Briouze","lc":"BZN","seg":"C","uic":"87448084"}},{"type":"Feature","geometry":{"type":"Point","coordinates":[1.52866,45.15262]},"properties":{"nom":"Brive-la-Gaillarde","lc":"BLG","seg":"A","uic":"87594002"}},{"type":"Feature","geometry":{"type":"Point","coordinates":[-2.23566,48.3333]},"properties":{"nom":"Broons","lc":"BOS","seg":"C","uic":"87473074"}},{"type":"Feature","geometry":{"type":"Point","coordinates":[1.16067,48.21576]},"properties":{"nom":"Brou","lc":"BRO","seg":"B","uic":"87394452"}},{"type":"Feature","geometry":{"type":"Point","coordinates":[4.2961,46.86194]},"properties":{"nom":"Broye","lc":"BQK","seg":"C","uic":"87694166"}},{"type":"Feature","geometry":{"type":"Point","coordinates":[-0.60944,44.88701]},"properties":{"nom":"Bruges","lc":"BGH","seg":"C","uic":"87581736"}},{"type":"Feature","geometry":{"type":"Point","coordinates":[7.7004,48.73311]},"properties":{"nom":"Brumath","lc":"BAH","seg":"B","uic":"87212134"}},{"type":"Feature","geometry":{"type":"Point","coordinates":[3.14535,50.27832]},"properties":{"nom":"Brunémont","lc":"BPN","seg":"C","uic":"87345439"}},{"type":"Feature","geometry":{"type":"Point","coordinates":[2.50642,48.69911]},"properties":{"nom":"Brunoy","lc":"BNY","seg":"B","uic":"87682120"}},{"type":"Feature","geometry":{"type":"Point","coordinates":[6.71876,48.2049]},"properties":{"nom":"Bruyères","lc":"BUY","seg":"B","uic":"87144154"}},{"type":"Feature","geometry":{"type":"Point","coordinates":[2.32596,49.15521]},"properties":{"nom":"Bruyères-sur-Oise","lc":"BRK","seg":"B","uic":"87276451"}},{"type":"Feature","geometry":{"type":"Point","coordinates":[-1.75181,48.0286]},"properties":{"nom":"Bruz","lc":"BRZ","seg":"B","uic":"87471037"}},{"type":"Feature","geometry":{"type":"Point","coordinates":[1.44359,48.92538]},"properties":{"nom":"Bueil","lc":"BUE","seg":"B","uic":"87387092"}},{"type":"Feature","geometry":{"type":"Point","coordinates":[1.92481,45.6006]},"properties":{"nom":"Bugeat","lc":"BUG","seg":"C","uic":"87592162"}},{"type":"Feature","geometry":{"type":"Point","coordinates":[2.59819,49.96477]},"properties":{"nom":"Buire-sur-l'Ancre","lc":"BXA","seg":"C","uic":"87316067"}},{"type":"Feature","geometry":{"type":"Point","coordinates":[2.73317,50.44843]},"properties":{"nom":"Bully - Grenay","lc":"BGF","seg":"B","uic":"87342105"}},{"type":"Feature","geometry":{"type":"Point","coordinates":[2.38712,48.37085]},"properties":{"nom":"Buno - Gironville","lc":"BQV","seg":"C","uic":"87681510"}},{"type":"Feature","geometry":{"type":"Point","coordinates":[3.44612,50.03972]},"properties":{"nom":"Busigny","lc":"BSY","seg":"C","uic":"87296244"}},{"type":"Feature","geometry":{"type":"Point","coordinates":[-0.36825,45.21193]},"properties":{"nom":"Bussac-Forêt","lc":"BMR","seg":"C","uic":"87491191"}},{"type":"Feature","geometry":{"type":"Point","coordinates":[2.02292,46.12303]},"properties":{"nom":"Busseau sur Creuse","lc":"BUC","seg":"C","uic":"87597708"}},{"type":"Feature","geometry":{"type":"Point","coordinates":[1.02614,45.60762]},"properties":{"nom":"Bussière-Galant","lc":"BGA","seg":"C","uic":"87592741"}},{"type":"Feature","geometry":{"type":"Point","coordinates":[-0.45589,43.14827]},"properties":{"nom":"Buzy en Béarn","lc":"BUZ","seg":"C","uic":"87672634"}},{"type":"Feature","geometry":{"type":"Point","coordinates":[5.85206,47.11853]},"properties":{"nom":"Byans-sur-Doubs","lc":"BYB","seg":"C","uic":"87718122"}},{"type":"Feature","geometry":{"type":"Point","coordinates":[-0.53762,44.75206]},"properties":{"nom":"Cadaujac","lc":"CDJ","seg":"C","uic":"87582684"}},{"type":"Feature","geometry":{"type":"Point","coordinates":[-0.34761,49.17635]},"properties":{"nom":"Caen","lc":"CAE","seg":"A","uic":"87444000"}},{"type":"Feature","geometry":{"type":"Point","coordinates":[1.81203,50.85007]},"properties":{"nom":"Caffiers","lc":"CAF","seg":"C","uic":"87317321"}},{"type":"Feature","geometry":{"type":"Point","coordinates":[7.14864,43.65813]},"properties":{"nom":"Cagnes-sur-Mer","lc":"CGM","seg":"B","uic":"87756320"}},{"type":"Feature","geometry":{"type":"Point","coordinates":[1.43333,44.44928]},"properties":{"nom":"Cahors","lc":"CAH","seg":"B","uic":"87613000"}},{"type":"Feature","geometry":{"type":"Point","coordinates":[1.85082,50.95348]},"properties":{"nom":"Calais","lc":"CSV","seg":"B","uic":"87317263"}},{"type":"Feature","geometry":{"type":"Point","coordinates":[1.81089,50.90122]},"properties":{"nom":"Calais - Fréthun","lc":"FHS","seg":"B","uic":"87281071"}},{"type":"Feature","geometry":{"type":"Point","coordinates":[-3.41978,48.40622]},"properties":{"nom":"Callac","lc":"CCF","seg":"C","uic":"87473546"}},{"type":"Feature","geometry":{"type":"Point","coordinates":[2.48121,50.4827]},"properties":{"nom":"Calonne-Ricouart","lc":"CPC","seg":"C","uic":"87342543"}},{"type":"Feature","geometry":{"type":"Point","coordinates":[-1.39668,43.36562]},"properties":{"nom":"Cambo-les-Bains","lc":"CPQ","seg":"C","uic":"87673657"}},{"type":"Feature","geometry":{"type":"Point","coordinates":[3.24118,50.17662]},"properties":{"nom":"Cambrai","lc":"CAM","seg":"B","uic":"87345520"}},{"type":"Feature","geometry":{"type":"Point","coordinates":[3.0664,44.42196]},"properties":{"nom":"Campagnac - Saint-Geniez","lc":"CNT","seg":"C","uic":"87783340"}},{"type":"Feature","geometry":{"type":"Point","coordinates":[7.01968,43.55384]},"properties":{"nom":"Cannes","lc":"CAN","seg":"A","uic":"87757625"}},{"type":"Feature","geometry":{"type":"Point","coordinates":[6.9866,43.54879]},"properties":{"nom":"Cannes La Bocca","lc":"CAB","seg":"B","uic":"87757617"}},{"type":"Feature","geometry":{"type":"Point","coordinates":[3.12194,50.31245]},"properties":{"nom":"Cantin","lc":"CNK","seg":"C","uic":"87345413"}},{"type":"Feature","geometry":{"type":"Point","coordinates":[7.39434,43.72054]},"properties":{"nom":"Cap-d'Ail","lc":"KAI","seg":"B","uic":"87756395"}},{"type":"Feature","geometry":{"type":"Point","coordinates":[2.07796,44.57825]},"properties":{"nom":"Capdenac","lc":"CDC","seg":"B","uic":"87613109"}},{"type":"Feature","geometry":{"type":"Point","coordinates":[0.32964,43.10335]},"properties":{"nom":"Capvern","lc":"CPN","seg":"C","uic":"87671156"}},{"type":"Feature","geometry":{"type":"Point","coordinates":[1.21253,43.29821]},"properties":{"nom":"Carbonne","lc":"COA","seg":"B","uic":"87611061"}},{"type":"Feature","geometry":{"type":"Point","coordinates":[2.35182,43.21803]},"properties":{"nom":"Carcassonne","lc":"CNE","seg":"A","uic":"87615286"}},{"type":"Feature","geometry":{"type":"Point","coordinates":[-1.24494,49.30248]},"properties":{"nom":"Carentan","lc":"CAR","seg":"B","uic":"87447243"}},{"type":"Feature","geometry":{"type":"Point","coordinates":[-3.56222,48.278]},"properties":{"nom":"Carhaix-Plouguer","lc":"CRX","seg":"C","uic":"87473504"}},{"type":"Feature","geometry":{"type":"Point","coordinates":[5.16848,49.62857]},"properties":{"nom":"Carignan","lc":"CAG","seg":"C","uic":"87172353"}},{"type":"Feature","geometry":{"type":"Point","coordinates":[2.1524,44.04878]},"properties":{"nom":"Carmaux","lc":"CMX","seg":"B","uic":"87615625"}},{"type":"Feature","geometry":{"type":"Point","coordinates":[-3.49088,48.34052]},"properties":{"nom":"Carnoët - Locarn","lc":"CCN","seg":"C","uic":"87473561"}},{"type":"Feature","geometry":{"type":"Point","coordinates":[7.48139,43.76203]},"properties":{"nom":"Carnoles","lc":"KRL","seg":"B","uic":"87756478"}},{"type":"Feature","geometry":{"type":"Point","coordinates":[6.18625,43.29741]},"properties":{"nom":"Carnoules","lc":"CNS","seg":"B","uic":"87755371"}},{"type":"Feature","geometry":{"type":"Point","coordinates":[5.04414,44.04995]},"properties":{"nom":"Carpentras","lc":"IIM","seg":"B","uic":"87765735"}},{"type":"Feature","geometry":{"type":"Point","coordinates":[5.15359,43.33659]},"properties":{"nom":"Carry-le-Rouet","lc":"CRR","seg":"C","uic":"87753566"}},{"type":"Feature","geometry":{"type":"Point","coordinates":[4.73094,45.78781]},"properties":{"nom":"Casino Lacroix Laval","lc":"CCL","seg":"C","uic":"87208553"}},{"type":"Feature","geometry":{"type":"Point","coordinates":[2.45997,50.78759]},"properties":{"nom":"Cassel","lc":"CRD","seg":"B","uic":"87281139"}},{"type":"Feature","geometry":{"type":"Point","coordinates":[5.55306,43.23406]},"properties":{"nom":"Cassis","lc":"CSI","seg":"B","uic":"87751776"}},{"type":"Feature","geometry":{"type":"Point","coordinates":[1.34176,43.7862]},"properties":{"nom":"Castelnau-d'Estrétefonds","lc":"CDF","seg":"B","uic":"87611665"}},{"type":"Feature","geometry":{"type":"Point","coordinates":[1.95039,43.31229]},"properties":{"nom":"Castelnaudary","lc":"CTY","seg":"B","uic":"87615039"}},{"type":"Feature","geometry":{"type":"Point","coordinates":[1.1144,44.04035]},"properties":{"nom":"Castelsarrasin","lc":"CTN","seg":"B","uic":"87611897"}},{"type":"Feature","geometry":{"type":"Point","coordinates":[-0.04066,44.857]},"properties":{"nom":"Castillon-la-Bataille","lc":"CIO","seg":"B","uic":"87584136"}},{"type":"Feature","geometry":{"type":"Point","coordinates":[2.23122,43.59913]},"properties":{"nom":"Castres","lc":"CTR","seg":"B","uic":"87615468"}},{"type":"Feature","geometry":{"type":"Point","coordinates":[3.33379,50.12807]},"properties":{"nom":"Cattenières","lc":"CTT","seg":"C","uic":"87345587"}},{"type":"Feature","geometry":{"type":"Point","coordinates":[-0.62743,44.84288]},"properties":{"nom":"Caudéran Mérignac","lc":"CUD","seg":"C","uic":"87581538"}},{"type":"Feature","geometry":{"type":"Point","coordinates":[-0.14528,44.58012]},"properties":{"nom":"Caudrot","lc":"KDT","seg":"C","uic":"87582841"}},{"type":"Feature","geometry":{"type":"Point","coordinates":[3.40983,50.11146]},"properties":{"nom":"Caudry","lc":"CAU","seg":"B","uic":"87345561"}},{"type":"Feature","geometry":{"type":"Point","coordinates":[-2.15559,48.28443]},"properties":{"nom":"Caulnes","lc":"CUL","seg":"C","uic":"87473066"}},{"type":"Feature","geometry":{"type":"Point","coordinates":[1.53365,44.16227]},"properties":{"nom":"Caussade","lc":"CSD","seg":"B","uic":"87613356"}},{"type":"Feature","geometry":{"type":"Point","coordinates":[5.04361,43.83455]},"properties":{"nom":"Cavaillon","lc":"CVN","seg":"B","uic":"87765503"}},{"type":"Feature","geometry":{"type":"Point","coordinates":[-0.38224,45.10516]},"properties":{"nom":"Cavignac","lc":"CGC","seg":"C","uic":"87491217"}},{"type":"Feature","geometry":{"type":"Point","coordinates":[1.08311,43.21283]},"properties":{"nom":"Cazères","lc":"CZG","seg":"B","uic":"87611079"}},{"type":"Feature","geometry":{"type":"Point","coordinates":[3.15516,43.81227]},"properties":{"nom":"Ceilhes - Roqueredonde","lc":"COQ","seg":"C","uic":"87781542"}},{"type":"Feature","geometry":{"type":"Point","coordinates":[-0.53365,44.85635]},"properties":{"nom":"Cenon","lc":"CBX","seg":"B","uic":"87581595"}},{"type":"Feature","geometry":{"type":"Point","coordinates":[3.1634,42.44177]},"properties":{"nom":"Cerbère","lc":"CER","seg":"C","uic":"87785006"}},{"type":"Feature","geometry":{"type":"Point","coordinates":[1.88498,47.98616]},"properties":{"nom":"Cercottes","lc":"CCT","seg":"C","uic":"87543033"}},{"type":"Feature","geometry":{"type":"Point","coordinates":[3.6452,46.85788]},"properties":{"nom":"Cercy-la-Tour","lc":"CLT","seg":"C","uic":"87696492"}},{"type":"Feature","geometry":{"type":"Point","coordinates":[2.01187,49.04849]},"properties":{"nom":"Cergy le Haut","lc":"CJV","seg":"B","uic":"87382655"}},{"type":"Feature","geometry":{"type":"Point","coordinates":[2.07982,49.03639]},"properties":{"nom":"Cergy Préfecture","lc":"CYP","seg":"B","uic":"87381905"}},{"type":"Feature","geometry":{"type":"Point","coordinates":[2.0344,49.04962]},"properties":{"nom":"Cergy Saint-Christophe","lc":"CYC","seg":"B","uic":"87382499"}},{"type":"Feature","geometry":{"type":"Point","coordinates":[-0.66899,46.81769]},"properties":{"nom":"Cerizay","lc":"CEZ","seg":"C","uic":"87487280"}},{"type":"Feature","geometry":{"type":"Point","coordinates":[7.1737,47.802]},"properties":{"nom":"Cernay (Haut-Rhin)","lc":"CEF","seg":"B","uic":"87182410"}},{"type":"Feature","geometry":{"type":"Point","coordinates":[2.2568,48.98539]},"properties":{"nom":"Cernay (Val-d'Oise)","lc":"CEJ","seg":"B","uic":"87276063"}},{"type":"Feature","geometry":{"type":"Point","coordinates":[-0.34053,44.63235]},"properties":{"nom":"Cérons","lc":"CGD","seg":"B","uic":"87582742"}},{"type":"Feature","geometry":{"type":"Point","coordinates":[5.37612,45.56116]},"properties":{"nom":"Cessieu","lc":"CIU","seg":"C","uic":"87723452"}},{"type":"Feature","geometry":{"type":"Point","coordinates":[2.5938,48.56563]},"properties":{"nom":"Cesson","lc":"CES","seg":"B","uic":"87682161"}},{"type":"Feature","geometry":{"type":"Point","coordinates":[-1.60211,48.11281]},"properties":{"nom":"Cesson-Sévigné","lc":"CGT","seg":"B","uic":"87334490"}},{"type":"Feature","geometry":{"type":"Point","coordinates":[5.32584,46.18349]},"properties":{"nom":"Ceyzériat","lc":"CZR","seg":"C","uic":"87743302"}},{"type":"Feature","geometry":{"type":"Point","coordinates":[1.50768,46.62653]},"properties":{"nom":"Chabenet","lc":"CBQ","seg":"C","uic":"87597112"}},{"type":"Feature","geometry":{"type":"Point","coordinates":[5.4281,45.43836]},"properties":{"nom":"Châbons","lc":"CKN","seg":"C","uic":"87747212"}},{"type":"Feature","geometry":{"type":"Point","coordinates":[1.64594,47.25498]},"properties":{"nom":"Chabris","lc":"CGY","seg":"C","uic":"87576223"}},{"type":"Feature","geometry":{"type":"Point","coordinates":[4.74968,46.90727]},"properties":{"nom":"Chagny","lc":"CHY","seg":"B","uic":"87713578"}},{"type":"Feature","geometry":{"type":"Point","coordinates":[1.78242,47.87707]},"properties":{"nom":"Chaingy Fourneaux Plage","lc":"CFX","seg":"C","uic":"87574111"}},{"type":"Feature","geometry":{"type":"Point","coordinates":[0.0436,45.27083]},"properties":{"nom":"Chalais","lc":"CIC","seg":"C","uic":"87583690"}},{"type":"Feature","geometry":{"type":"Point","coordinates":[-1.87188,46.84396]},"properties":{"nom":"Challans","lc":"CLS","seg":"B","uic":"87481390"}},{"type":"Feature","geometry":{"type":"Point","coordinates":[4.84345,46.78161]},"properties":{"nom":"Chalon-sur-Saône","lc":"CSS","seg":"A","uic":"87725002"}},{"type":"Feature","geometry":{"type":"Point","coordinates":[-0.74306,47.34306]},"properties":{"nom":"Chalonnes-sur-Loire","lc":"CCE","seg":"B","uic":"87484204"}},{"type":"Feature","geometry":{"type":"Point","coordinates":[4.34866,48.95525]},"properties":{"nom":"Châlons-en-Champagne","lc":"CMP","seg":"A","uic":"87174003"}},{"type":"Feature","geometry":{"type":"Point","coordinates":[3.99092,45.20474]},"properties":{"nom":"Chamalières-sur-Loire","lc":"CML","seg":"C","uic":"87734731"}},{"type":"Feature","geometry":{"type":"Point","coordinates":[2.21585,48.51424]},"properties":{"nom":"Chamarande","lc":"CHK","seg":"B","uic":"87545152"}},{"type":"Feature","geometry":{"type":"Point","coordinates":[5.91955,45.5713]},"properties":{"nom":"Chambéry - Challes-les-Eaux","lc":"CRL","seg":"A","uic":"87741009"}},{"type":"Feature","geometry":{"type":"Point","coordinates":[2.24048,49.16362]},"properties":{"nom":"Chambly","lc":"CVK","seg":"B","uic":"87276725"}},{"type":"Feature","geometry":{"type":"Point","coordinates":[3.97933,44.30024]},"properties":{"nom":"Chamborigaud","lc":"CBO","seg":"C","uic":"87775221"}},{"type":"Feature","geometry":{"type":"Point","coordinates":[0.96484,47.18216]},"properties":{"nom":"Chambourg-sur-Indre","lc":"CMG","seg":"C","uic":"87571463"}},{"type":"Feature","geometry":{"type":"Point","coordinates":[4.50693,45.98164]},"properties":{"nom":"Chamelet","lc":"CWE","seg":"C","uic":"87721829"}},{"type":"Feature","geometry":{"type":"Point","coordinates":[6.86672,45.91993]},"properties":{"nom":"Chamonix Aiguille du Midi","lc":"CHW","seg":"C","uic":"87462085"}},{"type":"Feature","geometry":{"type":"Point","coordinates":[6.87363,45.92277]},"properties":{"nom":"Chamonix-Mont-Blanc","lc":"CHX","seg":"B","uic":"87746784"}},{"type":"Feature","geometry":{"type":"Point","coordinates":[6.20674,45.55757]},"properties":{"nom":"Chamousset","lc":"CSK","seg":"C","uic":"87741231"}},{"type":"Feature","geometry":{"type":"Point","coordinates":[2.29189,48.97975]},"properties":{"nom":"Champ de Courses d'Enghien","lc":"CEG","seg":"B","uic":"87276030"}},{"type":"Feature","geometry":{"type":"Point","coordinates":[2.28921,48.85511]},"properties":{"nom":"Champ de Mars Tour Eiffel","lc":"CPM","seg":"B","uic":"87393058"}},{"type":"Feature","geometry":{"type":"Point","coordinates":[0.33523,48.01971]},"properties":{"nom":"Champagné","lc":"CGZ","seg":"C","uic":"87396275"}},{"type":"Feature","geometry":{"type":"Point","coordinates":[3.99463,49.21481]},"properties":{"nom":"Champagne-Ardenne TGV","lc":"CGV","seg":"A","uic":"87171926"}},{"type":"Feature","geometry":{"type":"Point","coordinates":[2.24156,49.13573]},"properties":{"nom":"Champagne-sur-Oise","lc":"CPI","seg":"B","uic":"87276519"}},{"type":"Feature","geometry":{"type":"Point","coordinates":[2.79918,48.40653]},"properties":{"nom":"Champagne-sur-Seine","lc":"CME","seg":"B","uic":"87682450"}},{"type":"Feature","geometry":{"type":"Point","coordinates":[6.70128,47.70314]},"properties":{"nom":"Champagney","lc":"CPY","seg":"C","uic":"87185348"}},{"type":"Feature","geometry":{"type":"Point","coordinates":[5.91003,46.7493]},"properties":{"nom":"Champagnole","lc":"CPG","seg":"C","uic":"87715326"}},{"type":"Feature","geometry":{"type":"Point","coordinates":[5.91981,46.74248]},"properties":{"nom":"Champagnole Paul-Émile Victor","lc":"PVT","seg":"C","uic":"87352047"}},{"type":"Feature","geometry":{"type":"Point","coordinates":[3.28743,48.54557]},"properties":{"nom":"Champbenoist - Poigny","lc":"CPK","seg":"B","uic":"87115873"}},{"type":"Feature","geometry":{"type":"Point","coordinates":[6.16913,48.73499]},"properties":{"nom":"Champigneulles","lc":"CHG","seg":"C","uic":"87141085"}},{"type":"Feature","geometry":{"type":"Point","coordinates":[3.13057,48.32374]},"properties":{"nom":"Champigny sur Yonne","lc":"CSY","seg":"B","uic":"87683128"}},{"type":"Feature","geometry":{"type":"Point","coordinates":[2.28073,48.70804]},"properties":{"nom":"Champlan","lc":"CPL","seg":"B","uic":"87725457"}},{"type":"Feature","geometry":{"type":"Point","coordinates":[3.60348,47.73882]},"properties":{"nom":"Champs - Saint-Bris","lc":"CAI","seg":"C","uic":"87683615"}},{"type":"Feature","geometry":{"type":"Point","coordinates":[-0.86857,47.41025]},"properties":{"nom":"Champtocé-sur-Loire","lc":"CWL","seg":"C","uic":"87484352"}},{"type":"Feature","geometry":{"type":"Point","coordinates":[3.34541,44.47398]},"properties":{"nom":"Chanac","lc":"CNA","seg":"C","uic":"87783530"}},{"type":"Feature","geometry":{"type":"Point","coordinates":[3.02539,48.95936]},"properties":{"nom":"Changis - Saint-Jean","lc":"CJN","seg":"B","uic":"87116509"}},{"type":"Feature","geometry":{"type":"Point","coordinates":[2.02771,48.97095]},"properties":{"nom":"Chanteloup-les-Vignes","lc":"CVF","seg":"B","uic":"87381475"}},{"type":"Feature","geometry":{"type":"Point","coordinates":[-1.59436,47.19712]},"properties":{"nom":"Chantenay","lc":"CHA","seg":"C","uic":"87481051"}},{"type":"Feature","geometry":{"type":"Point","coordinates":[3.17208,46.72832]},"properties":{"nom":"Chantenay-Saint-Imbert","lc":"CXI","seg":"C","uic":"87696302"}},{"type":"Feature","geometry":{"type":"Point","coordinates":[2.45979,49.18724]},"properties":{"nom":"Chantilly - Gouvieux","lc":"CLY","seg":"B","uic":"87276113"}},{"type":"Feature","geometry":{"type":"Point","coordinates":[-1.05441,46.68985]},"properties":{"nom":"Chantonnay","lc":"CTO","seg":"C","uic":"87486332"}},{"type":"Feature","geometry":{"type":"Point","coordinates":[3.74192,44.838]},"properties":{"nom":"Chapeauroux","lc":"CPX","seg":"C","uic":"87734343"}},{"type":"Feature","geometry":{"type":"Point","coordinates":[4.7643,45.69849]},"properties":{"nom":"Chaponost","lc":"CPT","seg":"C","uic":"87722710"}},{"type":"Feature","geometry":{"type":"Point","coordinates":[2.14238,49.06948]},"properties":{"nom":"Chaponval","lc":"CPW","seg":"C","uic":"87276162"}},{"type":"Feature","geometry":{"type":"Point","coordinates":[4.73591,45.78214]},"properties":{"nom":"Charbonnières-les-Bains","lc":"CRB","seg":"B","uic":"87721530"}},{"type":"Feature","geometry":{"type":"Point","coordinates":[4.72495,49.76792]},"properties":{"nom":"Charleville-Mézières","lc":"CMZ","seg":"B","uic":"87172007"}},{"type":"Feature","geometry":{"type":"Point","coordinates":[6.30154,48.37848]},"properties":{"nom":"Charmes","lc":"CHS","seg":"B","uic":"87144055"}},{"type":"Feature","geometry":{"type":"Point","coordinates":[1.93671,49.16268]},"properties":{"nom":"Chars","lc":"CHR","seg":"B","uic":"87381194"}},{"type":"Feature","geometry":{"type":"Point","coordinates":[1.48131,48.4482]},"properties":{"nom":"Chartres","lc":"CHH","seg":"B","uic":"87394007"}},{"type":"Feature","geometry":{"type":"Point","coordinates":[2.69501,48.48708]},"properties":{"nom":"Chartrettes","lc":"CJR","seg":"C","uic":"87682419"}},{"type":"Feature","geometry":{"type":"Point","coordinates":[4.79484,45.58237]},"properties":{"nom":"Chasse-sur-Rhône","lc":"CSR","seg":"B","uic":"87722561"}},{"type":"Feature","geometry":{"type":"Point","coordinates":[0.37303,46.65177]},"properties":{"nom":"Chasseneuil-du-Poitou","lc":"CHN","seg":"C","uic":"87575225"}},{"type":"Feature","geometry":{"type":"Point","coordinates":[3.83993,44.55398]},"properties":{"nom":"Chasseradès","lc":"CJD","seg":"C","uic":"87775148"}},{"type":"Feature","geometry":{"type":"Point","coordinates":[5.99737,44.06157]},"properties":{"nom":"Château-Arnoux-Saint-Auban","lc":"SAU","seg":"C","uic":"87751230"}},{"type":"Feature","geometry":{"type":"Point","coordinates":[0.41491,47.68339]},"properties":{"nom":"Château-du-Loir","lc":"CDL","seg":"B","uic":"87396606"}},{"type":"Feature","geometry":{"type":"Point","coordinates":[1.91281,48.14169]},"properties":{"nom":"Château-Gaillard","lc":"CGK","seg":"C","uic":"87543066"}},{"type":"Feature","geometry":{"type":"Point","coordinates":[0.68821,45.24459]},"properties":{"nom":"Château-l'Évêque","lc":"CEQ","seg":"C","uic":"87595165"}},{"type":"Feature","geometry":{"type":"Point","coordinates":[0.90152,47.5878]},"properties":{"nom":"Château-Renault","lc":"CTI","seg":"B","uic":"87574665"}},{"type":"Feature","geometry":{"type":"Point","coordinates":[3.40951,49.03822]},"properties":{"nom":"Château-Thierry","lc":"CTH","seg":"B","uic":"87116582"}},{"type":"Feature","geometry":{"type":"Point","coordinates":[-1.40516,48.10636]},"properties":{"nom":"Châteaubourg","lc":"CTG","seg":"B","uic":"87471524"}},{"type":"Feature","geometry":{"type":"Point","coordinates":[-1.37152,47.71752]},"properties":{"nom":"Châteaubriant","lc":"CTB","seg":"B;B","uic":"87590372;87481648"}},{"type":"Feature","geometry":{"type":"Point","coordinates":[1.33813,48.07346]},"properties":{"nom":"Châteaudun","lc":"CUN","seg":"B","uic":"87545756"}},{"type":"Feature","geometry":{"type":"Point","coordinates":[-4.09431,48.2016]},"properties":{"nom":"Châteaulin","lc":"CEM","seg":"C","uic":"87474064"}},{"type":"Feature","geometry":{"type":"Point","coordinates":[1.6453,45.75932]},"properties":{"nom":"Châteauneuf - Bujaleuf","lc":"CBF","seg":"C","uic":"87592105"}},{"type":"Feature","geometry":{"type":"Point","coordinates":[-0.0502,45.59984]},"properties":{"nom":"Châteauneuf-sur-Charente","lc":"CSC","seg":"C","uic":"87491506"}},{"type":"Feature","geometry":{"type":"Point","coordinates":[2.31038,46.85681]},"properties":{"nom":"Châteauneuf-sur-Cher","lc":"CHC","seg":"C","uic":"87576298"}},{"type":"Feature","geometry":{"type":"Point","coordinates":[1.69954,46.80974]},"properties":{"nom":"Châteauroux","lc":"CTX","seg":"A","uic":"87597005"}},{"type":"Feature","geometry":{"type":"Point","coordinates":[6.38781,48.30716]},"properties":{"nom":"Châtel - Nomexy","lc":"CEO","seg":"B","uic":"87144071"}},{"type":"Feature","geometry":{"type":"Point","coordinates":[3.63505,47.53777]},"properties":{"nom":"Châtel-Censoir","lc":"CAL","seg":"C","uic":"87696856"}},{"type":"Feature","geometry":{"type":"Point","coordinates":[-1.09089,46.07833]},"properties":{"nom":"Châtelaillon-Plage","lc":"CTL","seg":"B","uic":"87485110"}},{"type":"Feature","geometry":{"type":"Point","coordinates":[-2.97468,48.53322]},"properties":{"nom":"Châtelaudren - Plouagat","lc":"CDN","seg":"C","uic":"87473140"}},{"type":"Feature","geometry":{"type":"Point","coordinates":[0.54928,46.81859]},"properties":{"nom":"Châtellerault","lc":"CRT","seg":"B","uic":"87575142"}},{"type":"Feature","geometry":{"type":"Point","coordinates":[4.64512,45.87518]},"properties":{"nom":"Châtillon d'Azergues","lc":"CDZ","seg":"C","uic":"87721753"}},{"type":"Feature","geometry":{"type":"Point","coordinates":[4.34543,46.20746]},"properties":{"nom":"Chauffailles","lc":"CHF","seg":"C","uic":"87694778"}},{"type":"Feature","geometry":{"type":"Point","coordinates":[5.25519,47.0872]},"properties":{"nom":"Chaugey","lc":"CFJ","seg":"C","uic":"87712679"}},{"type":"Feature","geometry":{"type":"Point","coordinates":[2.80114,49.80762]},"properties":{"nom":"Chaulnes","lc":"CHL","seg":"B","uic":"87313478"}},{"type":"Feature","geometry":{"type":"Point","coordinates":[5.1346,48.10976]},"properties":{"nom":"Chaumont","lc":"CHM","seg":"B","uic":"87142000"}},{"type":"Feature","geometry":{"type":"Point","coordinates":[1.87274,49.26139]},"properties":{"nom":"Chaumont-en-Vexin","lc":"CEV","seg":"B","uic":"87381228"}},{"type":"Feature","geometry":{"type":"Point","coordinates":[3.22354,49.61119]},"properties":{"nom":"Chauny","lc":"CNY","seg":"B","uic":"87296616"}},{"type":"Feature","geometry":{"type":"Point","coordinates":[5.94386,46.65459]},"properties":{"nom":"Chaux-des-Crotenay","lc":"LXR","seg":"C","uic":"87715383"}},{"type":"Feature","geometry":{"type":"Point","coordinates":[2.18453,48.7998]},"properties":{"nom":"Chaville - Vélizy","lc":"CHV","seg":"B","uic":"87393173"}},{"type":"Feature","geometry":{"type":"Point","coordinates":[2.18785,48.81213]},"properties":{"nom":"Chaville Rive Droite","lc":"CWJ","seg":"B","uic":"87382333"}},{"type":"Feature","geometry":{"type":"Point","coordinates":[2.18825,48.80475]},"properties":{"nom":"Chaville Rive Gauche","lc":"CVI","seg":"B","uic":"87393207"}},{"type":"Feature","geometry":{"type":"Point","coordinates":[4.72522,45.87296]},"properties":{"nom":"Chazay - Marcilly","lc":"CZM","seg":"C","uic":"87721415"}},{"type":"Feature","geometry":{"type":"Point","coordinates":[6.71977,45.92635]},"properties":{"nom":"Chedde","lc":"CED","seg":"C","uic":"87746701"}},{"type":"Feature","geometry":{"type":"Point","coordinates":[4.67584,46.89248]},"properties":{"nom":"Cheilly-lès-Maranges","lc":"CJL","seg":"C","uic":"87694398"}},{"type":"Feature","geometry":{"type":"Point","coordinates":[2.58248,48.87413]},"properties":{"nom":"Chelles - Gournay","lc":"CSG","seg":"B","uic":"87116111"}},{"type":"Feature","geometry":{"type":"Point","coordinates":[-0.73199,47.21775]},"properties":{"nom":"Chemillé-en-Anjou","lc":"CHE","seg":"B","uic":"87484246"}},{"type":"Feature","geometry":{"type":"Point","coordinates":[3.55439,47.89724]},"properties":{"nom":"Chemilly - Appoigny","lc":"CAP","seg":"C","uic":"87683532"}},{"type":"Feature","geometry":{"type":"Point","coordinates":[2.31262,48.74814]},"properties":{"nom":"Chemin d'Antony","lc":"CHQ","seg":"B","uic":"87546317"}},{"type":"Feature","geometry":{"type":"Point","coordinates":[6.63256,48.51951]},"properties":{"nom":"Chenevières","lc":"CKY","seg":"C","uic":"87141382"}},{"type":"Feature","geometry":{"type":"Point","coordinates":[1.0661,47.33055]},"properties":{"nom":"Chenonceaux","lc":"CQH","seg":"C","uic":"87574491"}},{"type":"Feature","geometry":{"type":"Point","coordinates":[-1.62151,49.63351]},"properties":{"nom":"Cherbourg-en-Cotentin","lc":"CBU","seg":"A","uic":"87444877"}},{"type":"Feature","geometry":{"type":"Point","coordinates":[4.62226,45.88555]},"properties":{"nom":"Chessy","lc":"CZI","seg":"C","uic":"87721761"}},{"type":"Feature","geometry":{"type":"Point","coordinates":[-1.63076,48.2089]},"properties":{"nom":"Chevaigné","lc":"CWH","seg":"C","uic":"87471458"}},{"type":"Feature","geometry":{"type":"Point","coordinates":[5.11178,48.52455]},"properties":{"nom":"Chevillon","lc":"CIN","seg":"C","uic":"87175117"}},{"type":"Feature","geometry":{"type":"Point","coordinates":[1.8793,48.02662]},"properties":{"nom":"Chevilly","lc":"CVY","seg":"C","uic":"87543041"}},{"type":"Feature","geometry":{"type":"Point","coordinates":[2.6828,49.33731]},"properties":{"nom":"Chevrières","lc":"CGB","seg":"C","uic":"87276311"}},{"type":"Feature","geometry":{"type":"Point","coordinates":[3.36446,48.99191]},"properties":{"nom":"Chézy-sur-Marne","lc":"CYZ","seg":"B","uic":"87116574"}},{"type":"Feature","geometry":{"type":"Point","coordinates":[2.30818,48.70044]},"properties":{"nom":"Chilly-Mazarin","lc":"CAZ","seg":"B","uic":"87393637"}},{"type":"Feature","geometry":{"type":"Point","coordinates":[5.84689,45.80344]},"properties":{"nom":"Chindrieux","lc":"CWX","seg":"C","uic":"87741116"}},{"type":"Feature","geometry":{"type":"Point","coordinates":[0.25154,47.16305]},"properties":{"nom":"Chinon","lc":"CHI","seg":"B","uic":"87571687"}},{"type":"Feature","geometry":{"type":"Point","coordinates":[3.26382,44.52466]},"properties":{"nom":"Chirac","lc":"CAC","seg":"C","uic":"87783290"}},{"type":"Feature","geometry":{"type":"Point","coordinates":[1.1333,47.3349]},"properties":{"nom":"Chissay-en-Touraine","lc":"CXT","seg":"C","uic":"87574848"}},{"type":"Feature","geometry":{"type":"Point","coordinates":[2.56475,50.5382]},"properties":{"nom":"Chocques","lc":"CRG","seg":"C","uic":"87342220"}},{"type":"Feature","geometry":{"type":"Point","coordinates":[2.4111,48.76397]},"properties":{"nom":"Choisy-le-Roi","lc":"CLR","seg":"B","uic":"87545285"}},{"type":"Feature","geometry":{"type":"Point","coordinates":[-0.86958,47.0657]},"properties":{"nom":"Cholet","lc":"CHT","seg":"B","uic":"87484303"}},{"type":"Feature","geometry":{"type":"Point","coordinates":[6.27189,44.54584]},"properties":{"nom":"Chorges","lc":"CHO","seg":"C","uic":"87763425"}},{"type":"Feature","geometry":{"type":"Point","coordinates":[1.24785,47.52032]},"properties":{"nom":"Chouzy-sur-Cisse","lc":"CZV","seg":"C","uic":"87574301"}},{"type":"Feature","geometry":{"type":"Point","coordinates":[0.46049,47.34523]},"properties":{"nom":"Cinq-Mars-la-Pile","lc":"CQM","seg":"B","uic":"87571836"}},{"type":"Feature","geometry":{"type":"Point","coordinates":[1.52043,43.30542]},"properties":{"nom":"Cintegabelle","lc":"CBT","seg":"B","uic":"87611376"}},{"type":"Feature","geometry":{"type":"Point","coordinates":[2.36019,49.2718]},"properties":{"nom":"Cires-lès-Mello","lc":"CIW","seg":"B","uic":"87313551"}},{"type":"Feature","geometry":{"type":"Point","coordinates":[4.29971,46.60409]},"properties":{"nom":"Ciry-le-Noble","lc":"CYL","seg":"C","uic":"87694646"}},{"type":"Feature","geometry":{"type":"Point","coordinates":[4.71824,45.85918]},"properties":{"nom":"Civrieux-d'Azergues","lc":"CZK","seg":"C","uic":"87721746"}},{"type":"Feature","geometry":{"type":"Point","coordinates":[5.45407,46.21348]},"properties":{"nom":"Cize - Bolozon","lc":"CZQ","seg":"C","uic":"87743344"}},{"type":"Feature","geometry":{"type":"Point","coordinates":[3.57668,49.54392]},"properties":{"nom":"Clacy - Mons","lc":"ONS","seg":"C","uic":"87296178"}},{"type":"Feature","geometry":{"type":"Point","coordinates":[2.27333,48.81384]},"properties":{"nom":"Clamart","lc":"CMA","seg":"B","uic":"87391565"}},{"type":"Feature","geometry":{"type":"Point","coordinates":[3.52077,47.4667]},"properties":{"nom":"Clamecy","lc":"CLA","seg":"C","uic":"87696807"}},{"type":"Feature","geometry":{"type":"Point","coordinates":[5.60506,44.82724]},"properties":{"nom":"Clelles - Mens","lc":"CMS","seg":"C","uic":"87747626"}},{"type":"Feature","geometry":{"type":"Point","coordinates":[1.10618,49.59896]},"properties":{"nom":"Clères","lc":"CRS","seg":"B","uic":"87411819"}},{"type":"Feature","geometry":{"type":"Point","coordinates":[2.41767,49.38531]},"properties":{"nom":"Clermont de l'Oise","lc":"CDO","seg":"B","uic":"87313304"}},{"type":"Feature","geometry":{"type":"Point","coordinates":[3.13416,45.76695]},"properties":{"nom":"Clermont La Pardieu","lc":"COP","seg":"B","uic":"87782607"}},{"type":"Feature","geometry":{"type":"Point","coordinates":[3.09097,45.7681]},"properties":{"nom":"Clermont La Rotonde","lc":"RTD","seg":"C","uic":"87396895"}},{"type":"Feature","geometry":{"type":"Point","coordinates":[3.10054,45.77895]},"properties":{"nom":"Clermont-Ferrand","lc":"CLF","seg":"A","uic":"87734004"}},{"type":"Feature","geometry":{"type":"Point","coordinates":[6.49206,47.39666]},"properties":{"nom":"Clerval","lc":"CVL","seg":"C","uic":"87184622"}},{"type":"Feature","geometry":{"type":"Point","coordinates":[2.2982,48.89678]},"properties":{"nom":"Clichy - Levallois","lc":"CLL","seg":"B","uic":"87381129"}},{"type":"Feature","geometry":{"type":"Point","coordinates":[-1.28617,47.08614]},"properties":{"nom":"Clisson","lc":"CLI","seg":"B","uic":"87481440"}},{"type":"Feature","geometry":{"type":"Point","coordinates":[1.24335,47.9921]},"properties":{"nom":"Cloyes-sur-le-Loir","lc":"CLO","seg":"C","uic":"87574509"}},{"type":"Feature","geometry":{"type":"Point","coordinates":[6.58266,46.06145]},"properties":{"nom":"Cluses","lc":"CLU","seg":"B","uic":"87746370"}},{"type":"Feature","geometry":{"type":"Point","coordinates":[-0.24164,43.18184]},"properties":{"nom":"Coarraze - Nay","lc":"CZN","seg":"C","uic":"87672139"}},{"type":"Feature","geometry":{"type":"Point","coordinates":[-3.2738,48.48032]},"properties":{"nom":"Coat Guégan","lc":"CQG","seg":"C","uic":"87473579"}},{"type":"Feature","geometry":{"type":"Point","coordinates":[-0.32611,45.68468]},"properties":{"nom":"Cognac","lc":"COG","seg":"B","uic":"87491449"}},{"type":"Feature","geometry":{"type":"Point","coordinates":[1.92081,48.74377]},"properties":{"nom":"Coignières","lc":"CGW","seg":"B","uic":"87393272"}},{"type":"Feature","geometry":{"type":"Point","coordinates":[3.07823,42.52694]},"properties":{"nom":"Collioure","lc":"COX","seg":"B","uic":"87784256"}},{"type":"Feature","geometry":{"type":"Point","coordinates":[4.84661,45.82911]},"properties":{"nom":"Collonges - Fontaines","lc":"COF","seg":"B","uic":"87721225"}},{"type":"Feature","geometry":{"type":"Point","coordinates":[5.26535,47.22125]},"properties":{"nom":"Collonges-lès-Premières","lc":"CLG","seg":"C","uic":"87713321"}},{"type":"Feature","geometry":{"type":"Point","coordinates":[7.34697,48.0732]},"properties":{"nom":"Colmar","lc":"CMR","seg":"A","uic":"87182014"}},{"type":"Feature","geometry":{"type":"Point","coordinates":[7.33367,48.086]},"properties":{"nom":"Colmar Mésanges","lc":"CXM","seg":"C","uic":"87402297"}},{"type":"Feature","geometry":{"type":"Point","coordinates":[7.34534,48.08164]},"properties":{"nom":"Colmar Saint-Joseph","lc":"CXJ","seg":"C","uic":"87181222"}},{"type":"Feature","geometry":{"type":"Point","coordinates":[2.25939,48.92383]},"properties":{"nom":"Colombes","lc":"CBK","seg":"B","uic":"87381087"}},{"type":"Feature","geometry":{"type":"Point","coordinates":[6.68901,47.45548]},"properties":{"nom":"Colombier-Fontaine","lc":"CFT","seg":"C","uic":"87184556"}},{"type":"Feature","geometry":{"type":"Point","coordinates":[1.33422,43.60373]},"properties":{"nom":"Colomiers","lc":"COL","seg":"B","uic":"87611467"}},{"type":"Feature","geometry":{"type":"Point","coordinates":[1.31412,43.61631]},"properties":{"nom":"Colomiers Lycée International","lc":"LYF","seg":"B","uic":"87611921"}},{"type":"Feature","geometry":{"type":"Point","coordinates":[-1.72792,48.41609]},"properties":{"nom":"Combourg","lc":"CUG","seg":"B","uic":"87478057"}},{"type":"Feature","geometry":{"type":"Point","coordinates":[2.5478,48.66718]},"properties":{"nom":"Combs-la-Ville - Quincy","lc":"CBV","seg":"B","uic":"87682146"}},{"type":"Feature","geometry":{"type":"Point","coordinates":[2.73995,46.2951]},"properties":{"nom":"Commentry","lc":"CMY","seg":"B","uic":"87641415"}},{"type":"Feature","geometry":{"type":"Point","coordinates":[5.58861,48.76575]},"properties":{"nom":"Commercy","lc":"CCY","seg":"B","uic":"87175257"}},{"type":"Feature","geometry":{"type":"Point","coordinates":[2.66527,48.99158]},"properties":{"nom":"Compans","lc":"COJ","seg":"C","uic":"87272047"}},{"type":"Feature","geometry":{"type":"Point","coordinates":[2.82368,49.42201]},"properties":{"nom":"Compiègne","lc":"CPE","seg":"B","uic":"87276691"}},{"type":"Feature","geometry":{"type":"Point","coordinates":[0.93789,48.96236]},"properties":{"nom":"Conches-en-Ouche","lc":"CCH","seg":"C","uic":"87387159"}},{"type":"Feature","geometry":{"type":"Point","coordinates":[1.22675,45.12671]},"properties":{"nom":"Condat - Le Lardin","lc":"CDT","seg":"C","uic":"87594382"}},{"type":"Feature","geometry":{"type":"Point","coordinates":[0.8487,48.38348]},"properties":{"nom":"Condé-sur-Huisne","lc":"CDH","seg":"C","uic":"87394288"}},{"type":"Feature","geometry":{"type":"Point","coordinates":[5.86819,49.16629]},"properties":{"nom":"Conflans - Jarny","lc":"CJJ","seg":"B","uic":"87192666"}},{"type":"Feature","geometry":{"type":"Point","coordinates":[2.07465,48.98931]},"properties":{"nom":"Conflans Fin d'Oise","lc":"CFD","seg":"B","uic":"87381459"}},{"type":"Feature","geometry":{"type":"Point","coordinates":[2.09783,48.99646]},"properties":{"nom":"Conflans-Sainte-Honorine","lc":"CSH","seg":"B","uic":"87381897"}},{"type":"Feature","geometry":{"type":"Point","coordinates":[-0.01137,48.12729]},"properties":{"nom":"Conlie","lc":"CIE","seg":"C","uic":"87396218"}},{"type":"Feature","geometry":{"type":"Point","coordinates":[0.48687,48.0735]},"properties":{"nom":"Connerré - Beillé","lc":"COB","seg":"B","uic":"87396309"}},{"type":"Feature","geometry":{"type":"Point","coordinates":[5.89063,48.17961]},"properties":{"nom":"Contrexéville","lc":"CXC","seg":"C","uic":"87144287"}},{"type":"Feature","geometry":{"type":"Point","coordinates":[3.04054,50.34285]},"properties":{"nom":"Corbehem","lc":"COR","seg":"C","uic":"87345116"}},{"type":"Feature","geometry":{"type":"Point","coordinates":[2.47401,48.61403]},"properties":{"nom":"Corbeil-Essonnes","lc":"COE","seg":"B","uic":"87681007"}},{"type":"Feature","geometry":{"type":"Point","coordinates":[2.49968,49.91162]},"properties":{"nom":"Corbie","lc":"CBI","seg":"B","uic":"87313056"}},{"type":"Feature","geometry":{"type":"Point","coordinates":[3.67732,47.25481]},"properties":{"nom":"Corbigny","lc":"CBY","seg":"C","uic":"87696617"}},{"type":"Feature","geometry":{"type":"Point","coordinates":[3.21572,49.25509]},"properties":{"nom":"Corcy","lc":"CKX","seg":"C","uic":"87272286"}},{"type":"Feature","geometry":{"type":"Point","coordinates":[-1.84668,47.30215]},"properties":{"nom":"Cordemais","lc":"CDQ","seg":"C","uic":"87481820"}},{"type":"Feature","geometry":{"type":"Point","coordinates":[1.90023,44.06719]},"properties":{"nom":"Cordes - Vindrac","lc":"VDC","seg":"C","uic":"87613802"}},{"type":"Feature","geometry":{"type":"Point","coordinates":[4.91712,47.0842]},"properties":{"nom":"Corgoloin","lc":"CGO","seg":"C","uic":"87713537"}},{"type":"Feature","geometry":{"type":"Point","coordinates":[2.19358,48.96864]},"properties":{"nom":"Cormeilles-en-Parisis","lc":"CPA","seg":"B","uic":"87381863"}},{"type":"Feature","geometry":{"type":"Point","coordinates":[0.83395,47.26254]},"properties":{"nom":"Cormery","lc":"CEY","seg":"C","uic":"87571430"}},{"type":"Feature","geometry":{"type":"Point","coordinates":[1.69785,45.21518]},"properties":{"nom":"Cornil","lc":"CIL","seg":"C","uic":"87594481"}},{"type":"Feature","geometry":{"type":"Point","coordinates":[2.88541,50.415]},"properties":{"nom":"Coron de Méricourt","lc":"CQW","seg":"C","uic":"87345132"}},{"type":"Feature","geometry":{"type":"Point","coordinates":[-1.57547,47.98517]},"properties":{"nom":"Corps-Nuds","lc":"CPS","seg":"C","uic":"87471326"}},{"type":"Feature","geometry":{"type":"Point","coordinates":[1.88108,45.32948]},"properties":{"nom":"Corrèze","lc":"CZE","seg":"C","uic":"87594119"}},{"type":"Feature","geometry":{"type":"Point","coordinates":[-2.14143,48.49606]},"properties":{"nom":"Corseul - Languenan","lc":"CFA","seg":"C","uic":"87478180"}},{"type":"Feature","geometry":{"type":"Point","coordinates":[2.93198,47.414]},"properties":{"nom":"Cosne-Cours-sur-Loire","lc":"COS","seg":"B","uic":"87696146"}},{"type":"Feature","geometry":{"type":"Point","coordinates":[3.77482,49.55628]},"properties":{"nom":"Coucy-lès-Eppes","lc":"CCP","seg":"C","uic":"87171769"}},{"type":"Feature","geometry":{"type":"Point","coordinates":[2.37514,51.01771]},"properties":{"nom":"Coudekerque-Branche","lc":"CDK","seg":"C","uic":"87281402"}},{"type":"Feature","geometry":{"type":"Point","coordinates":[-1.7235,47.22204]},"properties":{"nom":"Couëron","lc":"CNQ","seg":"C","uic":"87481804"}},{"type":"Feature","geometry":{"type":"Point","coordinates":[2.31618,43.15554]},"properties":{"nom":"Couffoulens - Leuc","lc":"CFW","seg":"C","uic":"87615120"}},{"type":"Feature","geometry":{"type":"Point","coordinates":[2.85406,48.88302]},"properties":{"nom":"Couilly - Saint-Germain - Quincy","lc":"CYQ","seg":"C","uic":"87116731"}},{"type":"Feature","geometry":{"type":"Point","coordinates":[3.54724,47.52705]},"properties":{"nom":"Coulanges-sur-Yonne","lc":"CAO","seg":"C","uic":"87696831"}},{"type":"Feature","geometry":{"type":"Point","coordinates":[3.08225,48.80801]},"properties":{"nom":"Coulommiers","lc":"CQU","seg":"B","uic":"87116301"}},{"type":"Feature","geometry":{"type":"Point","coordinates":[2.24804,48.89831]},