{"type":"FeatureCollection","features":[{"type":"Feature","geometry":{"type":"Point","coordinates":[5.77212,43.93941]},"properties":{"nom":"Le Couvent des Minimes Hôtel & Spa L'Occitane","sub":"HotelRestaurant","cm":"04300#Mane","web":"https://www.couventdesminimes-hotelspa.com/fr/","uri":"https://data.datatourisme.fr/13/6ff8eae7-428a-3df4-90df-2906dd068c6e","dept":"04","reg":"pac"}},{"type":"Feature","geometry":{"type":"Point","coordinates":[5.77212,43.93941]},"properties":{"nom":"Couvent des Minimes Hôtel & Spa","sub":"Rental","cm":"04300#Mane","web":"https://www.couventdesminimes-hotelspa.com/fr/","uri":"https://data.datatourisme.fr/13/1c6acc55-774c-35e1-8395-950cc50e07d9","dept":"04","reg":"pac"}},{"type":"Feature","geometry":{"type":"Point","coordinates":[6.39874,43.79439]},"properties":{"nom":"Auberge Du Point Sublime","sub":"HotelRestaurant","cm":"04120#Rougon","web":"http://www.auberge-pointsublime.com/","uri":"https://data.datatourisme.fr/13/9a1aeaf9-1d71-34eb-935b-6d22ca9ba4e7","dept":"04","reg":"pac"}},{"type":"Feature","geometry":{"type":"Point","coordinates":[6.00997,43.78259]},"properties":{"nom":"Hôtel du Moulin","sub":"HotelRestaurant","cm":"04500#Allemagne-en-Provence","web":"http://www.hotel-lemoulin.com/","uri":"https://data.datatourisme.fr/13/c0d10185-94ea-3e31-ab78-856a34c9a53c","dept":"04","reg":"pac"}},{"type":"Feature","geometry":{"type":"Point","coordinates":[5.78754,43.96224]},"properties":{"nom":"Camping Forcalquier Les Routes de Provence","sub":"Camping","cm":"04300#Forcalquier","web":"https://www.camping-routes-de-provence.fr/fr","uri":"https://data.datatourisme.fr/13/156a7462-3793-3312-ac60-ffc11f515f20","dept":"04","reg":"pac"}},{"type":"Feature","geometry":{"type":"Point","coordinates":[6.0167,44.10613]},"properties":{"nom":"Camping Sunêlia l'Hippocampe","sub":"Camping","cm":"04290#Volonne","web":"http://www.l-hippocampe.com/","uri":"https://data.datatourisme.fr/13/290dd569-fefc-3020-ac3f-4c78322343fd","dept":"04","reg":"pac"}},{"type":"Feature","geometry":{"type":"Point","coordinates":[6.50433,43.85303]},"properties":{"nom":"Camping L'EDEN ROAD","sub":"Camping","cm":"04120#Castellane","web":"https://www.campingledenroad04.com/","uri":"https://data.datatourisme.fr/13/7e5c87c6-36bc-316c-8615-c0ae166f14dd","dept":"04","reg":"pac"}},{"type":"Feature","geometry":{"type":"Point","coordinates":[6.3335,44.405]},"properties":{"nom":"Azur et Neige - Cap France","sub":"CollectiveAccommodation","cm":"04140#Montclar","web":"https://www.azuretneige.fr/","uri":"https://data.datatourisme.fr/13/3cd3c431-1162-3359-abd7-64fc7d0e78dc","dept":"04","reg":"pac"}},{"type":"Feature","geometry":{"type":"Point","coordinates":[6.35086,44.4114]},"properties":{"nom":"Hôtel-Restaurant Espace***","sub":"HotelRestaurant","cm":"04140#Montclar","web":"http://www.hotel-espace.com/","uri":"https://data.datatourisme.fr/13/4888f9d2-7ce8-313b-8225-6a5780ac318e","dept":"04","reg":"pac"}},{"type":"Feature","geometry":{"type":"Point","coordinates":[6.20517,44.08372]},"properties":{"nom":"Hôtel Saint Michel","sub":"Hotel","cm":"04000#Digne-les-Bains","web":"http://www.hotelsaintmichel.com/","uri":"https://data.datatourisme.fr/13/55143ed8-ca23-3d38-81e4-53cdd01f8bea","dept":"04","reg":"pac"}},{"type":"Feature","geometry":{"type":"Point","coordinates":[5.89667,43.75819]},"properties":{"nom":"Le Verdon","sub":"Hotel","cm":"04800#Gréoux-les-Bains","web":"http://www.hotel-le-verdon.fr/","uri":"https://data.datatourisme.fr/13/76c26564-5843-3338-8b64-dc9f69908678","dept":"04","reg":"pac"}},{"type":"Feature","geometry":{"type":"Point","coordinates":[5.73319,43.97302]},"properties":{"nom":"Domaine naturiste Les Lauzons","sub":"Camping","cm":"04300#Limans","web":"http://www.camping-lauzons.com/","uri":"https://data.datatourisme.fr/13/24ac9f2b-3978-3b8a-9a9d-943db7529524","dept":"04","reg":"pac"}},{"type":"Feature","geometry":{"type":"Point","coordinates":[6.57143,44.2903]},"properties":{"nom":"Hôtel la Source","sub":"Hotel","cm":"04260#Allos","web":"http://www.hotellasource.net/","uri":"https://data.datatourisme.fr/13/9931c82b-bac0-3b09-a7b5-dbc82f9c4a6a","dept":"04","reg":"pac"}},{"type":"Feature","geometry":{"type":"Point","coordinates":[6.57005,43.82411]},"properties":{"nom":"RCN Les Collines de Castellane","sub":"Camping","cm":"04120#La Garde","web":"https://www.rcn.fr/","uri":"https://data.datatourisme.fr/13/45617bd4-36a6-39fe-9abf-2c8d941092db","dept":"04","reg":"pac"}},{"type":"Feature","geometry":{"type":"Point","coordinates":[6.39159,44.28184]},"properties":{"nom":"Camping Lou Passavous***","sub":"Camping","cm":"04140#Le Vernet","web":null,"uri":"https://data.datatourisme.fr/13/eab87c9a-1ec4-3e99-ab0c-0d94d7600064","dept":"04","reg":"pac"}},{"type":"Feature","geometry":{"type":"Point","coordinates":[6.1967,43.97796]},"properties":{"nom":"Camping Tikayan La Célestine","sub":"Camping","cm":"04270#Beynes","web":"https://www.tikayan.com/fr/camping-la-celestine-accueil","uri":"https://data.datatourisme.fr/13/ec67efdf-f8a3-3627-983a-f4975a48fddc","dept":"04","reg":"pac"}},{"type":"Feature","geometry":{"type":"Point","coordinates":[6.35079,44.41105]},"properties":{"nom":"Sport Confort","sub":"Rental","cm":"04140#Montclar","web":"https://www.sportconfort-bikes.fr/<>https://www.sport-confort.com/<>https://www.piollesport-shop.com/","uri":"https://data.datatourisme.fr/13/6c31c2a6-4326-388c-b658-c250aed42c80","dept":"04","reg":"pac"}},{"type":"Feature","geometry":{"type":"Point","coordinates":[6.22542,43.81465]},"properties":{"nom":"Le Moulin","sub":"Camping","cm":"04360#Moustiers-Sainte-Marie","web":"https://www.camping-le-moulin.com/","uri":"https://data.datatourisme.fr/13/6e011e8d-ea17-31e2-a627-6dbea68beffa","dept":"04","reg":"pac"}},{"type":"Feature","geometry":{"type":"Point","coordinates":[5.80113,43.82893]},"properties":{"nom":"Hôtel Séjours et Affaires Moulin Neuf","sub":"Hotel","cm":"04100#Manosque","web":"https://www.sejours-affaires.com/residence-hoteliere-aparthotel-manosque-196.html","uri":"https://data.datatourisme.fr/13/0b78e470-6f4f-3495-ae34-22cbc4ffcce6","dept":"04","reg":"pac"}},{"type":"Feature","geometry":{"type":"Point","coordinates":[6.34206,43.78023]},"properties":{"nom":"Verdon-e-Bike","sub":"Rental","cm":"04120#La Palud-sur-Verdon","web":"https://verdonebike.com/","uri":"https://data.datatourisme.fr/13/0640ffbf-2a26-3553-b026-92048e53c93e","dept":"04","reg":"pac"}},{"type":"Feature","geometry":{"type":"Point","coordinates":[6.50874,43.96109]},"properties":{"nom":"Camping municipal Les Iscles","sub":"Camping","cm":"04170#Saint-André-les-Alpes","web":"https://campinglesiscles.fr/","uri":"https://data.datatourisme.fr/13/d5f4d594-d01f-3991-931e-6250c31a373c","dept":"04","reg":"pac"}},{"type":"Feature","geometry":{"type":"Point","coordinates":[6.34778,44.40918]},"properties":{"nom":"Yelloh Village Étoile Des Neiges*****","sub":"Camping","cm":"04140#Montclar","web":"https://www.etoile-des-neiges.com/","uri":"https://data.datatourisme.fr/13/5eea8843-3537-3b4f-b0b1-0afbe7eb65be","dept":"04","reg":"pac"}},{"type":"Feature","geometry":{"type":"Point","coordinates":[6.44651,44.2212]},"properties":{"nom":"Camping Mandala","sub":"Camping","cm":"04420#Prads-Haute-Bléone","web":"https://www.camping-mandala.fr/","uri":"https://data.datatourisme.fr/13/7b3df2db-9b67-37f4-8d99-88b874461089","dept":"04","reg":"pac"}},{"type":"Feature","geometry":{"type":"Point","coordinates":[5.94332,44.19491]},"properties":{"nom":"Grand Hôtel du Cours","sub":"HotelRestaurant","cm":"04200#Sisteron","web":"http://www.hotel-lecours.com/","uri":"https://data.datatourisme.fr/13/0b20a16f-99b4-3640-9ebb-4b1589cfe67d","dept":"04","reg":"pac"}},{"type":"Feature","geometry":{"type":"Point","coordinates":[6.49748,44.07872]},"properties":{"nom":"Camping du Villard","sub":"Camping","cm":"04170#Thorame-Basse","web":"https://www.campingduvillard.com/","uri":"https://data.datatourisme.fr/13/ad75c4b7-91dd-3b17-b624-6c205e74302e","dept":"04","reg":"pac"}},{"type":"Feature","geometry":{"type":"Point","coordinates":[5.59192,43.95765]},"properties":{"nom":"Salle de réception, réunion, stage - La Philanthropia","sub":"Rental","cm":"04150#Simiane-la-Rotonde","web":"https://www.valsaintes.org/","uri":"https://data.datatourisme.fr/13/54a53525-2255-3d9e-8b65-48f2847a97dd","dept":"04","reg":"pac"}},{"type":"Feature","geometry":{"type":"Point","coordinates":[6.46439,43.86567]},"properties":{"nom":"Camping Les Sirènes","sub":"Camping","cm":"04120#Castellane","web":"https://les-sirenes.com/","uri":"https://data.datatourisme.fr/13/82cc8597-6cce-3577-8349-a84fc78b4be7","dept":"04","reg":"pac"}},{"type":"Feature","geometry":{"type":"Point","coordinates":[5.93409,43.95317]},"properties":{"nom":"Camping Little Carpe Diem","sub":"Camping","cm":"04190#Les Mées","web":"http://www.littlecarpediem.com/","uri":"https://data.datatourisme.fr/13/b24c2852-c33d-3d2a-ab25-81b0b2e41925","dept":"04","reg":"pac"}},{"type":"Feature","geometry":{"type":"Point","coordinates":[5.92408,44.21535]},"properties":{"nom":"Hôtel Les Chênes","sub":"HotelRestaurant","cm":"04200#Sisteron","web":"https://www.hotel-les-chenes.com/","uri":"https://data.datatourisme.fr/13/ec033fe9-3fbc-3ab0-ab65-528e0861eb9e","dept":"04","reg":"pac"}},{"type":"Feature","geometry":{"type":"Point","coordinates":[6.65813,43.97158]},"properties":{"nom":"Camping La Ribière","sub":"Camping","cm":"04240#Annot","web":"https://www.la-ribiere.com/","uri":"https://data.datatourisme.fr/13/2099c290-35fa-32b2-a8ec-e996307a10dd","dept":"04","reg":"pac"}},{"type":"Feature","geometry":{"type":"Point","coordinates":[6.34109,43.77917]},"properties":{"nom":"Hôtel Le Provence","sub":"HotelRestaurant","cm":"04120#La Palud-sur-Verdon","web":"https://www.hotel-provence-verdon.com/","uri":"https://data.datatourisme.fr/13/29689d01-ff28-3115-9e80-0e49a8c1f5bd","dept":"04","reg":"pac"}},{"type":"Feature","geometry":{"type":"Point","coordinates":[6.21494,43.84369]},"properties":{"nom":"Saint-Jean","sub":"Camping","cm":"04360#Moustiers-Sainte-Marie","web":"http://www.camping-st-jean.fr/","uri":"https://data.datatourisme.fr/13/44c361bd-8fb7-3034-8645-14026c95f5b7","dept":"04","reg":"pac"}},{"type":"Feature","geometry":{"type":"Point","coordinates":[6.34432,43.77529]},"properties":{"nom":"Hotel & Spa des Gorges du Verdon","sub":"HotelRestaurant","cm":"04120#La Palud-sur-Verdon","web":"https://www.hotel-des-gorges-du-verdon.fr/","uri":"https://data.datatourisme.fr/13/67e8ce35-1f13-30ee-995a-b69308e9546b","dept":"04","reg":"pac"}},{"type":"Feature","geometry":{"type":"Point","coordinates":[6.38906,44.06661]},"properties":{"nom":"Gîte d'étape des Robines","sub":"CollectiveAccommodation","cm":"04330#Tartonne","web":"https://www.grand-gite-robines.com/","uri":"https://data.datatourisme.fr/13/57c2d98b-7664-38f3-b4da-75926f791c5f","dept":"04","reg":"pac"}},{"type":"Feature","geometry":{"type":"Point","coordinates":[6.59055,44.13824]},"properties":{"nom":"Camping Paradis Les Relarguiers","sub":"Camping","cm":"04370#Beauvezer","web":"https://www.relarguiers.fr/","uri":"https://data.datatourisme.fr/13/637fd3e1-03ea-345f-9465-602e9c503f73","dept":"04","reg":"pac"}},{"type":"Feature","geometry":{"type":"Point","coordinates":[6.21708,43.83638]},"properties":{"nom":"La Ferme Rose","sub":"Hotel","cm":"04360#Moustiers-Sainte-Marie","web":"http://www.lafermerose.com/","uri":"https://data.datatourisme.fr/13/84f06d12-c8f6-38cb-9f0a-cab7d4eb1770","dept":"04","reg":"pac"}},{"type":"Feature","geometry":{"type":"Point","coordinates":[6.50685,43.84604]},"properties":{"nom":"Camping Les Lavandes","sub":"Camping","cm":"04120#Castellane","web":"http://www.camping-les-lavandes.com/","uri":"https://data.datatourisme.fr/13/56a4f710-958e-34a6-9bb7-4e54a2b38316","dept":"04","reg":"pac"}},{"type":"Feature","geometry":{"type":"Point","coordinates":[5.77119,43.84135]},"properties":{"nom":"Hôtel Le Pré Saint-Michel","sub":"Hotel","cm":"04100#Manosque","web":"http://www.presaintmichel.com/","uri":"https://data.datatourisme.fr/13/6f2ef10d-746e-34fd-ab8b-6c67ac3e25ba","dept":"04","reg":"pac"}},{"type":"Feature","geometry":{"type":"Point","coordinates":[5.88195,43.74866]},"properties":{"nom":"La Pinède","sub":"Camping","cm":"04800#Gréoux-les-Bains","web":"http://www.camping-lapinede-04.com/","uri":"https://data.datatourisme.fr/13/afaa3e1c-233f-31a8-a71c-ad7243755a30","dept":"04","reg":"pac"}},{"type":"Feature","geometry":{"type":"Point","coordinates":[6.506,43.9586]},"properties":{"nom":"Hôtel Lac et Forêt","sub":"HotelRestaurant","cm":"04170#Saint-André-les-Alpes","web":"https://lacforet.com/","uri":"https://data.datatourisme.fr/13/606054ca-99d3-3a16-87bf-b6e46897f5d5","dept":"04","reg":"pac"}},{"type":"Feature","geometry":{"type":"Point","coordinates":[6.51374,43.84624]},"properties":{"nom":"Nouvel Hôtel du Commerce","sub":"Hotel","cm":"04120#Castellane","web":"https://www.hotel-du-commerce-verdon.com/","uri":"https://data.datatourisme.fr/13/9d3866b9-f6bb-3f2c-92f3-46213a8d40e9","dept":"04","reg":"pac"}},{"type":"Feature","geometry":{"type":"Point","coordinates":[6.5353,43.84152]},"properties":{"nom":"Camping White Rock (Les Framboiseilles)","sub":"Camping","cm":"04120#Castellane","web":"https://www.camping-whiterock.com/fr/booking/room","uri":"https://data.datatourisme.fr/13/3e1c0007-9f4a-31fe-895f-7ab09ce03e85","dept":"04","reg":"pac"}},{"type":"Feature","geometry":{"type":"Point","coordinates":[6.09261,43.81669]},"properties":{"nom":"Les Deux Lions","sub":"Hotel","cm":"04500#Riez","web":"https://www.hotel-les-2-lions-riez.fr/","uri":"https://data.datatourisme.fr/13/4f482ca7-9711-3bed-ae02-2322530514f1","dept":"04","reg":"pac"}},{"type":"Feature","geometry":{"type":"Point","coordinates":[5.77873,43.95767]},"properties":{"nom":"Bachelas Bike Shop","sub":"Rental","cm":"04300#Forcalquier","web":"http://bachelasbikeshop.com/","uri":"https://data.datatourisme.fr/13/5c7b3735-ea22-3113-bc21-8672154921e5","dept":"04","reg":"pac"}},{"type":"Feature","geometry":{"type":"Point","coordinates":[6.22259,43.83997]},"properties":{"nom":"Hôtel Les Restanques","sub":"Hotel","cm":"04360#Moustiers-Sainte-Marie","web":"http://www.hotel-les-restanques.com/","uri":"https://data.datatourisme.fr/13/fdb3126b-021a-3a05-a2b7-2fb2c11a8bdc","dept":"04","reg":"pac"}},{"type":"Feature","geometry":{"type":"Point","coordinates":[5.60447,43.96348]},"properties":{"nom":"SAS Camping Valsaintes","sub":"Camping","cm":"04150#Simiane-la-Rotonde","web":"https://www.valsaintes.com/","uri":"https://data.datatourisme.fr/13/1dec34e2-4065-30b9-8c15-d8a1783190d8","dept":"04","reg":"pac"}},{"type":"Feature","geometry":{"type":"Point","coordinates":[6.50994,43.84581]},"properties":{"nom":"Camping Frédéric Mistral","sub":"Camping","cm":"04120#Castellane","web":"https://camping-fredericmistral.fr/","uri":"https://data.datatourisme.fr/13/1ffb225f-1e02-3c8b-90ae-8ddcd3f5bf52","dept":"04","reg":"pac"}},{"type":"Feature","geometry":{"type":"Point","coordinates":[5.97109,44.1573]},"properties":{"nom":"Flower Camping Le Jas du Moine","sub":"Camping","cm":"04290#Salignac","web":"http://www.camping-jasdumoine.com/","uri":"https://data.datatourisme.fr/13/530c3161-e054-3868-8a00-bcaa2147799a","dept":"04","reg":"pac"}},{"type":"Feature","geometry":{"type":"Point","coordinates":[6.2206,43.839]},"properties":{"nom":"Le Vieux Colombier","sub":"Camping","cm":"04360#Moustiers-Sainte-Marie","web":"http://www.campinglevieuxcolombier.com/","uri":"https://data.datatourisme.fr/13/d77a98c7-4c42-3895-9cd7-d518f0edf68c","dept":"04","reg":"pac"}},{"type":"Feature","geometry":{"type":"Point","coordinates":[5.8975,43.75748]},"properties":{"nom":"Le Mas de la Crémaillère","sub":"HotelRestaurant","cm":"04800#Gréoux-les-Bains","web":"https://www.mascremailleregreoux.com/","uri":"https://data.datatourisme.fr/13/a3937ce2-1b5e-3415-acdf-79b565b6c924","dept":"04","reg":"pac"}},{"type":"Feature","geometry":{"type":"Point","coordinates":[6.10041,43.81289]},"properties":{"nom":"Camping Rose de Provence - Verdon","sub":"Camping","cm":"04500#Riez","web":"https://www.rose-de-provence.com/","uri":"https://data.datatourisme.fr/13/d9b071eb-af37-39b4-8aae-e60367347bba","dept":"04","reg":"pac"}},{"type":"Feature","geometry":{"type":"Point","coordinates":[6.43147,43.82277]},"properties":{"nom":"Camping Huttopia Gorges du Verdon","sub":"Camping","cm":"04120#Castellane","web":"https://europe.huttopia.com/site/camping-gorges-du-verdon","uri":"https://data.datatourisme.fr/13/2a4e15b3-df78-31fd-858e-8c21953ffaaf","dept":"04","reg":"pac"}},{"type":"Feature","geometry":{"type":"Point","coordinates":[6.2517,44.10044]},"properties":{"nom":"Camping du Bourg","sub":"Camping","cm":"04000#Digne-les-Bains","web":"http://www.campingdigne.com/","uri":"https://data.datatourisme.fr/13/ba267a47-a09b-3dde-b1aa-003b1ecaffc4","dept":"04","reg":"pac"}},{"type":"Feature","geometry":{"type":"Point","coordinates":[5.94167,44.19631]},"properties":{"nom":"Hôtel Tivoli Théopolis","sub":"Hotel","cm":"04200#Sisteron","web":"https://www.hoteltivoli-sisteron.com/","uri":"https://data.datatourisme.fr/13/f4b683d4-ad5e-377d-b5cb-549c1e7459c6","dept":"04","reg":"pac"}},{"type":"Feature","geometry":{"type":"Point","coordinates":[6.51506,43.88515]},"properties":{"nom":"Camping Castillon de Provence","sub":"Camping","cm":"04120#Castellane","web":"https://www.clicochic.com/camping-france-provence_alpes_cote_d_azur-castillon_de_provence-FR.html","uri":"https://data.datatourisme.fr/13/e3894ec8-4df7-3fc2-9f0c-980288728d8e","dept":"04","reg":"pac"}},{"type":"Feature","geometry":{"type":"Point","coordinates":[5.63062,44.027]},"properties":{"nom":"Flower Camping L'Epi Bleu","sub":"Camping","cm":"04150#Banon","web":"http://www.campingepibleu.com/","uri":"https://data.datatourisme.fr/13/9b505dba-3ec0-3293-95df-fb3b4feef0dc","dept":"04","reg":"pac"}},{"type":"Feature","geometry":{"type":"Point","coordinates":[6.22421,43.82799]},"properties":{"nom":"Tikayan Le Saint-Clair","sub":"Camping","cm":"04360#Moustiers-Sainte-Marie","web":"https://www.tikayan.com/fr/","uri":"https://data.datatourisme.fr/13/5d12fce1-6081-322a-9801-062bde152ab7","dept":"04","reg":"pac"}},{"type":"Feature","geometry":{"type":"Point","coordinates":[5.76322,43.82983]},"properties":{"nom":"Camping Flower Provence Vallée","sub":"Camping","cm":"04100#Manosque","web":"https://provence-vallee.fr/","uri":"https://data.datatourisme.fr/13/ce35a459-80d8-316f-82e5-8d93c934c7f6","dept":"04","reg":"pac"}},{"type":"Feature","geometry":{"type":"Point","coordinates":[6.21975,43.84674]},"properties":{"nom":"La Bastide du Paradou","sub":"Hotel","cm":"04360#Moustiers-Sainte-Marie","web":"http://www.hotel-moustiers.com/","uri":"https://data.datatourisme.fr/13/fe031c87-aa67-31b1-b88b-3db6b7f58ce8","dept":"04","reg":"pac"}},{"type":"Feature","geometry":{"type":"Point","coordinates":[5.79075,43.823]},"properties":{"nom":"Hôtel Bel'Alp","sub":"Hotel","cm":"04100#Manosque","web":"http://www.hotel-belalp.com/","uri":"https://data.datatourisme.fr/13/9447f19f-3ded-3ef6-b964-e2c7feb7b64f","dept":"04","reg":"pac"}},{"type":"Feature","geometry":{"type":"Point","coordinates":[6.076,43.73397]},"properties":{"nom":"Camping La Farigoulette","sub":"Camping","cm":"04500#Saint-Laurent-du-Verdon","web":"https://lafarigoulette.cielavillage.fr/fr/","uri":"https://data.datatourisme.fr/13/d73fa98d-973c-322f-9ef9-64c93a3cb1ff","dept":"04","reg":"pac"}},{"type":"Feature","geometry":{"type":"Point","coordinates":[6.04156,43.69746]},"properties":{"nom":"Les Prés du Verdon","sub":"Camping","cm":"04500#Quinson","web":"http://www.campinglespresduverdon.com/","uri":"https://data.datatourisme.fr/13/e11e9560-c865-3a00-8d2e-7209dec313e9","dept":"04","reg":"pac"}},{"type":"Feature","geometry":{"type":"Point","coordinates":[5.80687,43.94392]},"properties":{"nom":"Charembeau - Hôtel et Hôtel Résidence","sub":"Hotel","cm":"04300#Forcalquier","web":"https://www.charembeau.com/","uri":"https://data.datatourisme.fr/13/83aef2e6-5717-3324-a48b-c2c6c7eaf710","dept":"04","reg":"pac"}},{"type":"Feature","geometry":{"type":"Point","coordinates":[6.31175,44.37135]},"properties":{"nom":"Hôtel-Restaurant Chez Le Poète**","sub":"HotelRestaurant","cm":"04140#Selonnet","web":"https://chezlepoete.com/","uri":"https://data.datatourisme.fr/13/d35cb7fa-4fac-36dd-999e-e4d296b99275","dept":"04","reg":"pac"}},{"type":"Feature","geometry":{"type":"Point","coordinates":[6.79919,43.9617]},"properties":{"nom":"Camping du Brec","sub":"Camping","cm":"04320#Entrevaux","web":"http://www.camping-dubrec.com/","uri":"https://data.datatourisme.fr/13/75c8410f-dedd-3d07-9ce3-d1ba9cb8deda","dept":"04","reg":"pac"}},{"type":"Feature","geometry":{"type":"Point","coordinates":[6.35958,44.34255]},"properties":{"nom":"Camping Les Prairies***","sub":"Camping","cm":"04140#Seyne","web":"https://www.campinglesprairies.com/","uri":"https://data.datatourisme.fr/13/dccf3376-f8c1-3274-9410-ff57660f812c","dept":"04","reg":"pac"}},{"type":"Feature","geometry":{"type":"Point","coordinates":[5.86032,43.9317]},"properties":{"nom":"Domaine Ribiera - Hôtel, Spa et Golf resort","sub":"HotelRestaurant","cm":"04300#Niozelles","web":"https://www.ribiera.fr/","uri":"https://data.datatourisme.fr/13/32206eba-67a1-3958-92c1-ce5dc7d85200","dept":"04","reg":"pac"}},{"type":"Feature","geometry":{"type":"Point","coordinates":[6.55829,44.00666]},"properties":{"nom":"Camping L'Adrech","sub":"Camping","cm":"04170#La Mure-Argens","web":"https://www.adrech.com/","uri":"https://data.datatourisme.fr/13/e756088e-77eb-33d7-8af6-2b4993dc3fa8","dept":"04","reg":"pac"}},{"type":"Feature","geometry":{"type":"Point","coordinates":[6.08542,44.32349]},"properties":{"nom":"Flower camping Le Clôt du Jay","sub":"Camping","cm":"04250#Clamensane","web":"https://www.clotdujay.com/","uri":"https://data.datatourisme.fr/13/134a06e5-942f-3897-9b8e-e95d44eedd72","dept":"04","reg":"pac"}},{"type":"Feature","geometry":{"type":"Point","coordinates":[5.9133,44.22566]},"properties":{"nom":"Hôtel Ibis","sub":"HotelRestaurant","cm":"04200#Sisteron","web":"http://www.ibis-hotels.com/","uri":"https://data.datatourisme.fr/13/3999d8e4-da8f-32ed-9bda-54f25643df2a","dept":"04","reg":"pac"}},{"type":"Feature","geometry":{"type":"Point","coordinates":[5.82745,43.85234]},"properties":{"nom":"Hôtel Le Mas des Quintrands - Boutique Motel de charme","sub":"Hotel","cm":"04100#Manosque","web":"https://www.lemasdesquintrands.fr/","uri":"https://data.datatourisme.fr/13/2341e7a0-b6cc-3cba-bbfa-02a891c04ab1","dept":"04","reg":"pac"}},{"type":"Feature","geometry":{"type":"Point","coordinates":[6.02072,43.73513]},"properties":{"nom":"Le Lavandin","sub":"Camping","cm":"04800#Esparron-de-Verdon","web":"http://www.campinglavandin.com/","uri":"https://data.datatourisme.fr/13/6a2ab357-d960-342f-9b9d-fd365016d4da","dept":"04","reg":"pac"}},{"type":"Feature","geometry":{"type":"Point","coordinates":[6.02046,43.83897]},"properties":{"nom":"Camping naturiste du Petit Arlane","sub":"Camping","cm":"04210#Valensole","web":"http://www.domainepetitarlane.fr/","uri":"https://data.datatourisme.fr/13/86637f6d-9442-386a-8f3e-9d3d197c807b","dept":"04","reg":"pac"}},{"type":"Feature","geometry":{"type":"Point","coordinates":[6.14708,44.15866]},"properties":{"nom":"Camping du Moulin de Thoard","sub":"Camping","cm":"04380#Thoard","web":"http://www.lemoulindethoard.com/","uri":"https://data.datatourisme.fr/13/22102353-e613-36a0-80e4-cd9652600236","dept":"04","reg":"pac"}},{"type":"Feature","geometry":{"type":"Point","coordinates":[6.30478,44.44363]},"properties":{"nom":"Village de chalets et camping La Pierre de l'Aigle","sub":"Camping","cm":"04340#Ubaye-Serre-Ponçon","web":"https://www.campinglapierredelaigle.fr/","uri":"https://data.datatourisme.fr/13/1b94cb95-8b11-387a-8648-8595d42446b7","dept":"04","reg":"pac"}},{"type":"Feature","geometry":{"type":"Point","coordinates":[6.21828,43.84271]},"properties":{"nom":"Le Clos des Iris","sub":"Hotel","cm":"04360#Moustiers-Sainte-Marie","web":"http://www.closdesiris.fr/","uri":"https://data.datatourisme.fr/13/55bcf2ef-a1e9-3439-b8e3-d0b25b5f3c2d","dept":"04","reg":"pac"}},{"type":"Feature","geometry":{"type":"Point","coordinates":[6.21545,43.84497]},"properties":{"nom":"Manaysse","sub":"Camping","cm":"04360#Moustiers-Sainte-Marie","web":"https://www.camping-manaysse.fr/","uri":"https://data.datatourisme.fr/13/e198c0ff-fbda-32bb-bdbe-f6e591c02250","dept":"04","reg":"pac"}},{"type":"Feature","geometry":{"type":"Point","coordinates":[5.99519,44.11434]},"properties":{"nom":"Hôtel Logis La Magnanerie Côté Bistro","sub":"HotelRestaurant","cm":"04200#Aubignosc","web":"http://www.la-magnanerie.net/","uri":"https://data.datatourisme.fr/13/d507c36d-15d2-3b9b-b3e5-a175419f1627","dept":"04","reg":"pac"}},{"type":"Feature","geometry":{"type":"Point","coordinates":[6.42782,43.8303]},"properties":{"nom":"Chasteuil Verdon Provence","sub":"Camping","cm":"04120#Castellane","web":"https://www.chasteuil-provence.com/","uri":"https://data.datatourisme.fr/13/986d1f74-6a7e-3269-877f-2888f014cd91","dept":"04","reg":"pac"}},{"type":"Feature","geometry":{"type":"Point","coordinates":[5.80653,43.89792]},"properties":{"nom":"Camping la Rivière","sub":"Camping","cm":"04300#Saint-Maime","web":"http://www.camping-lariviere.com/","uri":"https://data.datatourisme.fr/13/06f471d6-fbc9-3f02-95ce-284e50a5c264","dept":"04","reg":"pac"}},{"type":"Feature","geometry":{"type":"Point","coordinates":[6.0104,44.0937]},"properties":{"nom":"Hôtel La Bonne Etape","sub":"HotelRestaurant","cm":"04160#Château-Arnoux-Saint-Auban","web":"https://www.bonneetape.com/","uri":"https://data.datatourisme.fr/13/d69f1393-8a56-3b93-a357-05e17d34064b","dept":"04","reg":"pac"}},{"type":"Feature","geometry":{"type":"Point","coordinates":[6.34419,44.34533]},"properties":{"nom":"Camping Caravaneige de La Blanche**","sub":"Camping","cm":"04140#Seyne","web":"https://sites.google.com/view/camping-de-la-blanche/accueil","uri":"https://data.datatourisme.fr/13/ec4bd4b2-be32-3cda-a377-d19ba4363594","dept":"04","reg":"pac"}},{"type":"Feature","geometry":{"type":"Point","coordinates":[6.36461,44.34499]},"properties":{"nom":"Hôtel-Restaurant Le Vieux Tilleul**","sub":"HotelRestaurant","cm":"04140#Seyne","web":"https://www.vieux-tilleul.fr/","uri":"https://data.datatourisme.fr/13/f451ecc9-7990-3c85-8ea8-6f97aeb6ce46","dept":"04","reg":"pac"}},{"type":"Feature","geometry":{"type":"Point","coordinates":[6.62737,44.24364]},"properties":{"nom":"Hôtel Plein Soleil","sub":"HotelRestaurant","cm":"04260#Allos","web":"http://www.hotelpleinsoleil.com/","uri":"https://data.datatourisme.fr/13/3b7ccefc-b825-3360-9d2a-d62efbb67d9c","dept":"04","reg":"pac"}},{"type":"Feature","geometry":{"type":"Point","coordinates":[6.18712,44.07667]},"properties":{"nom":"Hôtel Kyriad","sub":"HotelRestaurant","cm":"04000#Digne-les-Bains","web":"https://digne-les-bains.kyriad.com/fr-fr/?sr=OTHER","uri":"https://data.datatourisme.fr/13/050803e6-be83-3ec9-8bf2-9685b3cf8bee","dept":"04","reg":"pac"}},{"type":"Feature","geometry":{"type":"Point","coordinates":[6.34016,44.40518]},"properties":{"nom":"Hôtel Le Domaine de l'Adoux***","sub":"HotelRestaurant","cm":"04140#Montclar","web":"http://www.domainedeladoux.fr/","uri":"https://data.datatourisme.fr/13/1d8e7e04-c049-3dd5-af73-147a545f7a97","dept":"04","reg":"pac"}},{"type":"Feature","geometry":{"type":"Point","coordinates":[6.33298,43.77505]},"properties":{"nom":"Hôtel Le Panoramic","sub":"Hotel","cm":"04120#La Palud-sur-Verdon","web":"https://www.hotelverdon.com/","uri":"https://data.datatourisme.fr/13/f588a8b7-6d44-3d93-b59d-c3e6890e6902","dept":"04","reg":"pac"}},{"type":"Feature","geometry":{"type":"Point","coordinates":[6.01,44.10076]},"properties":{"nom":"Hôtel du Lac","sub":"Hotel","cm":"04160#Château-Arnoux-Saint-Auban","web":"http://www.hotellerie-du-lac-04.com/","uri":"https://data.datatourisme.fr/13/226842df-d5c6-3991-b54d-29380c3a9af3","dept":"04","reg":"pac"}},{"type":"Feature","geometry":{"type":"Point","coordinates":[6.15364,43.76096]},"properties":{"nom":"Camping Municipal Les Roches","sub":"Camping","cm":"04500#Sainte-Croix-du-Verdon","web":"https://www.lesrochesverdon.com/","uri":"https://data.datatourisme.fr/13/797d8fd5-24fb-3d33-811c-e1e14b4b9bb6","dept":"04","reg":"pac"}},{"type":"Feature","geometry":{"type":"Point","coordinates":[5.92647,44.01566]},"properties":{"nom":"L'Auberge Les Galets","sub":"HotelRestaurant","cm":"04310#Peyruis","web":"http://www.aubergelesgalets.fr/","uri":"https://data.datatourisme.fr/13/813744b2-f205-307b-83a0-cda09ac43d1b","dept":"04","reg":"pac"}},{"type":"Feature","geometry":{"type":"Point","coordinates":[5.78168,43.91082]},"properties":{"nom":"Camping Au Tylo Soleil","sub":"Camping","cm":"04300#Dauphin","web":"https://www.autylosoleil.fr/","uri":"https://data.datatourisme.fr/13/5b195403-d7d0-3641-84d2-c2ddad59f0a4","dept":"04","reg":"pac"}},{"type":"Feature","geometry":{"type":"Point","coordinates":[5.81454,43.80764]},"properties":{"nom":"Brit Hôtel Manosque Cadarache","sub":"HotelRestaurant","cm":"04100#Manosque","web":"https://manosque.brithotel.fr/","uri":"https://data.datatourisme.fr/13/ddb7ddc6-aa89-368b-a214-2d57c2a36550","dept":"04","reg":"pac"}},{"type":"Feature","geometry":{"type":"Point","coordinates":[5.81389,43.80866]},"properties":{"nom":"Hôtel Ibis Manosque Cadarache","sub":"Hotel","cm":"04100#Manosque","web":"https://all.accor.com/hotel/5611/index.fr.shtml?dateIn=2023-10-20&nights=1&compositions=1&stayplus=false&snu=false#origin=ibis","uri":"https://data.datatourisme.fr/13/ce3e0f32-4e3c-3db2-a84b-62b38afa653a","dept":"04","reg":"pac"}},{"type":"Feature","geometry":{"type":"Point","coordinates":[5.8135,43.80883]},"properties":{"nom":"Hôtel Ibis Budget Manosque Cadarache","sub":"Hotel","cm":"04100#Manosque","web":"https://all.accor.com/hotel/7225/index.fr.shtml?dateIn=2023-10-20&nights=1&compositions=1&stayplus=false&snu=false#origin=ibis","uri":"https://data.datatourisme.fr/13/e383ea16-e8b9-30c0-8a60-f37d415cda4d","dept":"04","reg":"pac"}},{"type":"Feature","geometry":{"type":"Point","coordinates":[6.66794,43.96606]},"properties":{"nom":"Hôtel Restaurant Les Callunes","sub":"HotelRestaurant","cm":"04240#Annot","web":"https://les-callunes-annot.fr/","uri":"https://data.datatourisme.fr/13/b78dea87-da58-354a-9232-3a5b2814e391","dept":"04","reg":"pac"}},{"type":"Feature","geometry":{"type":"Point","coordinates":[5.92322,43.92272]},"properties":{"nom":"Camping les Oliviers","sub":"Camping","cm":"04700#Oraison","web":"http://www.camping-oraison.com/","uri":"https://data.datatourisme.fr/13/7e725cf3-8b63-375a-9386-240dbfbce219","dept":"04","reg":"pac"}},{"type":"Feature","geometry":{"type":"Point","coordinates":[5.89457,43.758]},"properties":{"nom":"Hôtel Villa Borghèse","sub":"HotelRestaurant","cm":"04800#Gréoux-les-Bains","web":"http://www.hotel-villaborghese.com/","uri":"https://data.datatourisme.fr/13/28afba4a-f0d7-395b-b169-657c7bb33dca","dept":"04","reg":"pac"}},{"type":"Feature","geometry":{"type":"Point","coordinates":[5.89152,43.75833]},"properties":{"nom":"Résidence Airelle","sub":"HolidayResort","cm":"04800#Gréoux-les-Bains","web":"http://airelle74.fr/","uri":"https://data.datatourisme.fr/13/c5858c82-8b64-32ef-ac8b-cbcc266b7b52","dept":"04","reg":"pac"}},{"type":"Feature","geometry":{"type":"Point","coordinates":[5.86746,43.93345]},"properties":{"nom":"Camping Douce Provence","sub":"Camping","cm":"04300#Niozelles","web":"https://www.campingdouceprovence.com/fr/","uri":"https://data.datatourisme.fr/13/71389ebb-090b-3ff0-ac17-386c0ab52a21","dept":"04","reg":"pac"}},{"type":"Feature","geometry":{"type":"Point","coordinates":[6.51293,43.84591]},"properties":{"nom":"Hôtel Ma Petite Auberge","sub":"HotelRestaurant","cm":"04120#Castellane","web":"http://www.mapetiteauberge.com/","uri":"https://data.datatourisme.fr/13/a7991011-a557-3f18-9caa-837491cc6794","dept":"04","reg":"pac"}},{"type":"Feature","geometry":{"type":"Point","coordinates":[5.88254,43.75078]},"properties":{"nom":"Le Verseau","sub":"Camping","cm":"04800#Gréoux-les-Bains","web":"http://camping-le-verseau.com/","uri":"https://data.datatourisme.fr/13/c631f214-9107-3a8f-985b-91a6a30b958c","dept":"04","reg":"pac"}},{"type":"Feature","geometry":{"type":"Point","coordinates":[5.94919,43.75449]},"properties":{"nom":"Camping Naturiste Verdon Provence","sub":"Camping","cm":"04800#Esparron-de-Verdon","web":"https://camping-verdon-provence.fr/","uri":"https://data.datatourisme.fr/13/81cafecb-215a-3a0b-842d-40d89defca39","dept":"04","reg":"pac"}},{"type":"Feature","geometry":{"type":"Point","coordinates":[5.88197,43.75869]},"properties":{"nom":"Les Alpes","sub":"HotelRestaurant","cm":"04800#Gréoux-les-Bains","web":"http://www.hotel-spa-lesalpes.fr/","uri":"https://data.datatourisme.fr/13/b5ffc4dc-0363-3460-9f39-be5e269fb45b","dept":"04","reg":"pac"}},{"type":"Feature","geometry":{"type":"Point","coordinates":[6.21754,43.83912]},"properties":{"nom":"Hôtel La Bastide de Moustiers","sub":"HotelRestaurant","cm":"04360#Moustiers-Sainte-Marie","web":"http://www.bastide-moustiers.com/","uri":"https://data.datatourisme.fr/13/39e5e696-5734-3981-8bfd-d1c4b4939b6e","dept":"04","reg":"pac"}},{"type":"Feature","geometry":{"type":"Point","coordinates":[6.49338,43.83606]},"properties":{"nom":"Camping Domaine du Verdon - Sandaya","sub":"Camping","cm":"04120#Castellane","web":"https://www.sandaya.fr/<>https://www.sandaya.fr/nos-campings/domaine-du-verdon","uri":"https://data.datatourisme.fr/13/35e11058-67bf-34be-a31f-6344a1251d87","dept":"04","reg":"pac"}},{"type":"Feature","geometry":{"type":"Point","coordinates":[5.6085,44.17209]},"properties":{"nom":"L’Etape","sub":"HotelRestaurant","cm":"04200#Les Omergues","web":null,"uri":"https://data.datatourisme.fr/13/8307554e-3b03-3b0d-9472-c638c575bb68","dept":"04","reg":"pac"}},{"type":"Feature","geometry":{"type":"Point","coordinates":[6.21977,43.84094]},"properties":{"nom":"Le Colombier","sub":"Hotel","cm":"04360#Moustiers-Sainte-Marie","web":"https://www.hotelcolombier.com/","uri":"https://data.datatourisme.fr/13/ce851939-ce52-365b-b1a2-89589c47f202","dept":"04","reg":"pac"}},{"type":"Feature","geometry":{"type":"Point","coordinates":[6.49034,43.83784]},"properties":{"nom":"Camping Calme et Nature","sub":"Camping","cm":"04120#Castellane","web":"http://campingcastellane.com/","uri":"https://data.datatourisme.fr/13/80b69e81-6b3c-384f-8f57-262d1932f05b","dept":"04","reg":"pac"}},{"type":"Feature","geometry":{"type":"Point","coordinates":[5.9132,44.22621]},"properties":{"nom":"Hôtel Ibis Budget","sub":"Hotel","cm":"04200#Sisteron","web":"http://www.ibis.com/","uri":"https://data.datatourisme.fr/13/75c0d400-6d83-3b01-b44b-54254ee637cc","dept":"04","reg":"pac"}},{"type":"Feature","geometry":{"type":"Point","coordinates":[6.54193,43.83834]},"properties":{"nom":"Camping La Ferme de Castellane","sub":"Camping","cm":"04120#Castellane","web":"http://www.camping-la-ferme.com/","uri":"https://data.datatourisme.fr/13/71d4af9b-a660-326e-9693-4fddcfb3e97c","dept":"04","reg":"pac"}},{"type":"Feature","geometry":{"type":"Point","coordinates":[6.6059,44.16036]},"properties":{"nom":"Camping Le Haut Verdon","sub":"Camping","cm":"04370#Villars-Colmars","web":"https://www.lehautverdon.com/","uri":"https://data.datatourisme.fr/13/98ee7afa-d1e4-3413-88ec-53a1bd5bb2cb","dept":"04","reg":"pac"}},{"type":"Feature","geometry":{"type":"Point","coordinates":[6.23321,44.09071]},"properties":{"nom":"Hôtel de Provence - Adonis","sub":"Hotel","cm":"04000#Digne-les-Bains","web":"https://www.hotel-digne.com/","uri":"https://data.datatourisme.fr/13/6e406fdd-afe4-3271-804f-14a5d0c242cf","dept":"04","reg":"pac"}},{"type":"Feature","geometry":{"type":"Point","coordinates":[6.33743,44.39707]},"properties":{"nom":"Gîte T6 La Maison d'Elise le Village","sub":"LodgingBusiness","cm":"04140#Montclar","web":"http://www.lamaisondelise.fr/","uri":"https://data.datatourisme.fr/13/b8120bdb-cda5-30bb-901d-ea2dfdf81af2","dept":"04","reg":"pac"}},{"type":"Feature","geometry":{"type":"Point","coordinates":[5.75679,43.92932]},"properties":{"nom":"Le  Mas du Pont Roman - Hôtel","sub":"Hotel","cm":"04300#Mane","web":"http://www.maspontroman.com/","uri":"https://data.datatourisme.fr/13/c48761da-92a7-3310-b023-ee60aec2809d","dept":"04","reg":"pac"}},{"type":"Feature","geometry":{"type":"Point","coordinates":[6.65139,44.38673]},"properties":{"nom":"Hôtel de la Placette","sub":"Hotel","cm":"04400#Barcelonnette","web":"https://www.hotel-barcelonnette.fr/","uri":"https://data.datatourisme.fr/13/b591d8be-576d-3b20-a364-2430e0cea908","dept":"04","reg":"pac"}},{"type":"Feature","geometry":{"type":"Point","coordinates":[6.53176,44.39953]},"properties":{"nom":"Le Rioclar","sub":"Camping","cm":"04340#Méolans-Revel","web":"https://rioclar.fr/","uri":"https://data.datatourisme.fr/13/e39bf447-76c4-3e83-8073-49a17a119085","dept":"04","reg":"pac"}},{"type":"Feature","geometry":{"type":"Point","coordinates":[6.22607,43.81964]},"properties":{"nom":"Domaine du Petit Lac","sub":"Camping","cm":"04360#Moustiers-Sainte-Marie","web":"http://www.lepetitlac.com/","uri":"https://data.datatourisme.fr/13/4c1ff736-5e9f-3987-bae3-44a8d4d73ddd","dept":"04","reg":"pac"}},{"type":"Feature","geometry":{"type":"Point","coordinates":[6.19126,43.85766]},"properties":{"nom":"Ferme du Petit Ségriès (hébergement de groupe)","sub":"CollectiveAccommodation","cm":"04360#Moustiers-Sainte-Marie","web":"http://www.chambre-hote-verdon.com/","uri":"https://data.datatourisme.fr/13/d05ff7f5-c8dc-3254-875b-7f2a9514645d","dept":"04","reg":"pac"}},{"type":"Feature","geometry":{"type":"Point","coordinates":[6.19126,43.85766]},"properties":{"nom":"Ferme du Petit Ségriès","sub":"LodgingBusiness","cm":"04360#Moustiers-Sainte-Marie","web":"http://www.chambre-hote-verdon.com/","uri":"https://data.datatourisme.fr/13/ce08adeb-c355-312f-bc88-5effe20fdb5b","dept":"04","reg":"pac"}},{"type":"Feature","geometry":{"type":"Point","coordinates":[6.49813,43.85946]},"properties":{"nom":"Camping Terra Verdon - Ciela Village","sub":"Camping","cm":"04120#Castellane","web":"https://camping-terra-verdon.com/","uri":"https://data.datatourisme.fr/13/532680d0-51eb-37bb-9116-594374a4cd18","dept":"04","reg":"pac"}},{"type":"Feature","geometry":{"type":"Point","coordinates":[6.37649,43.95382]},"properties":{"nom":"Camping L'Or Bleu","sub":"Camping","cm":"04330#Barrême","web":"https://www.campinglorbleu.com/","uri":"https://data.datatourisme.fr/13/d5f0dbbf-b800-3fb6-9851-e312d8111a79","dept":"04","reg":"pac"}},{"type":"Feature","geometry":{"type":"Point","coordinates":[6.30885,44.01708]},"properties":{"nom":"Gîte du Domaine de la Clappe","sub":"CollectiveAccommodation","cm":"04330#Chaudon-Norante","web":"https://www.domaine-la-clappe.com/","uri":"https://data.datatourisme.fr/13/3a386eb8-b296-33f7-9c97-14fc7231282f","dept":"04","reg":"pac"}},{"type":"Feature","geometry":{"type":"Point","coordinates":[5.944,44.19591]},"properties":{"nom":"Les Mirabelles","sub":"BedAndBreakfast","cm":"04200#Sisteron","web":null,"uri":"https://data.datatourisme.fr/13/0a3f3a09-4504-39e2-a305-0536bb4d6e07","dept":"04","reg":"pac"}},{"type":"Feature","geometry":{"type":"Point","coordinates":[6.22176,43.84341]},"properties":{"nom":"Hôtel La Bonne Auberge","sub":"HotelRestaurant","cm":"04360#Moustiers-Sainte-Marie","web":"http://www.bonne-auberge-moustiers.com/","uri":"https://data.datatourisme.fr/13/898a42d8-8e60-3104-aaf2-2e3b079e9bd8","dept":"04","reg":"pac"}},{"type":"Feature","geometry":{"type":"Point","coordinates":[5.93615,44.21556]},"properties":{"nom":"Camping Sites & Paysages Les Prés Hauts","sub":"Camping","cm":"04200#Sisteron","web":"http://www.camping-sisteron.com/","uri":"https://data.datatourisme.fr/13/6fb17788-e2a5-3d1a-83d0-c9a860e51420","dept":"04","reg":"pac"}},{"type":"Feature","geometry":{"type":"Point","coordinates":[5.89357,43.75211]},"properties":{"nom":"Verdon Parc","sub":"Camping","cm":"04800#Gréoux-les-Bains","web":"https://www.campingverdonparc.fr/","uri":"https://data.datatourisme.fr/13/86cfe0e8-7223-3727-a064-e1a6feed52f5","dept":"04","reg":"pac"}},{"type":"Feature","geometry":{"type":"Point","coordinates":[6.34895,44.40233]},"properties":{"nom":"Les Alisiers \"Neillère\" 2/4 pers.","sub":"LodgingBusiness","cm":"04140#Montclar","web":"http://www.les-alisiers.fr/","uri":"https://data.datatourisme.fr/13/5085df1f-5730-3736-98fe-ad5c9cfda46a","dept":"04","reg":"pac"}},{"type":"Feature","geometry":{"type":"Point","coordinates":[6.34882,44.40219]},"properties":{"nom":"Les Alisiers \"Bernardez\" 9 pers.","sub":"LodgingBusiness","cm":"04140#Montclar","web":"http://www.les-alisiers.fr/","uri":"https://data.datatourisme.fr/13/6b1e039e-f255-373f-89f0-6fa9007f594d","dept":"04","reg":"pac"}},{"type":"Feature","geometry":{"type":"Point","coordinates":[6.34895,44.40233]},"properties":{"nom":"Les Alisiers \"Rocheclose\" 6/8 pers.","sub":"LodgingBusiness","cm":"04140#Montclar","web":"http://www.les-alisiers.fr/","uri":"https://data.datatourisme.fr/13/8fbadbab-225b-3f69-8641-86605cfc2306","dept":"04","reg":"pac"}},{"type":"Feature","geometry":{"type":"Point","coordinates":[6.34895,44.40233]},"properties":{"nom":"Les Alisiers \"Aiguillette\" 4/6 pers.","sub":"LodgingBusiness","cm":"04140#Montclar","web":"http://www.les-alisiers.fr/","uri":"https://data.datatourisme.fr/13/aa1b7e3b-3da1-32d3-b963-44f748fda5e4","dept":"04","reg":"pac"}},{"type":"Feature","geometry":{"type":"Point","coordinates":[6.19126,43.85766]},"properties":{"nom":"Chambre d'hôtes de la Ferme du Petit Ségriès","sub":"BedAndBreakfast","cm":"04360#Moustiers-Sainte-Marie","web":"http://www.chambre-hote-verdon.com/","uri":"https://data.datatourisme.fr/13/cec9a3a0-b67b-32cb-a9aa-7e7c523472bf","dept":"04","reg":"pac"}},{"type":"Feature","geometry":{"type":"Point","coordinates":[5.56406,43.84534]},"properties":{"nom":"Aire naturelle Le Bois de Sibourg","sub":"CampingAndCaravanning","cm":"04280#Céreste","web":null,"uri":"https://data.datatourisme.fr/13/75d285be-b29c-3297-98ef-2771594152f5","dept":"04","reg":"pac"}},{"type":"Feature","geometry":{"type":"Point","coordinates":[6.24437,43.85563]},"properties":{"nom":"Le Montdenier","sub":"Camping","cm":"04360#Moustiers-Sainte-Marie","web":"http://www.camping-verdon-moustiers.com/","uri":"https://data.datatourisme.fr/13/8608c934-d883-31d2-b768-f3a1dc3fa91d","dept":"04","reg":"pac"}},{"type":"Feature","geometry":{"type":"Point","coordinates":[5.63618,43.87333]},"properties":{"nom":"Camping Naturiste Le Vallon des Oiseaux","sub":"Camping","cm":"04110#Reillanne","web":"https://levallon.com/fr/","uri":"https://data.datatourisme.fr/13/650692dc-e638-346a-a129-4d339a19a300","dept":"04","reg":"pac"}},{"type":"Feature","geometry":{"type":"Point","coordinates":[6.63498,44.38322]},"properties":{"nom":"Camping Le Tampico","sub":"Camping","cm":"04400#Barcelonnette","web":"https://www.letampico.fr/","uri":"https://data.datatourisme.fr/13/7c74878e-fb59-3e6b-915f-1cd5a1906da3","dept":"04","reg":"pac"}},{"type":"Feature","geometry":{"type":"Point","coordinates":[6.03722,43.69908]},"properties":{"nom":"Le Relais Notre Dame","sub":"HotelRestaurant","cm":"04500#Quinson","web":"https://relaisnotredame.com/","uri":"https://data.datatourisme.fr/13/778568d1-457e-39c5-80c4-e65f0e62496c","dept":"04","reg":"pac"}},{"type":"Feature","geometry":{"type":"Point","coordinates":[6.03713,43.69975]},"properties":{"nom":"Auditorium \"Jean Gagnepain\" Musée de Préhistoire des Gorges du Verdon","sub":"Rental","cm":"04500#Quinson","web":"http://www.museeprehistoire.com/accueil.html","uri":"https://data.datatourisme.fr/13/b534fa87-7086-3d6b-9a8d-a62f0ecd44cb","dept":"04","reg":"pac"}},{"type":"Feature","geometry":{"type":"Point","coordinates":[6.68099,44.37272]},"properties":{"nom":"Le Soleil des Neiges","sub":"HotelRestaurant","cm":"04400#Enchastrayes","web":"https://www.soleildesneiges.fr/fr/","uri":"https://data.datatourisme.fr/13/0a93a7d5-1b88-3b8c-b32b-11a155f97575","dept":"04","reg":"pac"}},{"type":"Feature","geometry":{"type":"Point","coordinates":[6.65337,44.38848]},"properties":{"nom":"Hôtel Spa Azteca","sub":"Hotel","cm":"04400#Barcelonnette","web":"https://www.azteca-hotel.fr/fr/","uri":"https://data.datatourisme.fr/13/17fd1620-1f91-3446-ab57-a740124f7315","dept":"04","reg":"pac"}},{"type":"Feature","geometry":{"type":"Point","coordinates":[5.78558,43.83277]},"properties":{"nom":"Bachelas Bike Shop","sub":"Rental","cm":"04100#Manosque","web":"https://www.bachelasbikeshop.com/","uri":"https://data.datatourisme.fr/13/b953146c-e1aa-3880-9097-79a1e0987148","dept":"04","reg":"pac"}},{"type":"Feature","geometry":{"type":"Point","coordinates":[6.34184,44.26539]},"properties":{"nom":"Gîte de Flagustelle","sub":"CollectiveAccommodation","cm":"04140#Verdaches","web":"http://gite-flagustelle.com/","uri":"https://data.datatourisme.fr/13/7fcad06d-d703-3bb7-896d-56f4d95d69a5","dept":"04","reg":"pac"}},{"type":"Feature","geometry":{"type":"Point","coordinates":[5.90148,44.06222]},"properties":{"nom":"Camping Lou Pèbre d'Ail","sub":"CampingAndCaravanning","cm":"04230#Mallefougasse-Augès","web":"http://www.campingloupebredail-04.fr/","uri":"https://data.datatourisme.fr/13/fff2a241-e3d9-3ac9-a637-2fb8ce091b73","dept":"04","reg":"pac"}},{"type":"Feature","geometry":{"type":"Point","coordinates":[6.51398,43.84661]},"properties":{"nom":"Hôtel du Roc","sub":"HotelRestaurant","cm":"04120#Castellane","web":"https://www.hotel-du-roc04.fr/","uri":"https://data.datatourisme.fr/13/c6e8f0c1-53ab-3f01-93dd-b0c2f5b6a583","dept":"04","reg":"pac"}},{"type":"Feature","geometry":{"type":"Point","coordinates":[6.4373,43.7954]},"properties":{"nom":"Camping municipal Verdon Carajuan","sub":"Camping","cm":"04120#Rougon","web":"http://camping-gorgesduverdon-carajuan-rougon.com/","uri":"https://data.datatourisme.fr/13/92a826a1-72b0-3342-b79f-774a1dd54514","dept":"04","reg":"pac"}},{"type":"Feature","geometry":{"type":"Point","coordinates":[6.26607,44.07962]},"properties":{"nom":"L'Hôtel des Thermes","sub":"HotelRestaurant","cm":"04000#Digne-les-Bains","web":"https://lerichelme.com/","uri":"https://data.datatourisme.fr/13/4de250db-f6ca-3796-9e1f-38f95cb1e301","dept":"04","reg":"pac"}},{"type":"Feature","geometry":{"type":"Point","coordinates":[5.99517,43.74342]},"properties":{"nom":"Camping Flower La Beaume","sub":"Camping","cm":"04800#Esparron-de-Verdon","web":"http://www.campinglabeaume-verdon.com/","uri":"https://data.datatourisme.fr/13/4272af99-c643-37b2-a0ee-09716e13061c","dept":"04","reg":"pac"}},{"type":"Feature","geometry":{"type":"Point","coordinates":[5.91259,44.23545]},"properties":{"nom":"Intersport Sisteron","sub":"Rental","cm":"04200#Sisteron","web":"http://www.intersport-sisteron.com/","uri":"https://data.datatourisme.fr/13/a4bb055f-d43e-3809-af28-3349aab7ddeb","dept":"04","reg":"pac"}},{"type":"Feature","geometry":{"type":"Point","coordinates":[6.65215,44.38765]},"properties":{"nom":"Hôtel du Cheval Blanc","sub":"HotelRestaurant","cm":"04400#Barcelonnette","web":"https://www.chevalblancbarcelonnette.com/","uri":"https://data.datatourisme.fr/13/cca3366d-1b7b-35a9-a779-e5a0de5575f8","dept":"04","reg":"pac"}},{"type":"Feature","geometry":{"type":"Point","coordinates":[6.39388,44.28276]},"properties":{"nom":"L'Inattendu Hôtel *** Gîte & Restaurant","sub":"HotelRestaurant","cm":"04140#Le Vernet","web":"http://linattendu04.fr/","uri":"https://data.datatourisme.fr/13/0c2adafa-f430-391b-adb5-3ca40a4d2893","dept":"04","reg":"pac"}},{"type":"Feature","geometry":{"type":"Point","coordinates":[6.20766,44.39402]},"properties":{"nom":"La Sittelle","sub":"LodgingBusiness","cm":"04250#Bellaffaire","web":null,"uri":"https://data.datatourisme.fr/13/7f4e360e-963c-33f2-9c1a-3a5d9c72e7ec","dept":"04","reg":"pac"}},{"type":"Feature","geometry":{"type":"Point","coordinates":[6.20916,44.07541]},"properties":{"nom":"Villa Gaïa Hôtel & Pension","sub":"HotelRestaurant","cm":"04000#Digne-les-Bains","web":"http://www.hotel-villagaia-digne.com/","uri":"https://data.datatourisme.fr/13/025db1be-b030-3653-8471-e6da4f088347","dept":"04","reg":"pac"}},{"type":"Feature","geometry":{"type":"Point","coordinates":[6.60997,44.35794]},"properties":{"nom":"Hôtel Les Blancs","sub":"HotelRestaurant","cm":"04400#Uvernet-Fours","web":"https://www.chalet-hotel-lesblancs.fr/","uri":"https://data.datatourisme.fr/13/4916e122-290c-3e1f-8cec-3aafa764eb51","dept":"04","reg":"pac"}},{"type":"Feature","geometry":{"type":"Point","coordinates":[6.29465,44.45888]},"properties":{"nom":"Village Club Rechastel","sub":"CollectiveAccommodation","cm":"04340#Ubaye-Serre-Ponçon","web":"https://www.rechastel.fr/","uri":"https://data.datatourisme.fr/13/3fabbdf3-9af9-397e-92dd-4b8da08749ba","dept":"04","reg":"pac"}},{"type":"Feature","geometry":{"type":"Point","coordinates":[5.9445,44.19739]},"properties":{"nom":"Le Patio de Sophie","sub":"Hotel","cm":"04200#Sisteron","web":"https://www.lepatiodesophie-sisteron.com/","uri":"https://data.datatourisme.fr/13/ebfe827b-c568-3175-8a6a-9d4978d82c50","dept":"04","reg":"pac"}},{"type":"Feature","geometry":{"type":"Point","coordinates":[6.73691,44.41986]},"properties":{"nom":"Camping Le Planet","sub":"Camping","cm":"04850#Jausiers","web":"https://www.camping-jausiers.fr/fr/","uri":"https://data.datatourisme.fr/13/20012e69-6c2e-3d5d-80ba-545bf892b105","dept":"04","reg":"pac"}},{"type":"Feature","geometry":{"type":"Point","coordinates":[5.98235,43.73823]},"properties":{"nom":"La Grangeonne","sub":"Camping","cm":"04800#Esparron-de-Verdon","web":"http://www.camping-esparron.com/","uri":"https://data.datatourisme.fr/13/86d30069-48ff-3353-bdbd-cf52285b348f","dept":"04","reg":"pac"}},{"type":"Feature","geometry":{"type":"Point","coordinates":[6.09821,43.74742]},"properties":{"nom":"Camping Les gorges de Provence","sub":"Camping","cm":"04500#Montagnac-Montpezat","web":"https://www.marvilla-parks.com/camping/les-gorges-de-provence","uri":"https://data.datatourisme.fr/13/5686cb45-3146-37a0-94bb-df2fd031d7b1","dept":"04","reg":"pac"}},{"type":"Feature","geometry":{"type":"Point","coordinates":[5.91284,44.03359]},"properties":{"nom":"Appartement T4 Gîte d'Augès Praconteau","sub":"LodgingBusiness","cm":"04310#Peyruis","web":null,"uri":"https://data.datatourisme.fr/13/f97c99bb-40d4-3fa2-b502-e4357575fdf7","dept":"04","reg":"pac"}},{"type":"Feature","geometry":{"type":"Point","coordinates":[6.65328,44.38805]},"properties":{"nom":"Le Grand Hôtel","sub":"Hotel","cm":"04400#Barcelonnette","web":"https://www.legrandhotelbarcelonnette.com/","uri":"https://data.datatourisme.fr/13/986fe952-8b2f-3689-8e15-2c7a2b7db11b","dept":"04","reg":"pac"}},{"type":"Feature","geometry":{"type":"Point","coordinates":[5.78946,43.83048]},"properties":{"nom":"Hôtel Best Western Le Sud","sub":"HotelRestaurant","cm":"04100#Manosque","web":"http://www.hotel-lesud.com/","uri":"https://data.datatourisme.fr/13/3f2180a8-39b5-38fb-bad5-d8bf93e0b323","dept":"04","reg":"pac"}},{"type":"Feature","geometry":{"type":"Point","coordinates":[5.71945,43.90559]},"properties":{"nom":"Chambres d'hôtes « Pacaleaula »","sub":"BedAndBreakfast","cm":"04870#Saint-Michel-l'Observatoire","web":"http://www.pacaleaula.fr/","uri":"https://data.datatourisme.fr/13/3df82fb2-6ad0-3f31-b104-b89d6c9d179d","dept":"04","reg":"pac"}},{"type":"Feature","geometry":{"type":"Point","coordinates":[5.85411,43.82369]},"properties":{"nom":"Camping Oxygène - Tikayan","sub":"Camping","cm":"04210#Valensole","web":"https://www.tikayan.com/fr/camping-oxygene-accueil","uri":"https://data.datatourisme.fr/13/df37e42c-de32-3a0a-9451-0f65cb665ea1","dept":"04","reg":"pac"}},{"type":"Feature","geometry":{"type":"Point","coordinates":[6.57438,44.39296]},"properties":{"nom":"Camping Le Fontarache","sub":"Camping","cm":"04400#Les Thuiles","web":"https://www.camping-fontarache.fr/","uri":"https://data.datatourisme.fr/13/7bb7be9c-7872-320b-a5a9-64be832c07b6","dept":"04","reg":"pac"}},{"type":"Feature","geometry":{"type":"Point","coordinates":[6.59378,44.14541]},"properties":{"nom":"Hôtel du Verdon","sub":"HotelRestaurant","cm":"04370#Beauvezer","web":"https://hotelduverdon.fr/","uri":"https://data.datatourisme.fr/13/53d2171d-a4e2-3551-b067-d2483e6a4536","dept":"04","reg":"pac"}},{"type":"Feature","geometry":{"type":"Point","coordinates":[6.72857,44.41384]},"properties":{"nom":"Bel Air","sub":"Hotel","cm":"04850#Jausiers","web":"https://www.hotel-a-barcelonnette.com/","uri":"https://data.datatourisme.fr/13/c1f0c819-da8a-380c-9448-d389dac73702","dept":"04","reg":"pac"}},{"type":"Feature","geometry":{"type":"Point","coordinates":[5.5909,43.85568]},"properties":{"nom":"La Maison d'Emma","sub":"BedAndBreakfast","cm":"04280#Céreste","web":"http://www.maison-emma.com/","uri":"https://data.datatourisme.fr/13/bd116114-25c7-32c5-9e33-755ccd4c7e61","dept":"04","reg":"pac"}},{"type":"Feature","geometry":{"type":"Point","coordinates":[6.27611,44.12712]},"properties":{"nom":"Gite T3 Halte Air et Go - Barre des Dourbes","sub":"LodgingBusiness","cm":"04420#Marcoux","web":"http://halteairetgo.com/","uri":"https://data.datatourisme.fr/13/23c5fe4d-2420-3de1-ba7f-01dab993f686","dept":"04","reg":"pac"}},{"type":"Feature","geometry":{"type":"Point","coordinates":[6.27634,44.12699]},"properties":{"nom":"Gite T3 Halte Air et Go - Cheval Blanc","sub":"LodgingBusiness","cm":"04420#Marcoux","web":"http://www.halteairetgo.com/","uri":"https://data.datatourisme.fr/13/31c16806-48b2-3b2e-b85a-18ba0ee250b2","dept":"04","reg":"pac"}},{"type":"Feature","geometry":{"type":"Point","coordinates":[6.50687,43.96611]},"properties":{"nom":"Hôtel Le Bel Air","sub":"Hotel","cm":"04170#Saint-André-les-Alpes","web":"https://hotel-belair.com/","uri":"https://data.datatourisme.fr/13/708dae2c-1e77-3c51-a64e-55bb192d1754","dept":"04","reg":"pac"}},{"type":"Feature","geometry":{"type":"Point","coordinates":[6.51234,43.84632]},"properties":{"nom":"Hôtel du Levant","sub":"HotelRestaurant","cm":"04120#Castellane","web":"https://www.hoteldulevant-castellane.com/","uri":"https://data.datatourisme.fr/13/606aaac9-c569-37be-acd2-c09f605b1d52","dept":"04","reg":"pac"}},{"type":"Feature","geometry":{"type":"Point","coordinates":[5.97054,43.7343]},"properties":{"nom":"Le Soleil","sub":"Camping","cm":"04800#Esparron-de-Verdon","web":"https://www.campasun.eu/lesoleil/le-camping/","uri":"https://data.datatourisme.fr/13/9a8abd43-7d58-3d65-83d1-38009d76c956","dept":"04","reg":"pac"}},{"type":"Feature","geometry":{"type":"Point","coordinates":[6.48971,44.39693]},"properties":{"nom":"Camping River","sub":"Camping","cm":"04340#Méolans-Revel","web":"https://camping-river.eu/fr/bienvenue/","uri":"https://data.datatourisme.fr/13/311033f1-e96a-3f48-a51e-f1e66798ea89","dept":"04","reg":"pac"}},{"type":"Feature","geometry":{"type":"Point","coordinates":[6.67588,44.38142]},"properties":{"nom":"Camping La Chaup","sub":"Camping","cm":"04400#Enchastrayes","web":"https://www.campinglachaup.fr/","uri":"https://data.datatourisme.fr/13/8d269b4c-6087-3edd-bb59-f025304b4347","dept":"04","reg":"pac"}},{"type":"Feature","geometry":{"type":"Point","coordinates":[5.59072,43.85589]},"properties":{"nom":"Gîte d'étape communal","sub":"CollectiveAccommodation","cm":"04280#Céreste","web":"https://www.cereste.fr/tourisme/hebergements/gite-communal","uri":"https://data.datatourisme.fr/13/905fb01b-3e06-301b-86a7-7c6e4a8299d4","dept":"04","reg":"pac"}},{"type":"Feature","geometry":{"type":"Point","coordinates":[5.99381,43.83752]},"properties":{"nom":"Camping Les Lavandes","sub":"Camping","cm":"04210#Valensole","web":"https://www.camping-les-lavandes-valensole.com/","uri":"https://data.datatourisme.fr/13/3ac1070d-7cc4-3374-b5a4-96939c3cd48a","dept":"04","reg":"pac"}},{"type":"Feature","geometry":{"type":"Point","coordinates":[5.55234,44.0592]},"properties":{"nom":"Gîte du Domaine de Pierre Rousse","sub":"LodgingBusiness","cm":"04150#Revest-du-Bion","web":"https://www.gites-de-france.com/fr/provence-alpes-cote-dazur/alpes-de-haute-provence/pierre-rousse-04g14458","uri":"https://data.datatourisme.fr/13/70740537-5c2a-31c7-b4d4-2646476def74","dept":"04","reg":"pac"}},{"type":"Feature","geometry":{"type":"Point","coordinates":[6.39352,44.32184]},"properties":{"nom":"Studio Le Chalet Le Grand Puy","sub":"LodgingBusiness","cm":"04140#Seyne","web":"http://lechalet04.fr/","uri":"https://data.datatourisme.fr/13/72e76adb-ca89-3cdd-af71-c2ae984ac551","dept":"04","reg":"pac"}},{"type":"Feature","geometry":{"type":"Point","coordinates":[6.01013,44.10041]},"properties":{"nom":"enDurance cycles","sub":"Rental","cm":"04160#Château-Arnoux-Saint-Auban","web":"https://www.endurancecycles.fr/","uri":"https://data.datatourisme.fr/13/2b2fefea-744c-37f5-b0e9-0318269468d6","dept":"04","reg":"pac"}},{"type":"Feature","geometry":{"type":"Point","coordinates":[6.2533,44.08303]},"properties":{"nom":"Le Refuge des Sources","sub":"HotelRestaurant","cm":"04000#Digne-les-Bains","web":"https://www.lerefugedessources.com/","uri":"https://data.datatourisme.fr/13/bbff7b55-8ab4-3150-83c2-22c3823f453c","dept":"04","reg":"pac"}},{"type":"Feature","geometry":{"type":"Point","coordinates":[6.73859,44.41771]},"properties":{"nom":"Appartement T2 dans villa mexicaine","sub":"LodgingBusiness","cm":"04850#Jausiers","web":"https://www.lamexicaine.com/","uri":"https://data.datatourisme.fr/13/1df3bcd8-0677-3587-ac28-e1600fe0b849","dept":"04","reg":"pac"}},{"type":"Feature","geometry":{"type":"Point","coordinates":[6.73859,44.41771]},"properties":{"nom":"La Mexicaine","sub":"BedAndBreakfast","cm":"04850#Jausiers","web":"https://www.lamexicaine.com/","uri":"https://data.datatourisme.fr/13/9f2422ae-3cb3-3585-9b2a-553d3cced65f","dept":"04","reg":"pac"}},{"type":"Feature","geometry":{"type":"Point","coordinates":[5.76377,43.79833]},"properties":{"nom":"Domaine de la Mautanne","sub":"HotelRestaurant","cm":"04220#Sainte-Tulle","web":"http://lamautanne.com/","uri":"https://data.datatourisme.fr/13/8a73ecfa-32ca-3514-9493-1638442621a0","dept":"04","reg":"pac"}},{"type":"Feature","geometry":{"type":"Point","coordinates":[6.2929,44.30081]},"properties":{"nom":"Gîte de groupe du Cubertin","sub":"CollectiveAccommodation","cm":"04140#Auzet","web":"https://www.gitedemontagne.fr/gitesauzet","uri":"https://data.datatourisme.fr/13/1587b91e-4c6e-32a6-a70b-7b1b40d1efb4","dept":"04","reg":"pac"}},{"type":"Feature","geometry":{"type":"Point","coordinates":[5.89011,43.75807]},"properties":{"nom":"Villa Castellane","sub":"HotelRestaurant","cm":"04800#Gréoux-les-Bains","web":"http://www.villa-castellane.fr/","uri":"https://data.datatourisme.fr/13/ff3ae293-8064-311f-8da7-faa15cc79f75","dept":"04","reg":"pac"}},{"type":"Feature","geometry":{"type":"Point","coordinates":[6.2299,44.10361]},"properties":{"nom":"Chambres d'hôtes : Le Pin des Arches","sub":"BedAndBreakfast","cm":"04000#Digne-les-Bains","web":null,"uri":"https://data.datatourisme.fr/13/72b6d298-ac92-38f8-8af3-a2e8e23b62a3","dept":"04","reg":"pac"}},{"type":"Feature","geometry":{"type":"Point","coordinates":[6.36646,44.45739]},"properties":{"nom":"Camping Huttopia Lac de Serre-Ponçon","sub":"Camping","cm":"04340#Ubaye-Serre-Ponçon","web":"https://europe.huttopia.com/site/lac-de-serre-poncon/","uri":"https://data.datatourisme.fr/13/67408067-c1ca-3b91-8c41-ca4ed5ab4e83","dept":"04","reg":"pac"}},{"type":"Feature","geometry":{"type":"Point","coordinates":[6.30881,44.01705]},"properties":{"nom":"Domaine de La Clappe","sub":"Rental","cm":"04330#Chaudon-Norante","web":"https://www.domaine-la-clappe.com/","uri":"https://data.datatourisme.fr/13/d76958c8-252d-393c-8dd5-926ce9bfcd77","dept":"04","reg":"pac"}},{"type":"Feature","geometry":{"type":"Point","coordinates":[6.61472,44.36027]},"properties":{"nom":"Hôtel Le Prieuré","sub":"HotelRestaurant","cm":"04400#Uvernet-Fours","web":"https://www.hotel-leprieure-praloup.fr/","uri":"https://data.datatourisme.fr/13/18b2382c-89e2-3fa3-bf20-d2e004e080be","dept":"04","reg":"pac"}},{"type":"Feature","geometry":{"type":"Point","coordinates":[6.05246,44.3066]},"properties":{"nom":"Camping à la ferme La Molena","sub":"Camping","cm":"04250#Clamensane","web":null,"uri":"https://data.datatourisme.fr/13/1638e424-abd3-3ae0-945b-f9857bf83844","dept":"04","reg":"pac"}},{"type":"Feature","geometry":{"type":"Point","coordinates":[6.05615,44.30668]},"properties":{"nom":"Ferme la Molena - Gîte la coccinelle","sub":"LodgingBusiness","cm":"04250#Clamensane","web":"https://lamolena.webnode.fr/","uri":"https://data.datatourisme.fr/13/aadfedea-b2ad-3979-aa03-740884709b82","dept":"04","reg":"pac"}},{"type":"Feature","geometry":{"type":"Point","coordinates":[6.05453,43.71555]},"properties":{"nom":"Camping Verdon Les Grands Domaines","sub":"Camping","cm":"04500#Saint-Laurent-du-Verdon","web":"https://verdon-les-grands-domaines.com/","uri":"https://data.datatourisme.fr/13/9156030c-df4c-377d-8e99-62610befb888","dept":"04","reg":"pac"}},{"type":"Feature","geometry":{"type":"Point","coordinates":[6.00306,44.08574]},"properties":{"nom":"Chambre d'hôtes : Maison provençale","sub":"BedAndBreakfast","cm":"04160#Château-Arnoux-Saint-Auban","web":"https://www.airbnb.fr/rooms/1251976770097881997?guests=1&adults=1&s=67&unique_share_id=80454812-47b2-45bc-b509-0d0016361763","uri":"https://data.datatourisme.fr/13/e3a342d1-6240-3945-a56d-d1209c9fc431","dept":"04","reg":"pac"}},{"type":"Feature","geometry":{"type":"Point","coordinates":[5.95031,44.00645]},"properties":{"nom":"Tiny la Fenière","sub":"LodgingBusiness","cm":"04190#Les Mées","web":"http://www.feniere.com/","uri":"https://data.datatourisme.fr/13/f7105265-419e-35cd-ad88-09a3685ea4a1","dept":"04","reg":"pac"}},{"type":"Feature","geometry":{"type":"Point","coordinates":[6.66533,43.96218]},"properties":{"nom":"Village de chalets Le Pré Martin","sub":"HolidayResort","cm":"04240#Annot","web":"https://www.lepremartin.com/","uri":"https://data.datatourisme.fr/13/9fba20e0-9f2d-3e96-8d4c-fa3a7ecf14ca","dept":"04","reg":"pac"}},{"type":"Feature","geometry":{"type":"Point","coordinates":[6.23047,44.09966]},"properties":{"nom":"Palais des Congrès","sub":"Rental","cm":"04000#Digne-les-Bains","web":"http://www.dignelesbains.fr/","uri":"https://data.datatourisme.fr/13/44cd872e-b0ea-3d10-a0a4-5c253ffe4b7d","dept":"04","reg":"pac"}},{"type":"Feature","geometry":{"type":"Point","coordinates":[6.29475,44.34702]},"properties":{"nom":"Résidence Les Blanches Provençales***","sub":"HolidayResort","cm":"04140#Selonnet","web":null,"uri":"https://data.datatourisme.fr/13/907a30fa-d120-3b1e-a037-af4d2bd1e4dd","dept":"04","reg":"pac"}},{"type":"Feature","geometry":{"type":"Point","coordinates":[5.88634,43.76035]},"properties":{"nom":"Mas de l'Orangerie","sub":"HolidayResort","cm":"04800#Gréoux-les-Bains","web":"http://mas-de-lorangerie.com/","uri":"https://data.datatourisme.fr/13/adebcbe0-6127-3f1c-ac4b-ac89c0afaafa","dept":"04","reg":"pac"}},{"type":"Feature","geometry":{"type":"Point","coordinates":[5.89634,43.75946]},"properties":{"nom":"Le Mistral","sub":"HolidayResort","cm":"04800#Gréoux-les-Bains","web":"https://www.chainethermale.fr/greoux-les-bains/se-loger/residence-le-mistral","uri":"https://data.datatourisme.fr/13/0da701b0-bc04-3d44-a2b1-5d942e079fc2","dept":"04","reg":"pac"}},{"type":"Feature","geometry":{"type":"Point","coordinates":[5.89752,43.75926]},"properties":{"nom":"Les Amandiers","sub":"HolidayResort","cm":"04800#Gréoux-les-Bains","web":"https://www.chainethermale.fr/greoux-les-bains/se-loger/residence-les-amandiers","uri":"https://data.datatourisme.fr/13/f4f6cd14-7dee-3284-b609-ad60e5971ae1","dept":"04","reg":"pac"}},{"type":"Feature","geometry":{"type":"Point","coordinates":[6.0393,43.7]},"properties":{"nom":"Gîte d'Etape l'Escargot","sub":"CollectiveAccommodation","cm":"04500#Quinson","web":"https://www.giteescargot.com/","uri":"https://data.datatourisme.fr/13/65c0299f-f84a-38bf-aa41-80d268d2c1ec","dept":"04","reg":"pac"}},{"type":"Feature","geometry":{"type":"Point","coordinates":[6.56909,44.29777]},"properties":{"nom":"Résidence de tourisme les Cimes du Val d'Allos","sub":"HolidayResort","cm":"04260#Allos","web":"http://www.lescimesduvaldallos.com/","uri":"https://data.datatourisme.fr/13/4684c197-d0bf-3958-81de-1d1c62fe8b6c","dept":"04","reg":"pac"}},{"type":"Feature","geometry":{"type":"Point","coordinates":[5.8973,43.76854]},"properties":{"nom":"Domaine de Château Laval - Vacances Bleues","sub":"CollectiveAccommodation","cm":"04800#Gréoux-les-Bains","web":"https://www.vacancesbleues.fr/<>https://www.domaine-chateaulaval.fr/fr","uri":"https://data.datatourisme.fr/13/cd13494a-93ee-3085-bf69-4f422f77ce87","dept":"04","reg":"pac"}},{"type":"Feature","geometry":{"type":"Point","coordinates":[6.3418,44.26509]},"properties":{"nom":"Bès'Cyclette location de vélos","sub":"Rental","cm":"04140#Verdaches","web":"http://gite-flagustelle.com/","uri":"https://data.datatourisme.fr/13/6bfe60ae-5480-3152-8391-aa7770652cff","dept":"04","reg":"pac"}},{"type":"Feature","geometry":{"type":"Point","coordinates":[6.00312,44.08308]},"properties":{"nom":"Le Cinématographe","sub":"Rental","cm":"04160#Château-Arnoux-Saint-Auban","web":"http://www.le-cinematographe.fr/","uri":"https://data.datatourisme.fr/13/b2ba7f81-0a73-32dd-aa21-6111809f0a88","dept":"04","reg":"pac"}},{"type":"Feature","geometry":{"type":"Point","coordinates":[5.8903,43.756]},"properties":{"nom":"Appart'hotel le Moulin du Verdon","sub":"HolidayResort","cm":"04800#Gréoux-les-Bains","web":"http://www.greoux.fr/","uri":"https://data.datatourisme.fr/13/e28443c2-85e9-3541-b8ab-78601de4f80b","dept":"04","reg":"pac"}},{"type":"Feature","geometry":{"type":"Point","coordinates":[5.89183,43.76162]},"properties":{"nom":"La Villa Sévigné","sub":"HolidayResort","cm":"04800#Gréoux-les-Bains","web":"https://www.lavillasevigne.fr/","uri":"https://data.datatourisme.fr/13/7d8ceceb-5880-3b96-be25-ccacebfb95b8","dept":"04","reg":"pac"}},{"type":"Feature","geometry":{"type":"Point","coordinates":[5.89183,43.76162]},"properties":{"nom":"La Villa Sévigné","sub":"HolidayResort","cm":"04800#Gréoux-les-Bains","web":"https://www.lavillasevigne.fr/","uri":"https://data.datatourisme.fr/13/71839d81-485e-3ee1-b327-0fca6d27806b","dept":"04","reg":"pac"}},{"type":"Feature","geometry":{"type":"Point","coordinates":[6.01517,44.10335]},"properties":{"nom":"Base Durance Nautique","sub":"Rental","cm":"04290#Volonne","web":"http://www.durancenautique.com/","uri":"https://data.datatourisme.fr/13/8d4a5c58-9edf-3f13-a6ca-8d56470fb381","dept":"04","reg":"pac"}},{"type":"Feature","geometry":{"type":"Point","coordinates":[5.88573,43.75691]},"properties":{"nom":"Centre de Congrès L'Etoile","sub":"Rental","cm":"04800#Gréoux-les-Bains","web":"https://www.provenceverdon-affaires.fr/","uri":"https://data.datatourisme.fr/13/a1501f74-02e1-39f8-b88b-f6f24d6dcfb6","dept":"04","reg":"pac"}},{"type":"Feature","geometry":{"type":"Point","coordinates":[5.88759,43.76248]},"properties":{"nom":"Odalys La Licorne de Haute Provence","sub":"HolidayResort","cm":"04800#Gréoux-les-Bains","web":"https://www.odalys-vacances.com/","uri":"https://data.datatourisme.fr/13/b72fb9a8-8555-3a30-9f47-fa0e557ba385","dept":"04","reg":"pac"}},{"type":"Feature","geometry":{"type":"Point","coordinates":[5.89661,43.75721]},"properties":{"nom":"Terres de France - Résidence Côté Provence","sub":"HolidayResort","cm":"04800#Gréoux-les-Bains","web":"https://www.cote-provence-greoux.com/","uri":"https://data.datatourisme.fr/13/e9e9258a-2ac7-3600-93f6-9bd5ed58c90f","dept":"04","reg":"pac"}},{"type":"Feature","geometry":{"type":"Point","coordinates":[5.89421,43.7556]},"properties":{"nom":"Les Grands Pins","sub":"HolidayResort","cm":"04800#Gréoux-les-Bains","web":"https://www.chainethermale.fr/greoux-les-bains/se-loger/residence-les-grands-pins","uri":"https://data.datatourisme.fr/13/85e2bdab-6863-3307-889b-409a7e6920ee","dept":"04","reg":"pac"}},{"type":"Feature","geometry":{"type":"Point","coordinates":[6.04259,43.69677]},"properties":{"nom":"Loisirs Aventures Kayaks","sub":"Rental","cm":"04500#Quinson","web":"http://www.bateau-location-verdon.com/location-kayak-verdon","uri":"https://data.datatourisme.fr/13/a1233a96-c29b-38a2-b1e3-d4309788c60d","dept":"04","reg":"pac"}},{"type":"Feature","geometry":{"type":"Point","coordinates":[5.89625,43.7596]},"properties":{"nom":"L'Olivier","sub":"HolidayResort","cm":"04800#Gréoux-les-Bains","web":"https://www.chainethermale.fr/greoux-les-bains/se-loger/residence-l-olivier","uri":"https://data.datatourisme.fr/13/023f544d-e40f-33c2-8a41-57950d64b2bc","dept":"04","reg":"pac"}},{"type":"Feature","geometry":{"type":"Point","coordinates":[5.94981,44.08998]},"properties":{"nom":"Gîte de groupe le Jas de Péguier","sub":"CollectiveAccommodation","cm":"04200#Châteauneuf-Val-Saint-Donat","web":"http://reception-mariage-provence.fr/<>http://www.jasdepeguier.fr/","uri":"https://data.datatourisme.fr/13/3db3a78d-3b72-34aa-8eaf-e129fbc58c4b","dept":"04","reg":"pac"}},{"type":"Feature","geometry":{"type":"Point","coordinates":[6.68438,44.37121]},"properties":{"nom":"VTF Les Balcons du Sauze","sub":"CollectiveAccommodation","cm":"04400#Enchastrayes","web":"https://www.vtf-vacances.com/fr/village-vacances-familles/provence-alpes-cote-d-azur/alpes-de-haute-provence/enchastrayes-le-sauze/84","uri":"https://data.datatourisme.fr/13/b7b80558-4bec-3841-99c9-4496b5e75b3b","dept":"04","reg":"pac"}},{"type":"Feature","geometry":{"type":"Point","coordinates":[5.96963,43.73633]},"properties":{"nom":"Club Nautique Esparron-de-Verdon ( CNEV )","sub":"Rental","cm":"04800#Esparron-de-Verdon","web":"https://cnev-verdon.fr/","uri":"https://data.datatourisme.fr/13/baade2e1-6ed7-34f4-86c0-023101b971ed","dept":"04","reg":"pac"}},{"type":"Feature","geometry":{"type":"Point","coordinates":[6.2216,43.841]},"properties":{"nom":"ebikemoustiers","sub":"Rental","cm":"04360#Moustiers-Sainte-Marie","web":"http://ebikemoustiers.fr/","uri":"https://data.datatourisme.fr/13/a37dddf6-ad48-339e-977b-2698c0d5b3bd","dept":"04","reg":"pac"}},{"type":"Feature","geometry":{"type":"Point","coordinates":[6.52362,44.40988]},"properties":{"nom":"Lou Riouclar","sub":"CollectiveAccommodation","cm":"04340#Méolans-Revel","web":"https://www.louriouclar.com/","uri":"https://data.datatourisme.fr/13/6a33373b-ae76-3dfb-b679-efc2b9351738","dept":"04","reg":"pac"}},{"type":"Feature","geometry":{"type":"Point","coordinates":[6.2257,43.81721]},"properties":{"nom":"Moustiers Bike Services","sub":"Rental","cm":"04360#Moustiers-Sainte-Marie","web":"http://moustiersbikeservices.com/","uri":"https://data.datatourisme.fr/13/b58ddcdd-60e1-3a5f-b3bc-3416ecc0535f","dept":"04","reg":"pac"}},{"type":"Feature","geometry":{"type":"Point","coordinates":[5.88047,43.75622]},"properties":{"nom":"Résidence Lou Cigaloun - Ana Location","sub":"HolidayResort","cm":"04800#Gréoux-les-Bains","web":"http://www.ana-location.com/","uri":"https://data.datatourisme.fr/13/1968077f-ad1f-3221-b5ab-25604a2949c1","dept":"04","reg":"pac"}},{"type":"Feature","geometry":{"type":"Point","coordinates":[6.0392,43.69594]},"properties":{"nom":"Verdon Electronautic Location de bateaux électriques","sub":"Rental","cm":"04500#Quinson","web":"http://www.verdon-electronautic.com/","uri":"https://data.datatourisme.fr/13/07301996-7b9b-33e9-b7ec-e9e19c09f167","dept":"04","reg":"pac"}},{"type":"Feature","geometry":{"type":"Point","coordinates":[5.57788,43.8559]},"properties":{"nom":"VTF Domaine du Grand Luberon","sub":"CollectiveAccommodation","cm":"04280#Céreste","web":"https://www.vtf-vacances.com/fr_FR/summer/village-vacances/vaucluse/bedoin/les-florans","uri":"https://data.datatourisme.fr/13/a10a267d-c6ec-3c92-a3e8-06d08d0185ba","dept":"04","reg":"pac"}},{"type":"Feature","geometry":{"type":"Point","coordinates":[5.88761,43.885]},"properties":{"nom":"Aqua Game","sub":"Rental","cm":"04700#Oraison","web":"http://www.aquagame.fr/","uri":"https://data.datatourisme.fr/13/af64945e-678f-304c-96f9-728a972b9e47","dept":"04","reg":"pac"}},{"type":"Feature","geometry":{"type":"Point","coordinates":[5.9221,43.9561]},"properties":{"nom":"En roue libre","sub":"Rental","cm":"04190#Les Mées","web":null,"uri":"https://data.datatourisme.fr/13/4cdd79dd-20cd-3cb9-9ad2-53a2ebb48b5d","dept":"04","reg":"pac"}},{"type":"Feature","geometry":{"type":"Point","coordinates":[5.88947,43.75967]},"properties":{"nom":"Lou Paradou","sub":"HolidayResort","cm":"04800#Gréoux-les-Bains","web":"https://www.louparadou.com/","uri":"https://data.datatourisme.fr/13/8e60599b-fbd1-3483-a743-335caab04f4f","dept":"04","reg":"pac"}},{"type":"Feature","geometry":{"type":"Point","coordinates":[6.50868,43.96707]},"properties":{"nom":"Tiers-lieu Les Ptits Bureaux","sub":"Rental","cm":"04170#Saint-André-les-Alpes","web":"https://lesptitsbureaux.fr/","uri":"https://data.datatourisme.fr/13/aaa80756-d9a7-3429-9a00-fdc5be780755","dept":"04","reg":"pac"}},{"type":"Feature","geometry":{"type":"Point","coordinates":[6.08951,43.75051]},"properties":{"nom":"Belambra Club Le Verdon","sub":"CollectiveAccommodation","cm":"04500#Montagnac-Montpezat","web":"http://www.belambra.fr/club-montpezat-le-verdon/ete","uri":"https://data.datatourisme.fr/13/d89f9721-23e1-3131-9982-d5bc8138a3e7","dept":"04","reg":"pac"}},{"type":"Feature","geometry":{"type":"Point","coordinates":[5.89188,43.76118]},"properties":{"nom":"Vallon Paradis","sub":"HolidayResort","cm":"04800#Gréoux-les-Bains","web":"https://residence-vallonparadis.fr/","uri":"https://data.datatourisme.fr/13/6c032800-d25b-32ce-b744-8b7148688e29","dept":"04","reg":"pac"}},{"type":"Feature","geometry":{"type":"Point","coordinates":[5.91002,44.23781]},"properties":{"nom":"WIS - espace de coworking","sub":"Rental","cm":"04200#Sisteron","web":"https://wis-sisteron.com/","uri":"https://data.datatourisme.fr/13/60df0469-9087-356f-862a-392480313e24","dept":"04","reg":"pac"}},{"type":"Feature","geometry":{"type":"Point","coordinates":[6.2144,43.84619]},"properties":{"nom":"Domaine Les Claux des Oliviers","sub":"CollectiveAccommodation","cm":"04360#Moustiers-Sainte-Marie","web":"https://www.gites-de-france-04.fr/fiche-G32346.html","uri":"https://data.datatourisme.fr/13/47311b67-0f97-3845-9a19-1c5d40211be1","dept":"04","reg":"pac"}},{"type":"Feature","geometry":{"type":"Point","coordinates":[6.08164,44.32542]},"properties":{"nom":"Domaine Terres Clôt du Jay - Location pour mariages et réceptions","sub":"Rental","cm":"04250#Clamensane","web":"http://www.gites-haute-provence.com/","uri":"https://data.datatourisme.fr/13/dbf2b9d8-7ee3-31d2-bbd5-593cbeac920d","dept":"04","reg":"pac"}},{"type":"Feature","geometry":{"type":"Point","coordinates":[5.69023,44.09173]},"properties":{"nom":"Salle du Berger de la Gardette","sub":"Rental","cm":"04150#Saumane","web":null,"uri":"https://data.datatourisme.fr/13/e8f8d6db-a90f-39ef-b6e5-1b184dd72656","dept":"04","reg":"pac"}},{"type":"Feature","geometry":{"type":"Point","coordinates":[5.5947,43.99772]},"properties":{"nom":"Domaine de La Flachère","sub":"Rental","cm":"04150#Simiane-la-Rotonde","web":null,"uri":"https://data.datatourisme.fr/13/f1625e9f-7ff5-32d9-bc08-e075871f3c51","dept":"04","reg":"pac"}},{"type":"Feature","geometry":{"type":"Point","coordinates":[6.03483,43.71267]},"properties":{"nom":"Location de Waterbikes","sub":"Rental","cm":"04500#Quinson","web":"https://sites.google.com/view/waterbike-verdon-location/accueil","uri":"https://data.datatourisme.fr/13/f7e3db81-7cd2-3f84-8907-235ea79a144a","dept":"04","reg":"pac"}},{"type":"Feature","geometry":{"type":"Point","coordinates":[5.69034,43.93319]},"properties":{"nom":"Gîte Le moulin Brun - La Colline","sub":"LodgingBusiness","cm":"04110#Aubenas-les-Alpes","web":"http://www.bienvenue-a-la-ferme.com/paca/alpes-de-haute-provence/aubenas-les-alpes/ferme/le-moulin-brun/279825","uri":"https://data.datatourisme.fr/13/4f4e6fd2-7e15-35d7-a5cc-37a3268fddc4","dept":"04","reg":"pac"}},{"type":"Feature","geometry":{"type":"Point","coordinates":[5.69034,43.93319]},"properties":{"nom":"Gîte Le Moulin Brun - Le Largue","sub":"LodgingBusiness","cm":"04110#Aubenas-les-Alpes","web":"http://www.bienvenue-a-la-ferme.com/paca/alpes-de-haute-provence/aubenas-les-alpes/ferme/le-moulin-brun/279825","uri":"https://data.datatourisme.fr/13/2ed384a2-9cca-3b03-adfc-198d56f0d0ab","dept":"04","reg":"pac"}},{"type":"Feature","geometry":{"type":"Point","coordinates":[5.69034,43.93319]},"properties":{"nom":"Chambres d'hotes Le Moulin Brun","sub":"BedAndBreakfast","cm":"04110#Aubenas-les-Alpes","web":"http://www.bienvenue-a-la-ferme.com/paca/alpes-de-haute-provence/aubenas-les-alpes/ferme/le-moulin-brun/279825","uri":"https://data.datatourisme.fr/13/6625b7b6-61af-3466-a6c9-5254885b56cd","dept":"04","reg":"pac"}},{"type":"Feature","geometry":{"type":"Point","coordinates":[5.70235,44.08746]},"properties":{"nom":"La Bergerie des Litornes","sub":"LodgingBusiness","cm":"04150#L'Hospitalet","web":"https://www.apdestination.com/fr/apd04lit-spacieux-mas-provencal-avec-piscine-privee/","uri":"https://data.datatourisme.fr/13/8fdcd172-8201-3354-9597-6f89fa1dc8a8","dept":"04","reg":"pac"}},{"type":"Feature","geometry":{"type":"Point","coordinates":[5.56488,43.96999]},"properties":{"nom":"L'Auberge de la Fontaine","sub":"Rental","cm":"04150#Simiane-la-Rotonde","web":"http://www.gitelafontaine.fr/","uri":"https://data.datatourisme.fr/13/0eb8aed5-f18a-3d9d-bd34-1e152eb32809","dept":"04","reg":"pac"}}]}