{"type":"FeatureCollection","features":[{"type":"Feature","geometry":{"type":"Point","coordinates":[6.36202,44.57693]},"properties":{"nom":"Hôtel Club le Balcon des Écrins","sub":"Hotel","cm":"05160#Réallon","web":"https://www.lebalcondesecrins.com/","uri":"https://data.datatourisme.fr/13/db525322-146d-3907-8018-933fa329852c","dept":"05","reg":"pac"}},{"type":"Feature","geometry":{"type":"Point","coordinates":[6.20021,44.64454]},"properties":{"nom":"Les Fauvettes","sub":"HotelRestaurant","cm":"05260#Saint-Léger-les-Mélèzes","web":"http://www.hotel-lesfauvettes.com/","uri":"https://data.datatourisme.fr/13/4aee9732-bb8c-3cd4-9617-473021a3cafb","dept":"05","reg":"pac"}},{"type":"Feature","geometry":{"type":"Point","coordinates":[6.63169,44.62168]},"properties":{"nom":"Hôtel Le Chardon Bleu","sub":"HotelRestaurant","cm":"05600#Risoul","web":"https://lechardonbleurisoul.fr/","uri":"https://data.datatourisme.fr/13/438171c6-fa87-3e8c-8145-59a375f2dfcf","dept":"05","reg":"pac"}},{"type":"Feature","geometry":{"type":"Point","coordinates":[6.84918,44.71161]},"properties":{"nom":"La Baïta du Loup","sub":"HotelRestaurant","cm":"05350#Saint-Véran","web":"https://www.labaitaduloup.com/","uri":"https://data.datatourisme.fr/13/805ca141-7cf7-354e-b024-485501f99d11","dept":"05","reg":"pac"}},{"type":"Feature","geometry":{"type":"Point","coordinates":[6.8495,44.71141]},"properties":{"nom":"La Baïta du Loup","sub":"CollectiveAccommodation","cm":"05350#Saint-Véran","web":"https://www.labaitaduloup.com/","uri":"https://data.datatourisme.fr/13/0c874448-1a79-392c-b907-06d6272c4475","dept":"05","reg":"pac"}},{"type":"Feature","geometry":{"type":"Point","coordinates":[6.68901,44.59578]},"properties":{"nom":"Hôtel  16-150 Montagne & Spa NUXE","sub":"HotelRestaurant","cm":"05560#Vars","web":"http://www.hotel16-150.com/","uri":"https://data.datatourisme.fr/13/9aedea4d-d6a8-3228-bb23-11091f264c81","dept":"05","reg":"pac"}},{"type":"Feature","geometry":{"type":"Point","coordinates":[6.84742,44.72215]},"properties":{"nom":"Hôtel SPA l'Equipe","sub":"Hotel","cm":"05350#Molines-en-Queyras","web":"http://www.lequipedemolines.fr/","uri":"https://data.datatourisme.fr/13/7a5c0ff6-553e-3a46-b1a6-b66aa42d34fd","dept":"05","reg":"pac"}},{"type":"Feature","geometry":{"type":"Point","coordinates":[6.64919,44.66181]},"properties":{"nom":"Le Catinat Fleuri","sub":"Hotel","cm":"05600#Guillestre","web":"http://www.catinat-fleuri.com/","uri":"https://data.datatourisme.fr/13/da68ad93-cf7d-3159-8577-e048353fbff6","dept":"05","reg":"pac"}},{"type":"Feature","geometry":{"type":"Point","coordinates":[6.65031,44.6621]},"properties":{"nom":"Le Catinat Fleuri","sub":"Camping","cm":"05600#Guillestre","web":"http://www.catinat-fleuri.com/","uri":"https://data.datatourisme.fr/13/0ea899bb-c715-3773-bd38-7e59560788df","dept":"05","reg":"pac"}},{"type":"Feature","geometry":{"type":"Point","coordinates":[6.92742,44.79405]},"properties":{"nom":"Le Chalet de Lanza","sub":"Hotel","cm":"05460#Abriès-Ristolas","web":"http://www.chaletdelanza.fr/","uri":"https://data.datatourisme.fr/13/21cbe030-bb7d-3f7a-b2ae-22524e031610","dept":"05","reg":"pac"}},{"type":"Feature","geometry":{"type":"Point","coordinates":[6.04377,44.55923]},"properties":{"nom":"Hôtellerie Les Olivades","sub":"HotelRestaurant","cm":"05000#Gap","web":"https://www.les-olivades-gap.com/fr/hotel/","uri":"https://data.datatourisme.fr/13/11aeb8c8-a1a6-396c-ab1c-9aacad1084a5","dept":"05","reg":"pac"}},{"type":"Feature","geometry":{"type":"Point","coordinates":[6.49626,44.5642]},"properties":{"nom":"Hôtel de la mairie","sub":"Hotel","cm":"05200#Embrun","web":"http://www.hoteldelamairie.com/","uri":"https://data.datatourisme.fr/13/0c8946c0-8d6a-324b-9536-5ff2f8089d54","dept":"05","reg":"pac"}},{"type":"Feature","geometry":{"type":"Point","coordinates":[6.3598,44.52726]},"properties":{"nom":"Camping Le Nautic","sub":"Camping","cm":"05230#Prunières","web":"http://www.campinglenautic.com/","uri":"https://data.datatourisme.fr/13/0c8c39c2-79ba-3d8e-9eca-f30f181271c4","dept":"05","reg":"pac"}},{"type":"Feature","geometry":{"type":"Point","coordinates":[6.4829,44.55134]},"properties":{"nom":"Hôtel Restaurant Le Lac","sub":"Hotel","cm":"05200#Embrun","web":"http://www.hotellelac.com/","uri":"https://data.datatourisme.fr/13/a57946db-53cb-3316-86cb-5d7bd4719e6b","dept":"05","reg":"pac"}},{"type":"Feature","geometry":{"type":"Point","coordinates":[6.38713,44.51948]},"properties":{"nom":"Camping municipal \"Le Grand Large\"","sub":"Camping","cm":"05160#Savines-le-Lac","web":"https://www.camping-savineslelac.fr/fr/camping-grand-large","uri":"https://data.datatourisme.fr/13/99c4b002-b1ca-3212-8bbb-f9270f2eeb5d","dept":"05","reg":"pac"}},{"type":"Feature","geometry":{"type":"Point","coordinates":[6.4988,44.54481]},"properties":{"nom":"Camping Les Esparons","sub":"Camping","cm":"05200#Embrun","web":"http://www.lesesparons.com/","uri":"https://data.datatourisme.fr/13/ed94ccef-0915-30ce-bb68-f37e28d42afa","dept":"05","reg":"pac"}},{"type":"Feature","geometry":{"type":"Point","coordinates":[6.46037,44.54694]},"properties":{"nom":"Chadenas et Spas - Ternelia","sub":"CollectiveAccommodation","cm":"05200#Embrun","web":"https://www.ternelia-lm.com/hotel/chadenas-spa-embrun/","uri":"https://data.datatourisme.fr/13/34602aec-e9fb-37d8-8956-e8f2b988139b","dept":"05","reg":"pac"}},{"type":"Feature","geometry":{"type":"Point","coordinates":[5.64691,44.29666]},"properties":{"nom":"Hôtels Logis Le Céans","sub":"HotelRestaurant","cm":"05700#Sainte-Colombe","web":"http://www.hotel-ceans.fr/","uri":"https://data.datatourisme.fr/13/cba3d7f2-c603-3411-8b0a-b74adb3709d1","dept":"05","reg":"pac"}},{"type":"Feature","geometry":{"type":"Point","coordinates":[6.4917,44.54696]},"properties":{"nom":"Camping Le Petit Liou Sites & Paysages","sub":"Camping","cm":"05200#Baratier","web":"https://www.camping-lepetitliou.com/fr","uri":"https://data.datatourisme.fr/13/6d44d0c9-d0d8-3c82-a921-276388ae8ffa","dept":"05","reg":"pac"}},{"type":"Feature","geometry":{"type":"Point","coordinates":[6.31971,44.5283]},"properties":{"nom":"Camping Le Serre du Lac","sub":"Camping","cm":"05230#Chorges","web":"https://www.campingleserredulac.fr/","uri":"https://data.datatourisme.fr/13/66291773-02df-3dcc-a700-686229c13a5e","dept":"05","reg":"pac"}},{"type":"Feature","geometry":{"type":"Point","coordinates":[6.30117,45.04499]},"properties":{"nom":"Appart hôtel de charme - Panoramic Village","sub":"Hotel","cm":"05320#La Grave","web":"http://www.panoramic-village.com/","uri":"https://data.datatourisme.fr/13/814a9c18-f5ab-3f39-8787-c9cfcbf3d80c","dept":"05","reg":"pac"}},{"type":"Feature","geometry":{"type":"Point","coordinates":[6.04954,44.45575]},"properties":{"nom":"Camping le chêne","sub":"Camping","cm":"05130#Tallard","web":"http://www.camping-lechene.com/","uri":"https://data.datatourisme.fr/13/19f378db-9dce-3e69-9bd8-40c3bf0defd0","dept":"05","reg":"pac"}},{"type":"Feature","geometry":{"type":"Point","coordinates":[6.02896,44.49834]},"properties":{"nom":"Camping les Bonnets","sub":"Camping","cm":"05000#Neffes","web":"https://www.camping-les-bonnets.com/","uri":"https://data.datatourisme.fr/13/1f2769af-bbe5-3957-84bc-3b557ff560ae","dept":"05","reg":"pac"}},{"type":"Feature","geometry":{"type":"Point","coordinates":[6.59521,44.71097]},"properties":{"nom":"Camping La Cabane","sub":"Camping","cm":"05600#Saint-Crépin","web":"https://www.campingcabane.fr/","uri":"https://data.datatourisme.fr/13/8b088c64-2f27-375f-9df8-4c305127ea5a","dept":"05","reg":"pac"}},{"type":"Feature","geometry":{"type":"Point","coordinates":[6.33735,45.04372]},"properties":{"nom":"Hôtel Le Faranchin","sub":"HotelRestaurant","cm":"05480#Villar-d'Arêne","web":"https://www.lefaranchin.com/","uri":"https://data.datatourisme.fr/13/786a4222-9514-3825-9095-7886a8cc6348","dept":"05","reg":"pac"}},{"type":"Feature","geometry":{"type":"Point","coordinates":[6.49164,44.53594]},"properties":{"nom":"Logis Hôtel Les Peupliers","sub":"Hotel","cm":"05200#Baratier","web":"http://www.hotel-les-peupliers.com/","uri":"https://data.datatourisme.fr/13/8689654d-35a1-32b2-8593-8576b6fb1d5b","dept":"05","reg":"pac"}},{"type":"Feature","geometry":{"type":"Point","coordinates":[6.1008,44.80207]},"properties":{"nom":"Le Val des Sources","sub":"HotelRestaurant","cm":"05800#Saint-Maurice-en-Valgodemard","web":"http://www.levaldessources.com/","uri":"https://data.datatourisme.fr/13/cb405566-967d-343f-8e7b-13fd0d9ab745","dept":"05","reg":"pac"}},{"type":"Feature","geometry":{"type":"Point","coordinates":[6.95676,44.77384]},"properties":{"nom":"Le Ristolas","sub":"Hotel","cm":"05460#Abriès-Ristolas","web":"http://www.gitehotel-ristolas.fr/","uri":"https://data.datatourisme.fr/13/905e7d66-984e-3f54-a93e-81c78fc27232","dept":"05","reg":"pac"}},{"type":"Feature","geometry":{"type":"Point","coordinates":[6.07696,44.5564]},"properties":{"nom":"Hôtel Mon Hôtel à Gap","sub":"Hotel","cm":"05000#Gap","web":"http://www.monhotelagap.com/","uri":"https://data.datatourisme.fr/13/d345ee24-302e-37e1-9743-87e43cbc9ffc","dept":"05","reg":"pac"}},{"type":"Feature","geometry":{"type":"Point","coordinates":[6.2105,44.61825]},"properties":{"nom":"Les Taillas","sub":"Camping","cm":"05260#Ancelle","web":"http://www.camping-les-taillas.com/","uri":"https://data.datatourisme.fr/13/f1e9ad94-156b-314c-97a8-a85a60b6db8a","dept":"05","reg":"pac"}},{"type":"Feature","geometry":{"type":"Point","coordinates":[6.48893,44.84391]},"properties":{"nom":"Camping Huttopia Vallouise","sub":"Camping","cm":"05340#Vallouise-Pelvoux","web":"https://europe.huttopia.com/site/camping-vallouise/?utm_medium=annuaire&utm_source=PaysdesecrinsFR&utm_campaign=Vallouise<>https://europe.huttopia.com/site/camping-vallouise/hiver/?utm_medium=annuaire&utm_source=PaysdesecrinsFR&utm_campaign=Vallouise","uri":"https://data.datatourisme.fr/13/0917e321-25d9-3d7e-a581-f0adc06e4363","dept":"05","reg":"pac"}},{"type":"Feature","geometry":{"type":"Point","coordinates":[6.79313,44.65024]},"properties":{"nom":"La Cascade","sub":"Hotel","cm":"05600#Ceillac","web":"http://www.hotel-la-cascade.com/","uri":"https://data.datatourisme.fr/13/7aa3d5dc-53be-3a27-ab5d-214e768a7fae","dept":"05","reg":"pac"}},{"type":"Feature","geometry":{"type":"Point","coordinates":[6.09128,44.56452]},"properties":{"nom":"Adonis Gapotel","sub":"HotelRestaurant","cm":"05000#Gap","web":"https://www.adonis-gap.com/","uri":"https://data.datatourisme.fr/13/88b9fe70-5ac1-3e80-b5ca-7fff5447a75e","dept":"05","reg":"pac"}},{"type":"Feature","geometry":{"type":"Point","coordinates":[6.28167,44.53972]},"properties":{"nom":"La Valière","sub":"Camping","cm":"05230#Chorges","web":"http://www.la-valiere.com/","uri":"https://data.datatourisme.fr/13/ca91bb4b-f199-3601-b50b-95c41c7416ae","dept":"05","reg":"pac"}},{"type":"Feature","geometry":{"type":"Point","coordinates":[6.63316,44.89496]},"properties":{"nom":"Hôtel Vauban","sub":"HotelRestaurant","cm":"05100#Briançon","web":"http://www.hotel-vauban-briancon.com/","uri":"https://data.datatourisme.fr/13/ee4ac38a-ba40-3d10-b27c-24a956a16add","dept":"05","reg":"pac"}},{"type":"Feature","geometry":{"type":"Point","coordinates":[6.82131,44.76118]},"properties":{"nom":"Le Guilazur","sub":"Hotel","cm":"05350#Château-Ville-Vieille","web":"http://queyrashotelguilazur.com/","uri":"https://data.datatourisme.fr/13/0fd8e1ca-3fd7-340e-bb5d-833caf9e4818","dept":"05","reg":"pac"}},{"type":"Feature","geometry":{"type":"Point","coordinates":[6.64713,44.90245]},"properties":{"nom":"Hôtel le Cristol","sub":"Hotel","cm":"05100#Briançon","web":"http://www.hotelcristol.fr/","uri":"https://data.datatourisme.fr/13/f0c1bc3a-7fc7-3e39-93be-38102a3d7017","dept":"05","reg":"pac"}},{"type":"Feature","geometry":{"type":"Point","coordinates":[6.63394,44.89174]},"properties":{"nom":"Hôtel de Paris","sub":"Hotel","cm":"05100#Briançon","web":null,"uri":"https://data.datatourisme.fr/13/4581e764-952f-3c55-8ef8-8d64c7d647ba","dept":"05","reg":"pac"}},{"type":"Feature","geometry":{"type":"Point","coordinates":[6.58768,44.93348]},"properties":{"nom":"Grand Hôtel & Spa Nuxe","sub":"HotelRestaurant","cm":"05330#Saint-Chaffrey","web":"http://www.grandhotel.fr/","uri":"https://data.datatourisme.fr/13/9eb41345-1756-3579-b3d5-1eda4bee0b8d","dept":"05","reg":"pac"}},{"type":"Feature","geometry":{"type":"Point","coordinates":[6.19462,44.81676]},"properties":{"nom":"Le Mont Olan","sub":"HotelRestaurant","cm":"05800#La Chapelle-en-Valgaudémar","web":"http://www.mont-olan.fr/","uri":"https://data.datatourisme.fr/13/9e492f34-ee1b-3d4b-a543-bb56ccd639c7","dept":"05","reg":"pac"}},{"type":"Feature","geometry":{"type":"Point","coordinates":[6.24068,44.67021]},"properties":{"nom":"Les 6 stations","sub":"Camping","cm":"05260#Saint-Jean-Saint-Nicolas","web":"http://www.camping-ecrins.com/","uri":"https://data.datatourisme.fr/13/ab04805b-598e-3695-ad09-f42c2d3e2856","dept":"05","reg":"pac"}},{"type":"Feature","geometry":{"type":"Point","coordinates":[6.07612,44.68498]},"properties":{"nom":"La Crémaillère","sub":"HotelRestaurant","cm":"05500#Saint-Bonnet-en-Champsaur","web":"https://www.cremaillere.eu/","uri":"https://data.datatourisme.fr/13/aea4f6cb-655d-3344-b473-59995efadc1d","dept":"05","reg":"pac"}},{"type":"Feature","geometry":{"type":"Point","coordinates":[5.83278,44.31339]},"properties":{"nom":"Camping Le Montéglin","sub":"Camping","cm":"05300#Laragne-Montéglin","web":"http://www.camping-monteglin.com/","uri":"https://data.datatourisme.fr/13/a67a4e97-c4f9-30e4-a120-2c1789f37f12","dept":"05","reg":"pac"}},{"type":"Feature","geometry":{"type":"Point","coordinates":[6.68937,44.59396]},"properties":{"nom":"Alpage & Spa","sub":"HotelRestaurant","cm":"05560#Vars","web":"http://www.hotel-alpage.com/","uri":"https://data.datatourisme.fr/13/02cc55bb-9f72-3b16-b19b-ed6e2069fc4f","dept":"05","reg":"pac"}},{"type":"Feature","geometry":{"type":"Point","coordinates":[6.48877,44.84607]},"properties":{"nom":"Les Vallois Hôtel Restaurant","sub":"HotelRestaurant","cm":"05340#Vallouise-Pelvoux","web":"http://www.lesvallois.com/","uri":"https://data.datatourisme.fr/13/ee45de9c-06b3-34f3-a419-71aa4842ea04","dept":"05","reg":"pac"}},{"type":"Feature","geometry":{"type":"Point","coordinates":[6.61306,44.87538]},"properties":{"nom":"Camping Les 5 Vallées","sub":"Camping","cm":"05100#Briançon","web":"http://www.camping5vallees.com/","uri":"https://data.datatourisme.fr/13/c83ee757-8ba6-3b59-9830-956a1e125ac1","dept":"05","reg":"pac"}},{"type":"Feature","geometry":{"type":"Point","coordinates":[6.20584,44.62405]},"properties":{"nom":"Les Autanes","sub":"HotelRestaurant","cm":"05260#Ancelle","web":"http://www.hotel-les-autanes.com/","uri":"https://data.datatourisme.fr/13/27c47604-b6b9-3ebf-b2f1-55dd3fe5560a","dept":"05","reg":"pac"}},{"type":"Feature","geometry":{"type":"Point","coordinates":[6.4847,44.552]},"properties":{"nom":"Alpes 2 Roues, location, vente et réparation de vélos","sub":"Rental","cm":"05200#Embrun","web":"http://www.alpes2roues.com/","uri":"https://data.datatourisme.fr/13/23a2b1ab-a5c2-3975-9799-70953faef3b9","dept":"05","reg":"pac"}},{"type":"Feature","geometry":{"type":"Point","coordinates":[6.92906,44.79076]},"properties":{"nom":"Camping Queyras Caravaneige","sub":"Camping","cm":"05460#Abriès-Ristolas","web":"http://www.queyras-caravaneige.fr/","uri":"https://data.datatourisme.fr/13/2ec93880-ca10-39c5-bfab-e14ccc873e6f","dept":"05","reg":"pac"}},{"type":"Feature","geometry":{"type":"Point","coordinates":[6.23086,44.46513]},"properties":{"nom":"Hôtel-Restaurant de la Poste","sub":"HotelRestaurant","cm":"05190#Espinasses","web":"http://www.hotellaposte.fr/","uri":"https://data.datatourisme.fr/13/0c9c10a5-577a-3446-918d-a14540de9c84","dept":"05","reg":"pac"}},{"type":"Feature","geometry":{"type":"Point","coordinates":[6.30388,45.04541]},"properties":{"nom":"Hôtel Le Castillan","sub":"HotelRestaurant","cm":"05320#La Grave","web":"http://www.le-castillan.com/","uri":"https://data.datatourisme.fr/13/f15d337c-7007-3947-8fe1-b5d6f0ed3f13","dept":"05","reg":"pac"}},{"type":"Feature","geometry":{"type":"Point","coordinates":[6.8626,44.70339]},"properties":{"nom":"Le Grand Tétras","sub":"Hotel","cm":"05350#Saint-Véran","web":"http://www.legrandtetras.com/","uri":"https://data.datatourisme.fr/13/ed580308-3cb8-302e-a15d-99a2a2381b1b","dept":"05","reg":"pac"}},{"type":"Feature","geometry":{"type":"Point","coordinates":[5.46141,44.39532]},"properties":{"nom":"Flower Camping Les Hauts de Rosans","sub":"Camping","cm":"05150#Rosans","web":"http://www.camping-hautsderosans.com/","uri":"https://data.datatourisme.fr/13/f4dc4b99-cba0-3f4a-a597-c072276372cd","dept":"05","reg":"pac"}},{"type":"Feature","geometry":{"type":"Point","coordinates":[6.03639,44.45942]},"properties":{"nom":"The Originals Hôtel Le Cap***","sub":"HotelRestaurant","cm":"05130#Tallard","web":"http://www.lecapresort.com/","uri":"https://data.datatourisme.fr/13/fa06492e-255c-3b88-bece-aeb1548bbda0","dept":"05","reg":"pac"}},{"type":"Feature","geometry":{"type":"Point","coordinates":[6.83944,44.73678]},"properties":{"nom":"La Maison de Gaudissard","sub":"HotelRestaurant","cm":"05350#Molines-en-Queyras","web":"http://www.gaudissard.com/","uri":"https://data.datatourisme.fr/13/950dbd41-546d-3a6f-86fd-7783480e3190","dept":"05","reg":"pac"}},{"type":"Feature","geometry":{"type":"Point","coordinates":[6.48688,44.55898]},"properties":{"nom":"Hôtel Restaurant & Spa la Robéyère","sub":"Hotel","cm":"05200#Embrun","web":"http://www.larobeyere.com/","uri":"https://data.datatourisme.fr/13/b5ce084e-cba3-3c25-99cc-f549d665b13d","dept":"05","reg":"pac"}},{"type":"Feature","geometry":{"type":"Point","coordinates":[6.72409,44.93131]},"properties":{"nom":"Hôtel Alpis Cottia","sub":"Hotel","cm":"05100#Montgenèvre","web":"https://www.hotelalpiscottia.com/hotel-alpis-cottia-montgenevre/<>https://www.hotelalpiscottia.com/","uri":"https://data.datatourisme.fr/13/9334c84b-f569-3a92-aa1e-a62a4ef75f0b","dept":"05","reg":"pac"}},{"type":"Feature","geometry":{"type":"Point","coordinates":[6.63341,44.65683]},"properties":{"nom":"Le Saint-James Les Pins","sub":"Camping","cm":"05600#Guillestre","web":"https://www.lesaintjames.com/fr","uri":"https://data.datatourisme.fr/13/4920bc4b-122a-3119-b37d-7d3099b39df8","dept":"05","reg":"pac"}},{"type":"Feature","geometry":{"type":"Point","coordinates":[6.57947,44.75712]},"properties":{"nom":"Camping le Verger","sub":"Camping","cm":"05310#La Roche-de-Rame","web":"http://www.campingleverger.com/","uri":"https://data.datatourisme.fr/13/67293756-25c7-368f-a614-70abfe71244d","dept":"05","reg":"pac"}},{"type":"Feature","geometry":{"type":"Point","coordinates":[6.55328,44.94541]},"properties":{"nom":"Le Grand Aigle Hôtel & Spa","sub":"HotelRestaurant","cm":"05240#La Salle-les-Alpes","web":"http://www.hotelgrandaigle.com/","uri":"https://data.datatourisme.fr/13/74d4771e-9b00-3f5f-a0c3-d45cd1ae4caf","dept":"05","reg":"pac"}},{"type":"Feature","geometry":{"type":"Point","coordinates":[6.5954,44.7109]},"properties":{"nom":"Yourtes Kirghizes au camping la Cabane","sub":"Camping","cm":"05600#Saint-Crépin","web":"https://www.campingcabane.fr/","uri":"https://data.datatourisme.fr/13/40a1eb2b-8ffd-3256-9dec-4a2afed119f1","dept":"05","reg":"pac"}},{"type":"Feature","geometry":{"type":"Point","coordinates":[6.5954,44.7109]},"properties":{"nom":"Tente trappeur au camping la Cabane","sub":"Camping","cm":"05600#Saint-Crépin","web":"https://www.campingcabane.fr/","uri":"https://data.datatourisme.fr/13/43380302-6c50-39b1-8071-8ebddd104eaa","dept":"05","reg":"pac"}},{"type":"Feature","geometry":{"type":"Point","coordinates":[6.5954,44.7109]},"properties":{"nom":"Pendolas perchées du camping la Cabane","sub":"Camping","cm":"05600#Saint-Crépin","web":"https://www.campingcabane.fr/","uri":"https://data.datatourisme.fr/13/6bedf825-314a-35f2-bfd9-aefd72f1482b","dept":"05","reg":"pac"}},{"type":"Feature","geometry":{"type":"Point","coordinates":[6.29716,45.04322]},"properties":{"nom":"Camping le Gravelotte","sub":"Camping","cm":"05320#La Grave","web":"http://www.camping-le-gravelotte.com/<>https://www.camping-le-gravelotte.com/reserver_fr.htm","uri":"https://data.datatourisme.fr/13/025708e7-e62c-385d-a99d-374662e4f4df","dept":"05","reg":"pac"}},{"type":"Feature","geometry":{"type":"Point","coordinates":[6.56503,44.94328]},"properties":{"nom":"Rock Noir & Spa","sub":"HotelRestaurant","cm":"05240#La Salle-les-Alpes","web":"http://www.rocknoir.fr/","uri":"https://data.datatourisme.fr/13/ad01a4ee-76ca-3d99-82dc-9ceb9b9bd3cb","dept":"05","reg":"pac"}},{"type":"Feature","geometry":{"type":"Point","coordinates":[5.73795,44.26171]},"properties":{"nom":"Camping des Gorges de la Méouge","sub":"Camping","cm":"05300#Barret-sur-Méouge","web":"http://www.camping-meouge.com/","uri":"https://data.datatourisme.fr/13/d87bc8a6-6197-3d68-90bb-7d68d74356e8","dept":"05","reg":"pac"}},{"type":"Feature","geometry":{"type":"Point","coordinates":[6.33612,45.04212]},"properties":{"nom":"Hôtel Auberge aux 3 Frênes -  Vinay Franck","sub":"HotelRestaurant","cm":"05480#Villar-d'Arêne","web":"http://www.3frenes.com/","uri":"https://data.datatourisme.fr/13/6211080f-a899-31f6-ab1a-0c9d55c61d0f","dept":"05","reg":"pac"}},{"type":"Feature","geometry":{"type":"Point","coordinates":[5.89782,44.73004]},"properties":{"nom":"Hôtel La Neyrette","sub":"HotelRestaurant","cm":"05250#Dévoluy","web":"http://www.la-neyrette.com/","uri":"https://data.datatourisme.fr/13/633dcbb9-ad11-3253-8d97-46523c322f76","dept":"05","reg":"pac"}},{"type":"Feature","geometry":{"type":"Point","coordinates":[5.71481,44.42822]},"properties":{"nom":"Hôtel Fifi Moulin","sub":"Hotel","cm":"05700#Serres","web":"http://hotel-fifimoulin.fr/","uri":"https://data.datatourisme.fr/13/edd8559e-0de8-3189-9517-5c0b8168c045","dept":"05","reg":"pac"}},{"type":"Feature","geometry":{"type":"Point","coordinates":[5.46154,44.38237]},"properties":{"nom":"Camping Les Rosières","sub":"Camping","cm":"05150#Rosans","web":"http://www.camping-rosieres.com/","uri":"https://data.datatourisme.fr/13/fcf35a42-d62f-3fb0-908e-3f8adfe8451f","dept":"05","reg":"pac"}},{"type":"Feature","geometry":{"type":"Point","coordinates":[6.08449,44.55944]},"properties":{"nom":"Hôtel Ibis Gap Centre","sub":"HotelRestaurant","cm":"05000#Gap","web":"https://www.accorhotels.com/fr/hotel-1120-ibis-gap/index.shtml","uri":"https://data.datatourisme.fr/13/87a1e270-d6ea-337e-8dba-fee98f709bac","dept":"05","reg":"pac"}},{"type":"Feature","geometry":{"type":"Point","coordinates":[6.47769,44.5511]},"properties":{"nom":"Camping municipal de la Clapiére","sub":"Camping","cm":"05200#Embrun","web":"https://www.camping-embrun-clapiere.com/","uri":"https://data.datatourisme.fr/13/7e61ea27-76f1-37dc-93aa-48a4f9eb4568","dept":"05","reg":"pac"}},{"type":"Feature","geometry":{"type":"Point","coordinates":[6.47936,44.54216]},"properties":{"nom":"Hôtel Restaurant & Spa Les Bartavelles","sub":"Hotel","cm":"05200#Crots","web":"http://www.bartavelles.com/","uri":"https://data.datatourisme.fr/13/8637a3cb-38a8-315a-88b1-07262ace416f","dept":"05","reg":"pac"}},{"type":"Feature","geometry":{"type":"Point","coordinates":[6.21059,44.62456]},"properties":{"nom":"Les Auches","sub":"Camping","cm":"05260#Ancelle","web":"http://www.lesauches.com/","uri":"https://data.datatourisme.fr/13/8c52fad5-1d9e-3abf-96ab-62883856abb3","dept":"05","reg":"pac"}},{"type":"Feature","geometry":{"type":"Point","coordinates":[6.5454,44.821]},"properties":{"nom":"Camping les Vaudois - Les Etapes André Trigano","sub":"Camping","cm":"05120#Les Vigneaux","web":"https://vacances-andretrigano.com/camping/hautes-alpes/les-vaudois-les-vigneaux","uri":"https://data.datatourisme.fr/13/828fefc9-0445-3108-a0f9-b4715f59e380","dept":"05","reg":"pac"}},{"type":"Feature","geometry":{"type":"Point","coordinates":[6.54094,44.75363]},"properties":{"nom":"Hôtel Les 5 Saisons","sub":"HotelRestaurant","cm":"05310#Freissinières","web":"http://www.les5saisons.com/","uri":"https://data.datatourisme.fr/13/5de00777-1ad9-3c22-88a0-8c5b6c342507","dept":"05","reg":"pac"}},{"type":"Feature","geometry":{"type":"Point","coordinates":[6.60209,44.70507]},"properties":{"nom":"Camping de L'île","sub":"Camping","cm":"05600#Saint-Crépin","web":"https://www.camping-ile-saint-crepin.com/","uri":"https://data.datatourisme.fr/13/16437e8f-cd61-32ab-ab32-5d2f5456044a","dept":"05","reg":"pac"}},{"type":"Feature","geometry":{"type":"Point","coordinates":[6.63476,45.01847]},"properties":{"nom":"L'Échaillon Hôtel Spa & Activités","sub":"Hotel","cm":"05100#Névache","web":"http://www.hotel-echaillon.com/","uri":"https://data.datatourisme.fr/13/1e3d08f4-9e8b-3027-9c5c-343c2f16a7b7","dept":"05","reg":"pac"}},{"type":"Feature","geometry":{"type":"Point","coordinates":[6.67514,44.91806]},"properties":{"nom":"Flower Camping Le Montana","sub":"Camping","cm":"05100#Val-des-Prés","web":"https://reservation.secureholiday.net/fr/1416/<>https://www.campinglemontana.fr/","uri":"https://data.datatourisme.fr/13/49151e07-e8ab-3323-80ce-2a98a4c57849","dept":"05","reg":"pac"}},{"type":"Feature","geometry":{"type":"Point","coordinates":[6.7883,44.65379]},"properties":{"nom":"Camping les Mélézes - Onlycamp","sub":"Camping","cm":"05600#Ceillac","web":"http://campingdeceillac.com/","uri":"https://data.datatourisme.fr/13/88620f53-e813-3fe2-9065-2d43137a905b","dept":"05","reg":"pac"}},{"type":"Feature","geometry":{"type":"Point","coordinates":[6.50823,44.97667]},"properties":{"nom":"L'Auberge du Choucas","sub":"HotelRestaurant","cm":"05220#Le Monêtier-les-Bains","web":"http://www.aubergeduchoucas.com/","uri":"https://data.datatourisme.fr/13/8d653c66-cd4d-3791-9c2f-b7eff5c38ef6","dept":"05","reg":"pac"}},{"type":"Feature","geometry":{"type":"Point","coordinates":[6.32447,44.52755]},"properties":{"nom":"Camping Municipal de la Baie St-Michel","sub":"Camping","cm":"05230#Chorges","web":"https://www.baiestmichel.com/fr","uri":"https://data.datatourisme.fr/13/ebeb9e92-4106-383d-9efc-451903afc198","dept":"05","reg":"pac"}},{"type":"Feature","geometry":{"type":"Point","coordinates":[6.48961,44.53727]},"properties":{"nom":"Camping Le Verger","sub":"Camping","cm":"05200#Baratier","web":"https://www.campingleverger.fr/","uri":"https://data.datatourisme.fr/13/40981930-a09c-373e-9cd4-acaba094ecd6","dept":"05","reg":"pac"}},{"type":"Feature","geometry":{"type":"Point","coordinates":[6.58319,44.6465]},"properties":{"nom":"Les Mille Vents","sub":"Camping","cm":"05600#Saint-Clément-sur-Durance","web":"http://www.camping-les-mille-vents.com/","uri":"https://data.datatourisme.fr/13/01f1c3e4-8c64-3832-bff6-8d4824816e57","dept":"05","reg":"pac"}},{"type":"Feature","geometry":{"type":"Point","coordinates":[6.33709,45.04387]},"properties":{"nom":"Hôtel Les Agneaux","sub":"HotelRestaurant","cm":"05480#Villar-d'Arêne","web":"http://www.hotel-lesagneaux.com/accueil_fr.htm","uri":"https://data.datatourisme.fr/13/23af4b45-f1e1-3614-9a79-0d1a3126e77a","dept":"05","reg":"pac"}},{"type":"Feature","geometry":{"type":"Point","coordinates":[6.05803,44.54053]},"properties":{"nom":"Hôtel Avantici","sub":"Hotel","cm":"05000#Gap","web":"http://www.avantici-citotel.com/","uri":"https://data.datatourisme.fr/13/239e8ae0-a22e-3a03-bd65-2c87fb04f0cb","dept":"05","reg":"pac"}},{"type":"Feature","geometry":{"type":"Point","coordinates":[6.54623,44.62066]},"properties":{"nom":"Camping New Rabioux","sub":"Camping","cm":"05380#Châteauroux-les-Alpes","web":"http://www.camping-new-rabioux.fr/","uri":"https://data.datatourisme.fr/13/fcb62557-acfd-306d-952a-11562edd4592","dept":"05","reg":"pac"}},{"type":"Feature","geometry":{"type":"Point","coordinates":[6.34555,44.49917]},"properties":{"nom":"Camping La Palatrière","sub":"Camping","cm":"05160#Le Sauze-du-Lac","web":"https://www.lapalatriere.com/","uri":"https://data.datatourisme.fr/13/97090177-ccbc-3270-a273-b8b798e468cf","dept":"05","reg":"pac"}},{"type":"Feature","geometry":{"type":"Point","coordinates":[6.64284,44.89944]},"properties":{"nom":"Auberge de la Paix","sub":"HotelRestaurant","cm":"05100#Briançon","web":"https://www.hotel-aubergedelapaix.com/","uri":"https://data.datatourisme.fr/13/6a68e580-4b59-373a-8fc0-8afc420b39bd","dept":"05","reg":"pac"}},{"type":"Feature","geometry":{"type":"Point","coordinates":[6.73531,44.78134]},"properties":{"nom":"Hôtel & Spa La Ferme de l'Izoard","sub":"HotelRestaurant","cm":"05350#Arvieux","web":"https://www.laferme.fr/fr","uri":"https://data.datatourisme.fr/13/1cafffb8-d90e-391c-836c-de33e8c20a8d","dept":"05","reg":"pac"}},{"type":"Feature","geometry":{"type":"Point","coordinates":[6.5627,44.94509]},"properties":{"nom":"Logis Hôtel et Spa Le Christiania","sub":"Hotel","cm":"05240#La Salle-les-Alpes","web":"http://www.le-christiania.com/","uri":"https://data.datatourisme.fr/13/73485a9c-0f4b-39f7-bec6-0269ee45c11c","dept":"05","reg":"pac"}},{"type":"Feature","geometry":{"type":"Point","coordinates":[6.58944,44.85666]},"properties":{"nom":"Camping Caravaneige l'Iscle de Prelles","sub":"Camping","cm":"05120#Saint-Martin-de-Queyrières","web":"http://camping-iscledeprelles.com/","uri":"https://data.datatourisme.fr/13/3ce7e460-2b4d-3f26-ba9e-f25da713a686","dept":"05","reg":"pac"}},{"type":"Feature","geometry":{"type":"Point","coordinates":[6.44583,44.88529]},"properties":{"nom":"Camping d'Ailefroide","sub":"Camping","cm":"05340#Vallouise-Pelvoux","web":null,"uri":"https://data.datatourisme.fr/13/9ae651e4-dd3f-3946-a599-87e4625b41df","dept":"05","reg":"pac"}},{"type":"Feature","geometry":{"type":"Point","coordinates":[6.26854,44.47661]},"properties":{"nom":"Camping La Viste","sub":"Camping","cm":"05190#Rousset","web":"http://www.laviste.fr/","uri":"https://data.datatourisme.fr/13/adcf366c-1700-3662-a66b-20ce166d23e4","dept":"05","reg":"pac"}},{"type":"Feature","geometry":{"type":"Point","coordinates":[6.6825,44.57339]},"properties":{"nom":"Chalet Hôtel Écureuil","sub":"Hotel","cm":"05560#Vars","web":"http://www.hotelecureuil.com/<>https://reservations.verticalbooking.com/premium/index.html?id_albergo=26622&dc=9723&id_stile=20181&lingua_int=fra","uri":"https://data.datatourisme.fr/13/1f839eaf-42af-3554-97c6-5ba26e4d9404","dept":"05","reg":"pac"}},{"type":"Feature","geometry":{"type":"Point","coordinates":[6.68317,44.93898]},"properties":{"nom":"Camping Huttopia La Clarée & Chalets","sub":"Camping","cm":"05100#Val-des-Prés","web":"https://europe.huttopia.com/site/camping-la-claree/?utm_medium=annuaire&utm_source=Hautesvall%C3%A9esFR&utm_campaign=La-Claree","uri":"https://data.datatourisme.fr/13/075f1234-f301-3a7e-ace4-3a1e8a0fe8c6","dept":"05","reg":"pac"}},{"type":"Feature","geometry":{"type":"Point","coordinates":[6.62909,44.90439]},"properties":{"nom":"Suite-Home Briançon Serre Chevalier","sub":"Hotel","cm":"05100#Briançon","web":"https://www.suitehome-briancon.com/fr/","uri":"https://data.datatourisme.fr/13/d6f0fbab-e09e-31cf-8072-0b79c73ddac0","dept":"05","reg":"pac"}},{"type":"Feature","geometry":{"type":"Point","coordinates":[6.46666,44.54846]},"properties":{"nom":"Camping Club Nautique Alpin Serre-Ponçon","sub":"Camping","cm":"05200#Embrun","web":"http://www.cna-embrun.com/","uri":"https://data.datatourisme.fr/13/9fe2ebc5-1b48-39dd-8ef7-30ccca50c85e","dept":"05","reg":"pac"}},{"type":"Feature","geometry":{"type":"Point","coordinates":[6.21941,44.66533]},"properties":{"nom":"Le Diamant","sub":"Camping","cm":"05260#Saint-Jean-Saint-Nicolas","web":"http://www.campingdiamant.com/","uri":"https://data.datatourisme.fr/13/9e83c921-1ad8-3ed5-91d3-bf74484370b3","dept":"05","reg":"pac"}},{"type":"Feature","geometry":{"type":"Point","coordinates":[6.4861,44.55409]},"properties":{"nom":"La Vieille Ferme","sub":"Camping","cm":"05200#Embrun","web":"https://www.instagram.com/campinglavieilleferme/","uri":"https://data.datatourisme.fr/13/aa0b51d7-7ad2-38a5-b4f3-9404bfbaafc6","dept":"05","reg":"pac"}},{"type":"Feature","geometry":{"type":"Point","coordinates":[6.07767,44.682]},"properties":{"nom":"Le Connétable","sub":"Hotel","cm":"05500#Saint-Bonnet-en-Champsaur","web":"https://www.hotel-le-connetable.com/","uri":"https://data.datatourisme.fr/13/45e2e65c-c8f5-3674-bb27-f1850dc516a3","dept":"05","reg":"pac"}},{"type":"Feature","geometry":{"type":"Point","coordinates":[5.75908,44.36015]},"properties":{"nom":"Camping Les Cigales","sub":"Camping","cm":"05300#Garde-Colombe","web":"http://www.camping-lescigales.net/","uri":"https://data.datatourisme.fr/13/ddffe43a-88d8-35db-8c2f-fd3bb99c5e43","dept":"05","reg":"pac"}},{"type":"Feature","geometry":{"type":"Point","coordinates":[6.87077,44.69849]},"properties":{"nom":"Les Chalets du Villard","sub":"Hotel","cm":"05350#Saint-Véran","web":"https://www.leschaletsduvillard.fr/","uri":"https://data.datatourisme.fr/13/680aafa2-e90a-37f1-95e1-2678c36a4e2a","dept":"05","reg":"pac"}},{"type":"Feature","geometry":{"type":"Point","coordinates":[6.87531,44.72697]},"properties":{"nom":"La Lobio","sub":"Hotel","cm":"05350#Molines-en-Queyras","web":"https://lalobio.com/","uri":"https://data.datatourisme.fr/13/05562def-45e5-3e10-9bd2-2cf729d2d032","dept":"05","reg":"pac"}},{"type":"Feature","geometry":{"type":"Point","coordinates":[6.08259,44.58264]},"properties":{"nom":"Domaine Napoléon","sub":"Camping","cm":"05000#Gap","web":"http://campinglenapoleon.fr/","uri":"https://data.datatourisme.fr/13/a29f8552-6bb0-3540-8f43-7b23c35cefec","dept":"05","reg":"pac"}},{"type":"Feature","geometry":{"type":"Point","coordinates":[6.64665,44.65668]},"properties":{"nom":"Camping La Ribière","sub":"Camping","cm":"05600#Guillestre","web":"http://www.laribiere.fr/","uri":"https://data.datatourisme.fr/13/4ecfb48d-e98e-3c5e-8fbc-1de31c184ee6","dept":"05","reg":"pac"}},{"type":"Feature","geometry":{"type":"Point","coordinates":[6.0824,44.58013]},"properties":{"nom":"Camping Alpes Dauphiné","sub":"Camping","cm":"05000#Gap","web":"http://www.alpesdauphine.com/","uri":"https://data.datatourisme.fr/13/bb5c2d6a-117f-3b49-8c88-5accdc36014e","dept":"05","reg":"pac"}},{"type":"Feature","geometry":{"type":"Point","coordinates":[5.86361,44.22123]},"properties":{"nom":"Camping Ushuaïa Villages Les Myotis","sub":"Camping","cm":"05300#Val Buëch-Méouge","web":"http://www.camping-les-myotis.com/","uri":"https://data.datatourisme.fr/13/def478c6-6b61-3076-a1ab-4fae86dfdfa6","dept":"05","reg":"pac"}},{"type":"Feature","geometry":{"type":"Point","coordinates":[6.63215,45.01911]},"properties":{"nom":"Chalet d'En Hô - Hôtel de Charme et Spa","sub":"Hotel","cm":"05100#Névache","web":"https://www.chaletdenho.fr/","uri":"https://data.datatourisme.fr/13/a01562cd-02a8-3155-a2a4-09d111a3da45","dept":"05","reg":"pac"}},{"type":"Feature","geometry":{"type":"Point","coordinates":[6.40104,44.52398]},"properties":{"nom":"Hôtel Les Sources","sub":"Hotel","cm":"05160#Savines-le-Lac","web":"https://www.hotel-les-sources.com/fr","uri":"https://data.datatourisme.fr/13/f79ec07c-022a-34de-bf35-9aec111d8b0d","dept":"05","reg":"pac"}},{"type":"Feature","geometry":{"type":"Point","coordinates":[5.94101,44.69304]},"properties":{"nom":"Hôtel La Souloise**","sub":"Hotel","cm":"05250#Dévoluy","web":"http://www.lasouloise.com/","uri":"https://data.datatourisme.fr/13/62616c06-75d7-3f08-86ac-822f0fb2367d","dept":"05","reg":"pac"}},{"type":"Feature","geometry":{"type":"Point","coordinates":[5.94131,44.69173]},"properties":{"nom":"Le Liéraver","sub":"CollectiveAccommodation","cm":"05250#Dévoluy","web":"http://www.gites-de-france-hautes-alpes.com/location-gite-groupe-1-cle-devoluy-le-devoluy-le-lieraver-joelle-cecille-3407.html?from=photos","uri":"https://data.datatourisme.fr/13/d1e24c83-3e7e-3a98-91e4-dabffa00b153","dept":"05","reg":"pac"}},{"type":"Feature","geometry":{"type":"Point","coordinates":[5.94073,44.69465]},"properties":{"nom":"Gîte La Tourtette","sub":"LodgingBusiness","cm":"05250#Dévoluy","web":"https://www.gites-de-france-hautes-alpes.com/location-vacances-Chambre-d-hotes-la-Tourtette-a-Devoluy-05G3401.html","uri":"https://data.datatourisme.fr/13/b95d28a7-8903-3f76-afee-aa1f024ff58a","dept":"05","reg":"pac"}},{"type":"Feature","geometry":{"type":"Point","coordinates":[5.94073,44.69465]},"properties":{"nom":"Chambres d'Hôtes La Tourtette","sub":"BedAndBreakfast","cm":"05250#Dévoluy","web":"https://www.gites-de-france-hautes-alpes.com/location-vacances-Chambre-d-hotes-la-Tourtette-a-Devoluy-05G3401.html","uri":"https://data.datatourisme.fr/13/f946e75a-c8bd-3028-8226-b15163b17edd","dept":"05","reg":"pac"}},{"type":"Feature","geometry":{"type":"Point","coordinates":[6.50508,44.97609]},"properties":{"nom":"Hôtel Résidence Les Colchiques","sub":"Hotel","cm":"05220#Le Monêtier-les-Bains","web":"https://www.hotel-lescolchiques.com/","uri":"https://data.datatourisme.fr/13/a5218978-f0c7-3310-8451-0e9626bc02b0","dept":"05","reg":"pac"}},{"type":"Feature","geometry":{"type":"Point","coordinates":[6.52402,44.60253]},"properties":{"nom":"Camping Hôtel de plein air Les Cariamas","sub":"Camping","cm":"05380#Châteauroux-les-Alpes","web":"http://www.cariamas.fr/","uri":"https://data.datatourisme.fr/13/40d68974-5be6-3027-821e-33fdda84e565","dept":"05","reg":"pac"}},{"type":"Feature","geometry":{"type":"Point","coordinates":[6.40874,44.52705]},"properties":{"nom":"Eden Lac","sub":"Hotel","cm":"05160#Savines-le-Lac","web":"http://www.edenlac.com/","uri":"https://data.datatourisme.fr/13/d141ae4f-5bd3-3c3e-842e-f0eaa625175f","dept":"05","reg":"pac"}},{"type":"Feature","geometry":{"type":"Point","coordinates":[6.61695,44.6747]},"properties":{"nom":"Hôtel Lacour","sub":"Hotel","cm":"05600#Eygliers","web":"http://www.hotel-lacour.com/","uri":"https://data.datatourisme.fr/13/049b675d-c437-3445-a87c-5df145a395dd","dept":"05","reg":"pac"}},{"type":"Feature","geometry":{"type":"Point","coordinates":[5.72257,44.42113]},"properties":{"nom":"Camping Domaine des 2 Soleils - Ciela Village","sub":"Camping","cm":"05700#Serres","web":"http://www.domaine-2soleils.com/","uri":"https://data.datatourisme.fr/13/c3133fcc-456a-3277-9afb-2d8e949f51d4","dept":"05","reg":"pac"}},{"type":"Feature","geometry":{"type":"Point","coordinates":[6.55978,44.9453]},"properties":{"nom":"Hôtel Mont Thabor","sub":"Hotel","cm":"05240#La Salle-les-Alpes","web":"http://www.hotelmontthabor.com/","uri":"https://data.datatourisme.fr/13/bd284c01-b45a-3fcc-a684-5639c39d5690","dept":"05","reg":"pac"}},{"type":"Feature","geometry":{"type":"Point","coordinates":[6.5062,44.55549]},"properties":{"nom":"Camping La Tour","sub":"Camping","cm":"05200#Embrun","web":null,"uri":"https://data.datatourisme.fr/13/bd937e65-947c-3aca-90ed-26ecd15667b9","dept":"05","reg":"pac"}},{"type":"Feature","geometry":{"type":"Point","coordinates":[6.49653,44.54829]},"properties":{"nom":"Camping Les Grillons","sub":"Camping","cm":"05200#Embrun","web":"http://www.campinglesgrillons.com/","uri":"https://data.datatourisme.fr/13/a7fdc6e5-fc6e-3896-991c-a27ce0933033","dept":"05","reg":"pac"}},{"type":"Feature","geometry":{"type":"Point","coordinates":[6.25846,44.55344]},"properties":{"nom":"Hôtel Restaurant Spa Ax'Hôtel","sub":"Hotel","cm":"05230#Chorges","web":"http://www.ax-hotel.com/","uri":"https://data.datatourisme.fr/13/0619647a-80b7-32a7-8e99-ec96acf8a18d","dept":"05","reg":"pac"}},{"type":"Feature","geometry":{"type":"Point","coordinates":[6.3082,45.04659]},"properties":{"nom":"Hôtel Le Serac","sub":"HotelRestaurant","cm":"05320#La Grave","web":"https://www.hotel-le-serac.com/","uri":"https://data.datatourisme.fr/13/ea204361-fe7f-324b-9301-43eb3e189a18","dept":"05","reg":"pac"}},{"type":"Feature","geometry":{"type":"Point","coordinates":[6.509,44.97571]},"properties":{"nom":"Hôtel Le Monêtier","sub":"HotelRestaurant","cm":"05220#Le Monêtier-les-Bains","web":"https://www.lemonetier.com/","uri":"https://data.datatourisme.fr/13/3893ad9f-5410-315a-87a2-cec6b56131fc","dept":"05","reg":"pac"}},{"type":"Feature","geometry":{"type":"Point","coordinates":[5.662,44.45507]},"properties":{"nom":"La Pastorale","sub":"BedAndBreakfast","cm":"05700#Sigottier","web":"http://www.lafermedelamontagne.com/","uri":"https://data.datatourisme.fr/13/8f0f4a63-1eea-3e93-bccf-9c6932a0a933","dept":"05","reg":"pac"}},{"type":"Feature","geometry":{"type":"Point","coordinates":[5.66439,44.45548]},"properties":{"nom":"Gîte Les Drailles","sub":"LodgingBusiness","cm":"05700#Sigottier","web":"http://www.lafermedelamontagne.com/","uri":"https://data.datatourisme.fr/13/1047e8f5-047e-3c8c-a9cb-73e0740ec903","dept":"05","reg":"pac"}},{"type":"Feature","geometry":{"type":"Point","coordinates":[5.66439,44.45548]},"properties":{"nom":"Gîte Les Pampilles","sub":"LodgingBusiness","cm":"05700#Sigottier","web":"http://www.lafermedelamontagne.com/","uri":"https://data.datatourisme.fr/13/87d3c8b0-02ff-31f3-8078-82af9088f9c6","dept":"05","reg":"pac"}},{"type":"Feature","geometry":{"type":"Point","coordinates":[6.63875,44.89805]},"properties":{"nom":"Hôtel Edelweiss","sub":"Hotel","cm":"05100#Briançon","web":"http://www.hotel-edelweiss-briancon.fr/","uri":"https://data.datatourisme.fr/13/463c108a-ee2d-3f01-8f50-8a31ee91fb20","dept":"05","reg":"pac"}},{"type":"Feature","geometry":{"type":"Point","coordinates":[6.56107,44.74199]},"properties":{"nom":"Camping les Allouviers","sub":"Camping","cm":"05310#Freissinières","web":"http://www.camping-freissinieres.fr/","uri":"https://data.datatourisme.fr/13/524f02b6-c27e-3434-8b27-b247479d2557","dept":"05","reg":"pac"}},{"type":"Feature","geometry":{"type":"Point","coordinates":[6.61005,44.67805]},"properties":{"nom":"Camping du Lac - Les Iscles","sub":"Camping","cm":"05600#Eygliers","web":"https://www.aucampingdulac.fr/","uri":"https://data.datatourisme.fr/13/94004eea-12c2-3912-bfae-e1ff3d680cca","dept":"05","reg":"pac"}},{"type":"Feature","geometry":{"type":"Point","coordinates":[6.61005,44.67805]},"properties":{"nom":"Pods au Camping du Lac Les Iscles","sub":"Camping","cm":"05600#Eygliers","web":"https://www.aucampingdulac.fr/","uri":"https://data.datatourisme.fr/13/7a5e66db-9365-324c-b5e5-a293ca2e4ffb","dept":"05","reg":"pac"}},{"type":"Feature","geometry":{"type":"Point","coordinates":[6.49258,44.53957]},"properties":{"nom":"Camping Les 2 Bois","sub":"Camping","cm":"05200#Baratier","web":"http://www.camping-les2bois.com/","uri":"https://data.datatourisme.fr/13/c3d2ed33-4dbe-3b42-acbf-0f4beb330e6d","dept":"05","reg":"pac"}},{"type":"Feature","geometry":{"type":"Point","coordinates":[6.60505,44.67694]},"properties":{"nom":"Camping de La Fontaine - Onlycamp","sub":"Camping","cm":"05600#Réotier","web":"http://camping-reotier.fr/","uri":"https://data.datatourisme.fr/13/705505fe-377a-3816-a940-8d40268e293c","dept":"05","reg":"pac"}},{"type":"Feature","geometry":{"type":"Point","coordinates":[6.63481,44.89643]},"properties":{"nom":"Hôtel de la Chaussée","sub":"HotelRestaurant","cm":"05100#Briançon","web":"http://www.hotel-de-la-chaussee.com/","uri":"https://data.datatourisme.fr/13/2606d451-1203-3105-8cdb-44b3c51848da","dept":"05","reg":"pac"}},{"type":"Feature","geometry":{"type":"Point","coordinates":[6.30087,45.04469]},"properties":{"nom":"Poulet Marie - Les Enfetchores n°58","sub":"LodgingBusiness","cm":"05320#La Grave","web":"http://www.les-enfetchores.com/","uri":"https://data.datatourisme.fr/13/d2a27e83-d429-30dc-ae6b-937cf440aeb1","dept":"05","reg":"pac"}},{"type":"Feature","geometry":{"type":"Point","coordinates":[5.56317,44.46146]},"properties":{"nom":"Gîte de Praboyer","sub":"CollectiveAccommodation","cm":"05150#Valdoule","web":"http://www.gitedepraboyer.com/","uri":"https://data.datatourisme.fr/13/40ba1050-9f3f-3c40-83e2-5f4eee2ad058","dept":"05","reg":"pac"}},{"type":"Feature","geometry":{"type":"Point","coordinates":[5.53267,44.40449]},"properties":{"nom":"Cabanes d'hôtes Terre des Baronnies","sub":"BedAndBreakfast","cm":"05150#Ribeyret","web":"http://www.terredesbaronnies.com/","uri":"https://data.datatourisme.fr/13/b113cc74-9bac-3002-ae4d-7c532076d6b0","dept":"05","reg":"pac"}},{"type":"Feature","geometry":{"type":"Point","coordinates":[6.58151,44.74686]},"properties":{"nom":"Camping du Lac","sub":"Camping","cm":"05310#La Roche-de-Rame","web":"http://www.camping-du-lac-05.fr/","uri":"https://data.datatourisme.fr/13/129db5d4-97d6-3527-b946-f47268d8bdc7","dept":"05","reg":"pac"}},{"type":"Feature","geometry":{"type":"Point","coordinates":[6.55502,44.50017]},"properties":{"nom":"Sunêlia Les Logis d'Orres- Hébergement collectif","sub":"HolidayResort","cm":"05200#Les Orres","web":"https://www.leslogisdorres.fr/","uri":"https://data.datatourisme.fr/13/88ef9eef-eb04-3556-8232-db62359abb95","dept":"05","reg":"pac"}},{"type":"Feature","geometry":{"type":"Point","coordinates":[6.63829,44.65877]},"properties":{"nom":"Camping La Rochette - Onlycamp","sub":"Camping","cm":"05600#Guillestre","web":"https://www.campingdeguillestre.fr/","uri":"https://data.datatourisme.fr/13/97792dde-352d-30ae-bd00-08196bd64d94","dept":"05","reg":"pac"}},{"type":"Feature","geometry":{"type":"Point","coordinates":[5.6529,44.29858]},"properties":{"nom":"Camping Les Catoyes","sub":"Camping","cm":"05700#Sainte-Colombe","web":"http://www.camping-lescatoyes.com/","uri":"https://data.datatourisme.fr/13/4850860f-5521-392d-a5d4-1261e5b6066a","dept":"05","reg":"pac"}},{"type":"Feature","geometry":{"type":"Point","coordinates":[5.70902,44.61679]},"properties":{"nom":"Hôtel \"Les Alpins\"","sub":"HotelRestaurant","cm":"05140#Saint-Julien-en-Beauchêne","web":"http://www.hotel-les-alpins.fr/","uri":"https://data.datatourisme.fr/13/fe91d9a2-0f75-3811-955c-efb5adc12750","dept":"05","reg":"pac"}},{"type":"Feature","geometry":{"type":"Point","coordinates":[5.72812,44.40563]},"properties":{"nom":"Au gîte de la Germanette - Maison de vacances","sub":"LodgingBusiness","cm":"05700#Serres","web":"http://www.buech-gite.com/","uri":"https://data.datatourisme.fr/13/34e95dac-9675-3c09-b043-669b0fcef9b6","dept":"05","reg":"pac"}},{"type":"Feature","geometry":{"type":"Point","coordinates":[5.72812,44.40563]},"properties":{"nom":"Au gîte de la Germanette - Studio de vacances","sub":"LodgingBusiness","cm":"05700#Serres","web":"http://www.buech-gite.com/","uri":"https://data.datatourisme.fr/13/4d9f6146-dbfa-3446-b24a-c37cf47ff640","dept":"05","reg":"pac"}},{"type":"Feature","geometry":{"type":"Point","coordinates":[6.58027,44.8541]},"properties":{"nom":"Brin De Paille","sub":"BedAndBreakfast","cm":"05120#Saint-Martin-de-Queyrières","web":"https://brindepaille.com/","uri":"https://data.datatourisme.fr/13/6043ec5c-5b94-3909-885b-5db4faa58bb8","dept":"05","reg":"pac"}},{"type":"Feature","geometry":{"type":"Point","coordinates":[6.46361,45.015]},"properties":{"nom":"L'Aiguillette du Lauzet","sub":"CollectiveAccommodation","cm":"05220#Le Monêtier-les-Bains","web":"http://www.gite-aiguillette.com/","uri":"https://data.datatourisme.fr/13/beede897-2c7e-337c-8942-d09e18974c98","dept":"05","reg":"pac"}},{"type":"Feature","geometry":{"type":"Point","coordinates":[6.72147,44.86883]},"properties":{"nom":"Hotel d'Izoard - Le Petit Cerf - Mountain Lodge","sub":"HotelRestaurant","cm":"05100#Cervières","web":"https://www.hotel-petitcerf.com/","uri":"https://data.datatourisme.fr/13/ef6d247b-eba5-3778-8356-fd0b16078066","dept":"05","reg":"pac"}},{"type":"Feature","geometry":{"type":"Point","coordinates":[6.63311,44.89575]},"properties":{"nom":"Hôtel Mont Brison","sub":"Hotel","cm":"05100#Briançon","web":null,"uri":"https://data.datatourisme.fr/13/8c30d18e-d794-39d7-985f-cd7a125e0486","dept":"05","reg":"pac"}},{"type":"Feature","geometry":{"type":"Point","coordinates":[6.45314,44.53824]},"properties":{"nom":"Camping Municipal la Garenne","sub":"Camping","cm":"05200#Crots","web":"https://www.lagarenne-crots.com/","uri":"https://data.datatourisme.fr/13/ee43b2c1-2f6a-3bd0-9b8d-23b7ffc3ad00","dept":"05","reg":"pac"}},{"type":"Feature","geometry":{"type":"Point","coordinates":[6.68246,44.57029]},"properties":{"nom":"Les Escondus","sub":"HotelRestaurant","cm":"05560#Vars","web":"http://www.escondus.com/","uri":"https://data.datatourisme.fr/13/bed42e8a-9d07-3b93-a28a-802f039a03a1","dept":"05","reg":"pac"}},{"type":"Feature","geometry":{"type":"Point","coordinates":[6.55352,44.9448]},"properties":{"nom":"Auberge de Jeunesse HI Serre Chevalier","sub":"Hostel","cm":"05240#La Salle-les-Alpes","web":"https://www.hifrance.org/auberges-de-jeunesse/serre-chevalier/","uri":"https://data.datatourisme.fr/13/a32914d5-908d-3ebb-8c62-befc5e09d33d","dept":"05","reg":"pac"}},{"type":"Feature","geometry":{"type":"Point","coordinates":[6.57694,44.93856]},"properties":{"nom":"Hôtel Club Vacances Bleues Les Alpes d'Azur","sub":"Hotel","cm":"05240#La Salle-les-Alpes","web":"http://www.vacancesbleues.fr/destination/hotel-club-serre-chevalier-les-alpes-d-azur-club-vacances-bleues-hebergement-la-salle-les-alpes-hautes-alpes-68783005fd54d6113b569405a7fd8_19953811977110b2c21438e0fb9277ffe_fr_1.html#onglets","uri":"https://data.datatourisme.fr/13/d5bfe578-6043-3a9d-a5c9-c06e56db0470","dept":"05","reg":"pac"}},{"type":"Feature","geometry":{"type":"Point","coordinates":[6.12828,44.65905]},"properties":{"nom":"Les Chenets","sub":"HotelRestaurant","cm":"05500#Saint-Julien-en-Champsaur","web":"http://www.les-chenets.com/","uri":"https://data.datatourisme.fr/13/e54ba435-940a-366d-ace3-9cd26dc37de3","dept":"05","reg":"pac"}},{"type":"Feature","geometry":{"type":"Point","coordinates":[6.30092,45.04454]},"properties":{"nom":"Poulet Marie - Les Enfetchores n°40","sub":"LodgingBusiness","cm":"05320#La Grave","web":"https://www.les-enfetchores.com/appartements/rooms/ec046bdf-c5e2-494f-95f0-1a20402df0b6","uri":"https://data.datatourisme.fr/13/ae1eaa32-d10b-3c88-a981-755d579fb4d8","dept":"05","reg":"pac"}},{"type":"Feature","geometry":{"type":"Point","coordinates":[6.05302,44.53642]},"properties":{"nom":"Hôtel Restaurant Nestor Hôtel","sub":"HotelRestaurant","cm":"05000#Gap","web":"https://hotel-nestor.fr/hotel-nestor-gap/","uri":"https://data.datatourisme.fr/13/c3b1a20d-39b7-374e-87e6-65af0fd94337","dept":"05","reg":"pac"}},{"type":"Feature","geometry":{"type":"Point","coordinates":[6.86319,44.78021]},"properties":{"nom":"Les Balcons de Combe Rousset","sub":"Hotel","cm":"05470#Aiguilles","web":"https://hotelcomberousset.com/","uri":"https://data.datatourisme.fr/13/844b91fd-61d3-3d8a-b674-be52b1f406bb","dept":"05","reg":"pac"}},{"type":"Feature","geometry":{"type":"Point","coordinates":[6.52666,44.8244]},"properties":{"nom":"Camping le Courounba - Les Etapes André Trigano","sub":"Camping","cm":"05120#Les Vigneaux","web":"https://vacances-andretrigano.com/camping/hautes-alpes/le-courounba-les-vigneaux","uri":"https://data.datatourisme.fr/13/98319696-1302-32af-be5d-c482a14b4332","dept":"05","reg":"pac"}},{"type":"Feature","geometry":{"type":"Point","coordinates":[6.4658,45.01791]},"properties":{"nom":"Auberge du Pont de l'Alp","sub":"HotelRestaurant","cm":"05220#Le Monêtier-les-Bains","web":"https://www.aubergepontdelalp.com/","uri":"https://data.datatourisme.fr/13/f90c88fa-bf25-3993-8cfd-6272063be992","dept":"05","reg":"pac"}},{"type":"Feature","geometry":{"type":"Point","coordinates":[6.58588,44.93473]},"properties":{"nom":"Résidence Lagrange Vacances Le Hameau du Rocher Blanc","sub":"HolidayResort","cm":"05330#Saint-Chaffrey","web":"http://www.vacances-lagrange.com/index.php?page=logements&station=SERCHE&code_logement=L&residence=HAME&onglet=residence","uri":"https://data.datatourisme.fr/13/25357cb8-b4c8-38ef-a2ec-a7a077d6b742","dept":"05","reg":"pac"}},{"type":"Feature","geometry":{"type":"Point","coordinates":[6.63426,44.6221]},"properties":{"nom":"Hotel Snow Chill and Spa ****","sub":"HotelRestaurant","cm":"05600#Risoul","web":"https://www.hotel-snowchill.com/","uri":"https://data.datatourisme.fr/13/abdb1d8e-d84f-3525-b348-ea51bd069773","dept":"05","reg":"pac"}},{"type":"Feature","geometry":{"type":"Point","coordinates":[6.71667,44.79971]},"properties":{"nom":"Camping de l'Izoard","sub":"Camping","cm":"05350#Arvieux","web":"http://www.campingdelizoard.com/","uri":"https://data.datatourisme.fr/13/871e81fd-5752-339a-9e6c-f89f0812fe3e","dept":"05","reg":"pac"}},{"type":"Feature","geometry":{"type":"Point","coordinates":[6.7165,44.79988]},"properties":{"nom":"\"Glamping\" au camping de l'Izoard","sub":"Camping","cm":"05350#Arvieux","web":"http://www.campingdelizoard.com/","uri":"https://data.datatourisme.fr/13/6fd4c590-f51b-3ba9-bbfb-a333a037c1ae","dept":"05","reg":"pac"}},{"type":"Feature","geometry":{"type":"Point","coordinates":[5.69675,44.31105]},"properties":{"nom":"Camping des Princes d'Orange","sub":"Camping","cm":"05700#Orpierre","web":"http://www.camping-princes-orange.fr/","uri":"https://data.datatourisme.fr/13/60c69091-8d9e-39de-98b8-253c637d9217","dept":"05","reg":"pac"}},{"type":"Feature","geometry":{"type":"Point","coordinates":[6.50103,44.53094]},"properties":{"nom":"Camping Les Airelles","sub":"Camping","cm":"05200#Baratier","web":"http://www.lesairelles.com/","uri":"https://data.datatourisme.fr/13/0525d4db-207b-3f8c-8950-3dbf4e3ebd3d","dept":"05","reg":"pac"}},{"type":"Feature","geometry":{"type":"Point","coordinates":[6.34015,44.52172]},"properties":{"nom":"Camping Sunêlia La Presqu'île","sub":"Camping","cm":"05230#Prunières","web":"https://www.campinglapresquile.com/","uri":"https://data.datatourisme.fr/13/5e93e5fe-b5e0-3ba6-85a6-64f9a95a535b","dept":"05","reg":"pac"}},{"type":"Feature","geometry":{"type":"Point","coordinates":[5.72903,44.35184]},"properties":{"nom":"Gîte du Mont Garde","sub":"CollectiveAccommodation","cm":"05700#Trescléoux","web":"http://www.gitemontgarde-buech-baronnies.com/","uri":"https://data.datatourisme.fr/13/94f527ff-26e7-3898-9938-f02a1ef894b8","dept":"05","reg":"pac"}},{"type":"Feature","geometry":{"type":"Point","coordinates":[6.40073,44.52636]},"properties":{"nom":"Hôtel Les Flots Bleus","sub":"Hotel","cm":"05160#Savines-le-Lac","web":"https://www.les-flots-bleus.fr/","uri":"https://data.datatourisme.fr/13/96963b43-2399-346d-ae97-2425efa5c9c6","dept":"05","reg":"pac"}},{"type":"Feature","geometry":{"type":"Point","coordinates":[6.61126,44.87796]},"properties":{"nom":"Le Relais de Nature - Archipel Accueil International","sub":"Hostel","cm":"05100#Briançon","web":"https://archipel-vacances.fr/<>https://archipel-vacances.fr/ethic-etapes-le-relais-de-nature/","uri":"https://data.datatourisme.fr/13/89284e37-081e-3931-aed9-c9670fcc2945","dept":"05","reg":"pac"}},{"type":"Feature","geometry":{"type":"Point","coordinates":[5.85994,44.22694]},"properties":{"nom":"L'Olivier","sub":"BedAndBreakfast","cm":"05300#Val Buëch-Méouge","web":"https://www.lolivier-chambreshotes.fr/","uri":"https://data.datatourisme.fr/13/606fe4e0-a454-3f59-a5a5-88aba82e8dd8","dept":"05","reg":"pac"}},{"type":"Feature","geometry":{"type":"Point","coordinates":[5.87345,44.42781]},"properties":{"nom":"Gîte des Oustaus","sub":"LodgingBusiness","cm":"05110#Barcillonnette","web":"http://refugedesoustaus.fr/","uri":"https://data.datatourisme.fr/13/97055e31-fb49-38ff-8721-445c711ff672","dept":"05","reg":"pac"}},{"type":"Feature","geometry":{"type":"Point","coordinates":[5.68465,44.53136]},"properties":{"nom":"Camping La Source","sub":"Camping","cm":"05140#Saint-Pierre-d'Argençon","web":"http://www.lasource-hautesalpes.com/","uri":"https://data.datatourisme.fr/13/c8d49883-f374-3347-8468-121e9b5e53c1","dept":"05","reg":"pac"}},{"type":"Feature","geometry":{"type":"Point","coordinates":[6.52785,44.60222]},"properties":{"nom":"Camping Les Eygas","sub":"Camping","cm":"05380#Châteauroux-les-Alpes","web":"https://alpescamping.fr/","uri":"https://data.datatourisme.fr/13/283e8e30-082b-31de-8bab-8fdc86964d69","dept":"05","reg":"pac"}},{"type":"Feature","geometry":{"type":"Point","coordinates":[6.30444,44.49938]},"properties":{"nom":"Hôtel Club Les Hyvans","sub":"CollectiveAccommodation","cm":"05230#Chorges","web":"https://vacances.probtp.com/clubs/hyvans-lac-serre-poncon","uri":"https://data.datatourisme.fr/13/759e3221-cac9-328e-b968-84fcc8cc1fe2","dept":"05","reg":"pac"}},{"type":"Feature","geometry":{"type":"Point","coordinates":[6.61695,44.6747]},"properties":{"nom":"Hôtel de la gare","sub":"Hotel","cm":"05600#Eygliers","web":"http://www.hotel-lacour.com/","uri":"https://data.datatourisme.fr/13/9824878e-5870-3e41-9905-52340a2a9c1c","dept":"05","reg":"pac"}},{"type":"Feature","geometry":{"type":"Point","coordinates":[6.69007,44.59474]},"properties":{"nom":"La Vieille Auberge","sub":"HotelRestaurant","cm":"05560#Vars","web":"http://www.la-vieille-auberge-vars.fr/","uri":"https://data.datatourisme.fr/13/1e3b6e6a-562a-32ca-a43e-526b5dcc4233","dept":"05","reg":"pac"}},{"type":"Feature","geometry":{"type":"Point","coordinates":[6.3226,44.52192]},"properties":{"nom":"Camping Baie de La Chapelle Vacances André Trigano","sub":"Camping","cm":"05230#Chorges","web":"https://vacances-andretrigano.com/camping/hautes-alpes/baie-de-la-chapelle-chorges","uri":"https://data.datatourisme.fr/13/206841a0-b3e0-3aa7-a2fe-d40190ee65f1","dept":"05","reg":"pac"}},{"type":"Feature","geometry":{"type":"Point","coordinates":[6.55911,44.79482]},"properties":{"nom":"Hôtel Glaizette","sub":"HotelRestaurant","cm":"05120#L'Argentière-la-Bessée","web":"http://www.hotelglaizette.fr/","uri":"https://data.datatourisme.fr/13/45678679-88ab-356c-a7a2-c8af9e877d61","dept":"05","reg":"pac"}},{"type":"Feature","geometry":{"type":"Point","coordinates":[6.06351,44.5464]},"properties":{"nom":"Logis Havvah Hôtel Gap","sub":"Hotel","cm":"05000#Gap","web":"https://www.gap-hotel.com/fr","uri":"https://data.datatourisme.fr/13/52943d0a-8e86-33c8-822d-c46f7517a445","dept":"05","reg":"pac"}},{"type":"Feature","geometry":{"type":"Point","coordinates":[5.84838,44.6393]},"properties":{"nom":"Gîte de l'Yvraie","sub":"CollectiveAccommodation","cm":"05250#Dévoluy","web":"https://gite-de-lyvraie.com/","uri":"https://data.datatourisme.fr/13/f5174dff-ba05-3828-8f71-8c81e0a0a409","dept":"05","reg":"pac"}},{"type":"Feature","geometry":{"type":"Point","coordinates":[6.66561,44.57314]},"properties":{"nom":"Le Chal'heureux","sub":"HotelRestaurant","cm":"05560#Vars","web":"http://www.chalheureux.com/","uri":"https://data.datatourisme.fr/13/2794c2f8-f5b1-3a15-a359-b5205eb1ff12","dept":"05","reg":"pac"}},{"type":"Feature","geometry":{"type":"Point","coordinates":[6.20138,44.62009]},"properties":{"nom":"La Maison du vélo","sub":"Rental","cm":"05260#Ancelle","web":"https://lamaisonduveloancelle.fr/","uri":"https://data.datatourisme.fr/13/6b4eefd4-e770-318e-ae99-15234b308aad","dept":"05","reg":"pac"}},{"type":"Feature","geometry":{"type":"Point","coordinates":[6.23504,44.4596]},"properties":{"nom":"Camping Les Gorges De La Blanche","sub":"Camping","cm":"05190#Rochebrune","web":"https://gorges-de-la-blanche.com/","uri":"https://data.datatourisme.fr/13/c74ccb5a-8d18-33fa-8b77-d6771fc1bc5c","dept":"05","reg":"pac"}},{"type":"Feature","geometry":{"type":"Point","coordinates":[5.89549,44.73523]},"properties":{"nom":"Gîte de Saint Disdier","sub":"CollectiveAccommodation","cm":"05250#Dévoluy","web":"https://www.gite-devoluy.com/fr","uri":"https://data.datatourisme.fr/13/758f461a-6b27-34f7-8554-0efc139fa0ac","dept":"05","reg":"pac"}},{"type":"Feature","geometry":{"type":"Point","coordinates":[6.02946,44.72774]},"properties":{"nom":"Le Champ des Cimes","sub":"Camping","cm":"05800#Aubessagne","web":"https://www.lechampdescimes.com/","uri":"https://data.datatourisme.fr/13/787bed17-da0a-3413-8ede-7a293d742f7c","dept":"05","reg":"pac"}},{"type":"Feature","geometry":{"type":"Point","coordinates":[6.31903,44.69486]},"properties":{"nom":"Hôtels Les Catrems et Montagnou","sub":"Hotel","cm":"05170#Orcières","web":"https://www.hotelorciereslescatrems.com/","uri":"https://data.datatourisme.fr/13/807baa41-5c5a-3bc5-9396-8b2723033534","dept":"05","reg":"pac"}},{"type":"Feature","geometry":{"type":"Point","coordinates":[6.16763,44.68204]},"properties":{"nom":"Auberge Le Vieux Chaillol","sub":"HotelRestaurant","cm":"05260#Saint-Michel-de-Chaillol","web":"http://www.levieuxchaillol.com/","uri":"https://data.datatourisme.fr/13/46061c93-4541-36c4-b8a9-63ef6bd3cc6b","dept":"05","reg":"pac"}},{"type":"Feature","geometry":{"type":"Point","coordinates":[6.8706,44.783]},"properties":{"nom":"La P'tite Auberge","sub":"CollectiveAccommodation","cm":"05470#Aiguilles","web":"http://www.auberge-queyras.com/","uri":"https://data.datatourisme.fr/13/fd9acefa-6616-33af-bf69-e5231179ec2a","dept":"05","reg":"pac"}},{"type":"Feature","geometry":{"type":"Point","coordinates":[6.47503,44.49852]},"properties":{"nom":"Gîte de la Draye","sub":"CollectiveAccommodation","cm":"05200#Crots","web":null,"uri":"https://data.datatourisme.fr/13/ac98bf76-e545-3081-a5d9-4e237dfb742c","dept":"05","reg":"pac"}},{"type":"Feature","geometry":{"type":"Point","coordinates":[6.33505,45.04296]},"properties":{"nom":"Gîte d'étape Les Mélèzes - Allirand Frédérique","sub":"CollectiveAccommodation","cm":"05480#Villar-d'Arêne","web":"http://gite-les-melezes.fr/","uri":"https://data.datatourisme.fr/13/9efb049c-f4f6-33cf-b99f-f19420ef95fb","dept":"05","reg":"pac"}},{"type":"Feature","geometry":{"type":"Point","coordinates":[6.16598,44.68943]},"properties":{"nom":"La Bagatelle","sub":"HotelRestaurant","cm":"05260#Saint-Michel-de-Chaillol","web":"http://www.hotel-labagatelle.fr/","uri":"https://data.datatourisme.fr/13/f6b9a3ff-286a-3836-8551-afe47201108f","dept":"05","reg":"pac"}},{"type":"Feature","geometry":{"type":"Point","coordinates":[5.73451,44.52089]},"properties":{"nom":"Camping du Chevalet","sub":"Camping","cm":"05140#Aspres-sur-Buëch","web":"http://www.campingduchevalet.fr/","uri":"https://data.datatourisme.fr/13/41b67831-82bf-3694-a814-473dfcbf4ef2","dept":"05","reg":"pac"}},{"type":"Feature","geometry":{"type":"Point","coordinates":[6.50761,44.97563]},"properties":{"nom":"Maison Alliey & Spa Appart-Hôtel","sub":"HolidayResort","cm":"05220#Le Monêtier-les-Bains","web":"http://www.alliey.com/","uri":"https://data.datatourisme.fr/13/fe99bf9e-78c5-3766-9310-2009d9e9e94f","dept":"05","reg":"pac"}},{"type":"Feature","geometry":{"type":"Point","coordinates":[6.48234,44.98672]},"properties":{"nom":"Hotel - Gîte Le Rebanchon","sub":"CollectiveAccommodation","cm":"05220#Le Monêtier-les-Bains","web":"http://lerebanchon.com/","uri":"https://data.datatourisme.fr/13/5a4d8da0-b4c0-393d-9d9b-3343e6d965ac","dept":"05","reg":"pac"}},{"type":"Feature","geometry":{"type":"Point","coordinates":[6.50925,44.97437]},"properties":{"nom":"Le Flourou","sub":"CollectiveAccommodation","cm":"05220#Le Monêtier-les-Bains","web":"http://www.leflourou.com/","uri":"https://data.datatourisme.fr/13/5fe7ac29-47af-3947-a6a8-dd4e3281b2c0","dept":"05","reg":"pac"}},{"type":"Feature","geometry":{"type":"Point","coordinates":[5.70935,44.61673]},"properties":{"nom":"Hôtel Bermond","sub":"Hotel","cm":"05140#Saint-Julien-en-Beauchêne","web":"https://hotelbermond.fr/","uri":"https://data.datatourisme.fr/13/df415b27-9fd3-3479-a949-0e2c7530baac","dept":"05","reg":"pac"}},{"type":"Feature","geometry":{"type":"Point","coordinates":[6.02938,44.72789]},"properties":{"nom":"Gîte Le Banc du Peyron  - Le Champ des Cimes","sub":"LodgingBusiness","cm":"05800#Aubessagne","web":"https://www.lechampdescimes.com/<>https://www.airbnb.fr/rooms/1279422882232835554?check_in=2025-01-10&check_out=2025-01-12&guests=1&adults=6&s=67&unique_share_id=41df5725-fea9-4915-bcd1-c0f33c60279f","uri":"https://data.datatourisme.fr/13/54641379-404b-30de-936f-8764be6630a2","dept":"05","reg":"pac"}},{"type":"Feature","geometry":{"type":"Point","coordinates":[6.02938,44.72789]},"properties":{"nom":"Gîte Le Queyrel  - Le Champ des Cimes","sub":"LodgingBusiness","cm":"05800#Aubessagne","web":"https://www.lechampdescimes.com/<>https://www.airbnb.fr/rooms/40231870?source_impression_id=p3_1732785942_P35gdZzn5AOn4yLd","uri":"https://data.datatourisme.fr/13/24c4b6cd-5aaf-362c-a58d-f807b98e69cb","dept":"05","reg":"pac"}},{"type":"Feature","geometry":{"type":"Point","coordinates":[5.82547,44.31407]},"properties":{"nom":"Hôtel Les Terrasses","sub":"HotelRestaurant","cm":"05300#Laragne-Montéglin","web":"https://www.lesterrasseslaragne.fr/","uri":"https://data.datatourisme.fr/13/389aaafb-baf3-3add-8144-87fb6a1ea607","dept":"05","reg":"pac"}},{"type":"Feature","geometry":{"type":"Point","coordinates":[5.72781,44.41091]},"properties":{"nom":"Le Cheval Blanc","sub":"BedAndBreakfast","cm":"05700#Serres","web":null,"uri":"https://data.datatourisme.fr/13/0283c5bc-c481-308a-9e45-0aeb7cc16fa8","dept":"05","reg":"pac"}},{"type":"Feature","geometry":{"type":"Point","coordinates":[6.51722,44.61611]},"properties":{"nom":"Camping Les Pins","sub":"Camping","cm":"05380#Châteauroux-les-Alpes","web":"https://campinglespins-05.com/","uri":"https://data.datatourisme.fr/13/458ec8d9-0a11-3183-9b4f-de4efb596bdc","dept":"05","reg":"pac"}},{"type":"Feature","geometry":{"type":"Point","coordinates":[6.86216,44.69903]},"properties":{"nom":"L'Estoilies","sub":"CollectiveAccommodation","cm":"05350#Saint-Véran","web":"http://www.estoilies.com/","uri":"https://data.datatourisme.fr/13/e99cd961-3c91-3c54-9cd9-3a56571dbbd3","dept":"05","reg":"pac"}},{"type":"Feature","geometry":{"type":"Point","coordinates":[6.7574,44.74509]},"properties":{"nom":"La Fruitière","sub":"CollectiveAccommodation","cm":"05350#Arvieux","web":"https://www.lafruitiereduqueyras.com/","uri":"https://data.datatourisme.fr/13/a728d25e-8a36-3e39-9924-1c86444933bb","dept":"05","reg":"pac"}},{"type":"Feature","geometry":{"type":"Point","coordinates":[6.05125,44.48353]},"properties":{"nom":"E-Pedal location et balades à vélo électrique","sub":"Rental","cm":"05000#Châteauvieux","web":"http://www.e-pedal.fr/","uri":"https://data.datatourisme.fr/13/dc624c10-b91d-3ff4-849a-375736bf5dbf","dept":"05","reg":"pac"}},{"type":"Feature","geometry":{"type":"Point","coordinates":[6.5893,44.93223]},"properties":{"nom":"La Renardière - Archipel Accueil International","sub":"Hostel","cm":"05330#Saint-Chaffrey","web":"http://www.archipel-vacances.fr/","uri":"https://data.datatourisme.fr/13/59a4678a-d769-37b5-9b49-e7cc3f1913e6","dept":"05","reg":"pac"}},{"type":"Feature","geometry":{"type":"Point","coordinates":[6.33292,44.61564]},"properties":{"nom":"Le Gîte des 3 Cols","sub":"CollectiveAccommodation","cm":"05160#Réallon","web":"https://www.gitedes3cols.fr/","uri":"https://data.datatourisme.fr/13/379e4d06-f08a-3740-81ad-35386b94745f","dept":"05","reg":"pac"}},{"type":"Feature","geometry":{"type":"Point","coordinates":[6.48346,44.53643]},"properties":{"nom":"Les Chalets de Serre-Ponçon","sub":"CampingAndCaravanning","cm":"05200#Baratier","web":"https://www.leschaletsdeserreponcon.fr/","uri":"https://data.datatourisme.fr/13/f74afdfb-ff0d-304e-9a16-329c0e38cb34","dept":"05","reg":"pac"}},{"type":"Feature","geometry":{"type":"Point","coordinates":[6.61865,44.66665]},"properties":{"nom":"Guil-e-bike - Location de vélos","sub":"Rental","cm":"05600#Eygliers","web":"http://www.guil-ebike.com/","uri":"https://data.datatourisme.fr/13/1dfd377d-1007-3c79-b2fb-265f6dea56aa","dept":"05","reg":"pac"}},{"type":"Feature","geometry":{"type":"Point","coordinates":[6.19478,44.619]},"properties":{"nom":"Location MEYER Anne-Catherine -Gîte L'Establa","sub":"LodgingBusiness","cm":"05260#Ancelle","web":"http://www.giteancelle.fr/","uri":"https://data.datatourisme.fr/13/657d7908-fbda-3f3e-9f9e-eec0bb84c449","dept":"05","reg":"pac"}},{"type":"Feature","geometry":{"type":"Point","coordinates":[6.19478,44.619]},"properties":{"nom":"Location Mme MEYER Anne-Catherine - Gîte La Fenéria","sub":"LodgingBusiness","cm":"05260#Ancelle","web":"http://www.giteancelle.fr/","uri":"https://data.datatourisme.fr/13/d5b33197-ab8e-3fcb-a233-01bc2385fba4","dept":"05","reg":"pac"}},{"type":"Feature","geometry":{"type":"Point","coordinates":[6.61763,45.0198]},"properties":{"nom":"Le Men - Poulin - Edelweiss du Cros","sub":"LodgingBusiness","cm":"05100#Névache","web":"https://clareelocation.fr/wdk-listing/edelweiss-du-cros/","uri":"https://data.datatourisme.fr/13/c67c6536-0468-3283-9bd7-9815c53e1f41","dept":"05","reg":"pac"}},{"type":"Feature","geometry":{"type":"Point","coordinates":[6.19383,44.81732]},"properties":{"nom":"Les Mélèzes","sub":"Camping","cm":"05800#La Chapelle-en-Valgaudémar","web":"https://www.ecrin-des-alpes-en-valgaudemar.com/","uri":"https://data.datatourisme.fr/13/395c2670-990f-31e8-af0f-55c5f9a4e305","dept":"05","reg":"pac"}},{"type":"Feature","geometry":{"type":"Point","coordinates":[6.68453,44.57271]},"properties":{"nom":"SOWELL HÔTELS L'Alpe Blanche","sub":"HotelRestaurant","cm":"05560#Vars","web":"https://www.sowell.fr/hotel/lalpe-blanche/","uri":"https://data.datatourisme.fr/13/0c13d02f-beb3-36ad-a44c-b1b93ed31e40","dept":"05","reg":"pac"}},{"type":"Feature","geometry":{"type":"Point","coordinates":[6.61765,44.89326]},"properties":{"nom":"Gite Auberge La Maison de Catherine","sub":"HotelRestaurant","cm":"05100#Puy-Saint-Pierre","web":"https://lamaisondecatherine.fr/","uri":"https://data.datatourisme.fr/13/f9048d1d-75d0-377c-840d-6ff9a9c2dc11","dept":"05","reg":"pac"}},{"type":"Feature","geometry":{"type":"Point","coordinates":[6.82241,44.76101]},"properties":{"nom":"Les Astragales","sub":"CollectiveAccommodation","cm":"05350#Château-Ville-Vieille","web":"https://gitelesastragales.fr/site/fr","uri":"https://data.datatourisme.fr/13/9b9ea247-8bb2-3e67-85a5-ed5e4c450a50","dept":"05","reg":"pac"}},{"type":"Feature","geometry":{"type":"Point","coordinates":[6.62441,44.669]},"properties":{"nom":"Le Pavillon des Officiers - ODCVL","sub":"HolidayResort","cm":"05600#Mont-Dauphin","web":"https://odcvl.org/le-pavillon-des-officiers","uri":"https://data.datatourisme.fr/13/15c6be9b-f6ae-3ed2-a198-6bf6ebd4c768","dept":"05","reg":"pac"}},{"type":"Feature","geometry":{"type":"Point","coordinates":[5.65454,44.35562]},"properties":{"nom":"L'Alpage","sub":"LodgingBusiness","cm":"05700#Chanousse","web":"https://loustaoudoupastre.fr/","uri":"https://data.datatourisme.fr/13/04adddd2-d78f-31ad-9d06-f11c368bb9ee","dept":"05","reg":"pac"}},{"type":"Feature","geometry":{"type":"Point","coordinates":[5.65613,44.35551]},"properties":{"nom":"L'Estive","sub":"LodgingBusiness","cm":"05700#Chanousse","web":"https://loustaoudoupastre.fr/","uri":"https://data.datatourisme.fr/13/2047b16c-547d-3076-bb41-044e716ec1e9","dept":"05","reg":"pac"}},{"type":"Feature","geometry":{"type":"Point","coordinates":[6.00622,44.75615]},"properties":{"nom":"Le Bercail","sub":"HotelRestaurant","cm":"05800#Aubessagne","web":"http://www.bercail-hautes-alpes.com/","uri":"https://data.datatourisme.fr/13/17f6657a-d4a0-3653-a452-79f4a73e5667","dept":"05","reg":"pac"}},{"type":"Feature","geometry":{"type":"Point","coordinates":[6.63147,44.89702]},"properties":{"nom":"Garrigae Caserne de Briançon & Spa","sub":"HotelRestaurant","cm":"05100#Briançon","web":"https://garrigae.fr/etablissements/caserne-de-briancon/","uri":"https://data.datatourisme.fr/13/0df825d5-9fca-313d-8f7c-bc28cac8021c","dept":"05","reg":"pac"}},{"type":"Feature","geometry":{"type":"Point","coordinates":[6.40619,45.06209]},"properties":{"nom":"Beau Refuge du Galibier","sub":"CollectiveAccommodation","cm":"05220#Le Monêtier-les-Bains","web":"https://refugedugalibier.fr/index.php/fr/","uri":"https://data.datatourisme.fr/13/235397cc-8e3a-332b-9472-7b8a4cf86b0c","dept":"05","reg":"pac"}},{"type":"Feature","geometry":{"type":"Point","coordinates":[6.61869,44.90991]},"properties":{"nom":"CHALET LE MONT MILO (AMBR)","sub":"LodgingBusiness","cm":"05100#Briançon","web":"https://www.montmilo.com/","uri":"https://data.datatourisme.fr/13/a239a8cb-8eda-3363-9d6b-beaf39aab0e4","dept":"05","reg":"pac"}},{"type":"Feature","geometry":{"type":"Point","coordinates":[5.79971,44.51899]},"properties":{"nom":"Camping Solaire","sub":"Camping","cm":"05250#Dévoluy","web":"https://www.camping-solaire.fr/","uri":"https://data.datatourisme.fr/13/2da0ae42-c37d-3862-84da-5bee9fadff60","dept":"05","reg":"pac"}},{"type":"Feature","geometry":{"type":"Point","coordinates":[6.62402,44.66928]},"properties":{"nom":"Auberge de l'Echauguette","sub":"HotelRestaurant","cm":"05600#Mont-Dauphin","web":"https://www.auberge-echauguette.fr/","uri":"https://data.datatourisme.fr/13/3b89daf3-78ba-303f-b94f-adc3c8201629","dept":"05","reg":"pac"}},{"type":"Feature","geometry":{"type":"Point","coordinates":[6.73489,44.78088]},"properties":{"nom":"Intersport Montagne","sub":"Rental","cm":"05350#Arvieux","web":"http://www.intersport-arvieux.com/","uri":"https://data.datatourisme.fr/13/93f60d0a-5cf0-3667-bd55-bd2bfbb14399","dept":"05","reg":"pac"}},{"type":"Feature","geometry":{"type":"Point","coordinates":[6.64276,44.89841]},"properties":{"nom":"Maison Soyeuse","sub":"HotelRestaurant","cm":"05100#Briançon","web":"https://www.maison-soyeuse.com/<>https://www.the-social-club.com/destinations/","uri":"https://data.datatourisme.fr/13/19be771f-55ba-32a4-9134-dc7bdf9047ed","dept":"05","reg":"pac"}},{"type":"Feature","geometry":{"type":"Point","coordinates":[6.56179,44.94488]},"properties":{"nom":"Sportrent 1400","sub":"Rental","cm":"05240#La Salle-les-Alpes","web":"http://sport-rent.com/","uri":"https://data.datatourisme.fr/13/4641b6a0-1f0d-3801-afd5-30a67b04c215","dept":"05","reg":"pac"}},{"type":"Feature","geometry":{"type":"Point","coordinates":[6.08168,44.67902]},"properties":{"nom":"VVF Les Ecrins","sub":"CollectiveAccommodation","cm":"05500#Saint-Bonnet-en-Champsaur","web":"https://www.vvf.fr/location-vacances/vacances-saint-bonnet-en-champsaur-vvf-villages.html?startDate=&endDate=&adult=2&children=0&baby=0&animal=0","uri":"https://data.datatourisme.fr/13/32be0c5a-0a87-3795-ac06-37abb8bd0caf","dept":"05","reg":"pac"}},{"type":"Feature","geometry":{"type":"Point","coordinates":[6.5592,44.79296]},"properties":{"nom":"Foyer Culturel","sub":"Rental","cm":"05120#L'Argentière-la-Bessée","web":"http://www.ville-argentiere.fr/","uri":"https://data.datatourisme.fr/13/f08812c7-2f7b-3179-bc55-2d13cb51b3e0","dept":"05","reg":"pac"}},{"type":"Feature","geometry":{"type":"Point","coordinates":[6.10526,44.65745]},"properties":{"nom":"Location de kayak et stand-up paddle","sub":"Rental","cm":"05500#Saint-Julien-en-Champsaur","web":"https://actions-sportsnature.fr/","uri":"https://data.datatourisme.fr/13/baf647c1-911f-3526-9c5f-91556cd41b40","dept":"05","reg":"pac"}},{"type":"Feature","geometry":{"type":"Point","coordinates":[6.32652,44.69774]},"properties":{"nom":"Résidence de Tourisme  Rochebrune Le Vallon","sub":"HolidayResort","cm":"05170#Orcières","web":"http://www.odalys-vacances.com/location-montagne/alpes-du-sud/orcieres-merlette/rochebrune.html?tab=1&saison_b=h&datedebut=12/12/2015&duree=7","uri":"https://data.datatourisme.fr/13/ef78d9e6-5855-3f3d-b6c5-944023f5ef9b","dept":"05","reg":"pac"}},{"type":"Feature","geometry":{"type":"Point","coordinates":[5.69262,44.31361]},"properties":{"nom":"Vertige Sport, magasin d'escalade","sub":"Rental","cm":"05700#Orpierre","web":null,"uri":"https://data.datatourisme.fr/13/f67d1f75-de8d-3c35-9e3e-4b36e1f82537","dept":"05","reg":"pac"}},{"type":"Feature","geometry":{"type":"Point","coordinates":[5.79402,44.51702]},"properties":{"nom":"Location de matériel de via-ferrata","sub":"Rental","cm":"05400#Veynes","web":"http://accrolac.fr/","uri":"https://data.datatourisme.fr/13/b6819969-e020-37b4-b0bc-eb19a15c2915","dept":"05","reg":"pac"}},{"type":"Feature","geometry":{"type":"Point","coordinates":[6.58819,44.93431]},"properties":{"nom":"Sportrent 1350","sub":"Rental","cm":"05330#Saint-Chaffrey","web":"http://www.sport-rent.com/","uri":"https://data.datatourisme.fr/13/b677b27b-a059-3140-8130-ea0cca7c8ecc","dept":"05","reg":"pac"}},{"type":"Feature","geometry":{"type":"Point","coordinates":[6.37554,44.55323]},"properties":{"nom":"Village de vacances VTF Le Pigneroux","sub":"CollectiveAccommodation","cm":"05160#Savines-le-Lac","web":"https://www.vtf-vacances.com/fr_FR/summer/village-vacances/hautes-alpes/savines-le-lac/le-pigneroux","uri":"https://data.datatourisme.fr/13/5728a564-0a6d-3bd2-af3f-c81858e91685","dept":"05","reg":"pac"}},{"type":"Feature","geometry":{"type":"Point","coordinates":[6.49468,44.83995]},"properties":{"nom":"Tiki Bike Centre de Vélo du pays des Ecrins","sub":"Rental","cm":"05340#Vallouise-Pelvoux","web":"http://www.tikibike.fr/","uri":"https://data.datatourisme.fr/13/4af09595-c98a-3220-915b-629331231a23","dept":"05","reg":"pac"}},{"type":"Feature","geometry":{"type":"Point","coordinates":[6.50047,44.97202]},"properties":{"nom":"Arts et Vie Résidences","sub":"HolidayResort","cm":"05220#Le Monêtier-les-Bains","web":"http://www.artsetvie.com/","uri":"https://data.datatourisme.fr/13/802ca5ef-e77d-3546-a64b-64b3b87752f0","dept":"05","reg":"pac"}},{"type":"Feature","geometry":{"type":"Point","coordinates":[5.74699,44.6309]},"properties":{"nom":"Salle polyvalente de Saint-Julien-en-Beauchêne","sub":"Rental","cm":"05140#Saint-Julien-en-Beauchêne","web":"https://www.sources-du-buech.com/","uri":"https://data.datatourisme.fr/13/070983d0-c8c6-36b5-b6e1-8e9d4f062fae","dept":"05","reg":"pac"}},{"type":"Feature","geometry":{"type":"Point","coordinates":[6.51082,44.97596]},"properties":{"nom":"Sportrent 1500","sub":"Rental","cm":"05220#Le Monêtier-les-Bains","web":"http://www.sport-rent.com/","uri":"https://data.datatourisme.fr/13/31396c6b-99a1-3898-acf0-2c6925db5212","dept":"05","reg":"pac"}},{"type":"Feature","geometry":{"type":"Point","coordinates":[6.32695,44.52384]},"properties":{"nom":"Plage de la Baie Saint-Michel - Locations activités nautiques","sub":"Rental","cm":"05230#Chorges","web":"http://www.baiesaintmichel.com/","uri":"https://data.datatourisme.fr/13/76bcd010-e13c-332a-b3c9-c156fe6c3d36","dept":"05","reg":"pac"}},{"type":"Feature","geometry":{"type":"Point","coordinates":[6.55575,44.4913]},"properties":{"nom":"Espace rencontre et culture - Salle événementielle","sub":"Rental","cm":"05200#Les Orres","web":"https://www.lesorres.com/fr/devis-pour-groupes-aux-orres","uri":"https://data.datatourisme.fr/13/9b8cea4e-f9b3-37d0-9f97-6f786a512811","dept":"05","reg":"pac"}},{"type":"Feature","geometry":{"type":"Point","coordinates":[6.61794,44.67139]},"properties":{"nom":"Espace coworking et cocooking","sub":"Rental","cm":"05600#Eygliers","web":"http://www.auberge-eygliers.com/","uri":"https://data.datatourisme.fr/13/bc02f9c2-4b13-3d9c-a885-786bf3f35cd4","dept":"05","reg":"pac"}},{"type":"Feature","geometry":{"type":"Point","coordinates":[6.77793,44.66807]},"properties":{"nom":"Village Vacances VVF","sub":"CollectiveAccommodation","cm":"05600#Ceillac","web":"https://www.vvf.fr/villages-vacances/vacances-ceillac-en-queyras-vvf-villages.html?startDate=&endDate=&adult=2&children=0&baby=0&animal=0","uri":"https://data.datatourisme.fr/13/51bf29c5-7548-3e09-8a3d-20c93bb886fe","dept":"05","reg":"pac"}},{"type":"Feature","geometry":{"type":"Point","coordinates":[5.755,44.34095]},"properties":{"nom":"Village vacances VVF Haute Provence","sub":"CollectiveAccommodation","cm":"05300#Garde-Colombe","web":"https://www.vvf.fr/destination/ete/lagrand","uri":"https://data.datatourisme.fr/13/d50bfaee-00fc-3cc2-ab35-55acec947852","dept":"05","reg":"pac"}},{"type":"Feature","geometry":{"type":"Point","coordinates":[5.91435,44.33968]},"properties":{"nom":"Location Canoë Kayak - RCKN","sub":"Rental","cm":"05300#Ventavon","web":"http://www.rckn.fr/","uri":"https://data.datatourisme.fr/13/cac17684-d86f-3e1d-bde5-4f6342d3109a","dept":"05","reg":"pac"}},{"type":"Feature","geometry":{"type":"Point","coordinates":[6.55328,44.95113]},"properties":{"nom":"Résidence Odalys Vacances - Aquisana","sub":"HolidayResort","cm":"05240#La Salle-les-Alpes","web":"http://www.odalys-vacances.com/location-montagne/alpes-du-sud/serre-chevalier-villeneuve-la-salle-/aquisana.html#","uri":"https://data.datatourisme.fr/13/82ed5840-24d8-3984-9e2a-a3b1eff72307","dept":"05","reg":"pac"}},{"type":"Feature","geometry":{"type":"Point","coordinates":[6.59016,44.93241]},"properties":{"nom":"Résidence Goélia L'Adret","sub":"HolidayResort","cm":"05330#Saint-Chaffrey","web":"https://www.goelia.com/fr/residence-vacances/serre-chevalier/residence-goelia-l-adret.447.2.php","uri":"https://data.datatourisme.fr/13/ae9ee73c-477e-3e6c-a414-b811614b79b5","dept":"05","reg":"pac"}},{"type":"Feature","geometry":{"type":"Point","coordinates":[6.72807,44.79407]},"properties":{"nom":"Les Esquirousses - VTF","sub":"CollectiveAccommodation","cm":"05350#Arvieux","web":"https://www.vtf-vacances.com/fr_FR/winter/village-vacances/hautes-alpes/arvieux/les-esquirousses","uri":"https://data.datatourisme.fr/13/92b27f00-81ec-3861-b95e-98ef9487e0bd","dept":"05","reg":"pac"}},{"type":"Feature","geometry":{"type":"Point","coordinates":[5.71092,44.31519]},"properties":{"nom":"Domaine \"Gîtes Le Moulin\"","sub":"CollectiveAccommodation","cm":"05700#Orpierre","web":"http://www.gites-lemoulin.com/","uri":"https://data.datatourisme.fr/13/63ae9c42-f0ae-325c-bfeb-5ed882be452d","dept":"05","reg":"pac"}},{"type":"Feature","geometry":{"type":"Point","coordinates":[6.51312,44.97577]},"properties":{"nom":"VVF Club Intense L'Alpazur - Serre Chevalier","sub":"CollectiveAccommodation","cm":"05220#Le Monêtier-les-Bains","web":null,"uri":"https://data.datatourisme.fr/13/7b3c6624-7af3-32d2-8333-a16a05639b6f","dept":"05","reg":"pac"}},{"type":"Feature","geometry":{"type":"Point","coordinates":[6.50438,44.97381]},"properties":{"nom":"E-Bike Monet","sub":"Rental","cm":"05220#Le Monêtier-les-Bains","web":"http://serre-chevalier.bike/","uri":"https://data.datatourisme.fr/13/84c5d90a-26cb-3387-83b0-7e6a5fdee86b","dept":"05","reg":"pac"}},{"type":"Feature","geometry":{"type":"Point","coordinates":[6.63422,44.8968]},"properties":{"nom":"Sowell Hôtels Le Parc & Spa","sub":"HolidayResort","cm":"05100#Briançon","web":"https://www.sowell.fr/hotel/le-parc-spa/","uri":"https://data.datatourisme.fr/13/ea2c912d-b592-3813-b82c-5ce35a6c19a2","dept":"05","reg":"pac"}},{"type":"Feature","geometry":{"type":"Point","coordinates":[6.30549,44.5042]},"properties":{"nom":"Domaine de l'Ecrin du Lac","sub":"CollectiveAccommodation","cm":"05230#Chorges","web":"https://www.lamisoleil.com/fr/village-de-vacances/chorges","uri":"https://data.datatourisme.fr/13/171a0d3b-bf6e-3614-b7be-59e08034e145","dept":"05","reg":"pac"}},{"type":"Feature","geometry":{"type":"Point","coordinates":[6.32151,44.52559]},"properties":{"nom":"VVF Villages","sub":"CollectiveAccommodation","cm":"05230#Chorges","web":null,"uri":"https://data.datatourisme.fr/13/b2ddd159-9414-324b-ac73-d87f54fe41bd","dept":"05","reg":"pac"}},{"type":"Feature","geometry":{"type":"Point","coordinates":[6.71668,44.79923]},"properties":{"nom":"VTT électrique au paradis","sub":"Rental","cm":"05350#Arvieux","web":"http://yetibikeaventure.com/","uri":"https://data.datatourisme.fr/13/695672a0-e64a-3a06-a360-9183bb05553a","dept":"05","reg":"pac"}},{"type":"Feature","geometry":{"type":"Point","coordinates":[6.631,44.89601]},"properties":{"nom":"Résidence Goélia l'Aigle Bleu","sub":"HolidayResort","cm":"05100#Briançon","web":"https://www.goelia.com/fr/residence-vacances/briancon-serre-chevalier/residence-goelia-l-aigle-bleu.458.2.php","uri":"https://data.datatourisme.fr/13/5f7194bd-b6de-33e2-a810-a17335567768","dept":"05","reg":"pac"}},{"type":"Feature","geometry":{"type":"Point","coordinates":[6.48842,44.8467]},"properties":{"nom":"VTT \" Vallouise Free Bike\"","sub":"Rental","cm":"05340#Vallouise-Pelvoux","web":"https://booking.yoplanning.pro/9b8b78af-c4aa-4e66-8927-29e259fed258/","uri":"https://data.datatourisme.fr/13/61d3409f-d1ba-3fa4-9411-43abf717d6ac","dept":"05","reg":"pac"}},{"type":"Feature","geometry":{"type":"Point","coordinates":[6.6806,44.94312]},"properties":{"nom":"Clarée 2 roues","sub":"Rental","cm":"05100#Val-des-Prés","web":null,"uri":"https://data.datatourisme.fr/13/c85d698b-13c4-38ea-88aa-51442147bb3c","dept":"05","reg":"pac"}},{"type":"Feature","geometry":{"type":"Point","coordinates":[6.68224,44.93033]},"properties":{"nom":"L'Escale Ludo Sportive  - Location de vélo","sub":"Rental","cm":"05100#Montgenèvre","web":"https://www.lescale-ludo-sportive.com/","uri":"https://data.datatourisme.fr/13/3d6c8d26-bfd5-3c9c-9aff-1707a0c7c3bc","dept":"05","reg":"pac"}},{"type":"Feature","geometry":{"type":"Point","coordinates":[6.00568,44.79999]},"properties":{"nom":"La Grange de  Brudour","sub":"CollectiveAccommodation","cm":"05800#Aspres-lès-Corps","web":"http://grangedebrudour.com/","uri":"https://data.datatourisme.fr/13/562b3d4f-d7dc-3c96-ba23-6ece9e40442b","dept":"05","reg":"pac"}},{"type":"Feature","geometry":{"type":"Point","coordinates":[6.32691,44.69813]},"properties":{"nom":"Résidence de Tourisme Rochebrune Les Cîmes","sub":"HolidayResort","cm":"05170#Orcières","web":"https://www.odalys-vacances.com/location-montagne/alpes-du-sud/orcieres-merlette/rochebrune-les-cimes.html","uri":"https://data.datatourisme.fr/13/9aa58c61-4648-32ff-b69a-7f6cdb5d57c1","dept":"05","reg":"pac"}},{"type":"Feature","geometry":{"type":"Point","coordinates":[6.56437,44.9433]},"properties":{"nom":"Jean Sport 2.0","sub":"Rental","cm":"05240#La Salle-les-Alpes","web":"https://www.ski-location-serre-chevalier.com/","uri":"https://data.datatourisme.fr/13/45c49f0b-a0ce-30a9-a088-777455ec909a","dept":"05","reg":"pac"}},{"type":"Feature","geometry":{"type":"Point","coordinates":[6.87285,44.78381]},"properties":{"nom":"Espace de coworking","sub":"Rental","cm":"05470#Aiguilles","web":"http://www.queyras.org/","uri":"https://data.datatourisme.fr/13/2fde1d5c-24e5-3ece-95a6-5fb481059e46","dept":"05","reg":"pac"}},{"type":"Feature","geometry":{"type":"Point","coordinates":[6.73107,44.9349]},"properties":{"nom":"MMV - Le Hameau des Airelles","sub":"HolidayResort","cm":"05100#Montgenèvre","web":"http://www.mmv.fr/","uri":"https://data.datatourisme.fr/13/333fc2d2-8ba8-34e7-8cdd-53b7f3f5b300","dept":"05","reg":"pac"}},{"type":"Feature","geometry":{"type":"Point","coordinates":[6.32681,44.69557]},"properties":{"nom":"Résidence de Tourisme  Etoiles d'Orion - Vacancéole","sub":"HolidayResort","cm":"05170#Orcières","web":"https://reservation.orcieres.com/","uri":"https://data.datatourisme.fr/13/905a4e4c-f8b9-3370-adfd-7c2f6edd937d","dept":"05","reg":"pac"}},{"type":"Feature","geometry":{"type":"Point","coordinates":[6.32749,44.5278]},"properties":{"nom":"Vél'eau Serre-Ponçon. Location de vélo sur l'eau","sub":"Rental","cm":"05230#Chorges","web":"https://www.veleauserreponcon.com/","uri":"https://data.datatourisme.fr/13/b5690095-90a9-3639-b261-eb0553b5151d","dept":"05","reg":"pac"}},{"type":"Feature","geometry":{"type":"Point","coordinates":[6.63187,44.62185]},"properties":{"nom":"Hôtel Club *** Le 1850 - Vacances Leo Lagrange","sub":"CollectiveAccommodation","cm":"05600#Risoul","web":"https://www.risoul-vacancesleolagrange.com/","uri":"https://data.datatourisme.fr/13/407ccf23-9ba1-3c5d-9e0e-092aaabf0587","dept":"05","reg":"pac"}},{"type":"Feature","geometry":{"type":"Point","coordinates":[6.21011,44.64704]},"properties":{"nom":"VVF Saint Léger Les Mélèzes Les Ecrins","sub":"CollectiveAccommodation","cm":"05260#Saint-Léger-les-Mélèzes","web":"https://www.vvf.fr/location-vacances/vacances-saint-leger-les-melezes-vvf-villages.html?startDate=&endDate=&adult=2&children=0&baby=0&animal=0","uri":"https://data.datatourisme.fr/13/8f8be054-59e4-3c44-aea1-8db1f70e5a84","dept":"05","reg":"pac"}},{"type":"Feature","geometry":{"type":"Point","coordinates":[5.84761,44.496]},"properties":{"nom":"Gîte \"Le Petit  Bégou\"","sub":"CollectiveAccommodation","cm":"05400#Saint-Auban-d'Oze","web":null,"uri":"https://data.datatourisme.fr/13/e1b2e8e8-98ca-349b-81dc-125ce05750e6","dept":"05","reg":"pac"}},{"type":"Feature","geometry":{"type":"Point","coordinates":[6.0738,44.64387]},"properties":{"nom":"Alpin Trott'","sub":"Rental","cm":"05500#Laye","web":null,"uri":"https://data.datatourisme.fr/13/40f6d018-54ff-363f-980d-2ea7e33cb6e8","dept":"05","reg":"pac"}},{"type":"Feature","geometry":{"type":"Point","coordinates":[6.68935,44.59675]},"properties":{"nom":"Odalys Pra Sainte Marie","sub":"HolidayResort","cm":"05560#Vars","web":"http://www.odalys-vacances.com/","uri":"https://data.datatourisme.fr/13/0b09c963-c3b1-325c-a2fe-ae54b91c25cc","dept":"05","reg":"pac"}},{"type":"Feature","geometry":{"type":"Point","coordinates":[6.40133,45.0352]},"properties":{"nom":"Jardin du Lautaret - location de salles","sub":"Rental","cm":"05480#Villar-d'Arêne","web":"https://www.jardindulautaret.com/jardin-du-lautaret/seminaires-congres-1052837.kjsp?RH=1194557036553987","uri":"https://data.datatourisme.fr/13/c3b5e816-ee0f-3005-9134-4e65f7c24351","dept":"05","reg":"pac"}},{"type":"Feature","geometry":{"type":"Point","coordinates":[6.6451,44.65777]},"properties":{"nom":"Sport altitude","sub":"Rental","cm":"05600#Guillestre","web":"https://www.sport-altitude.fr/","uri":"https://data.datatourisme.fr/13/9a26fcc3-5f68-3090-ad53-0c37e7362d18","dept":"05","reg":"pac"}},{"type":"Feature","geometry":{"type":"Point","coordinates":[6.63039,44.62183]},"properties":{"nom":"Vacancéole","sub":"HolidayResort","cm":"05600#Risoul","web":"https://www.vacanceole.com/location-vacances/23-residence-vega-risoul","uri":"https://data.datatourisme.fr/13/0901094a-1695-3dc3-95bc-64ee37133d8c","dept":"05","reg":"pac"}},{"type":"Feature","geometry":{"type":"Point","coordinates":[6.30443,44.51415]},"properties":{"nom":"Skate Evasion","sub":"Rental","cm":"05230#Chorges","web":"https://www.skateevasion-serreponcon.fr/","uri":"https://data.datatourisme.fr/13/8efc04d7-1d61-3645-bc6b-138c2ffe1b2d","dept":"05","reg":"pac"}},{"type":"Feature","geometry":{"type":"Point","coordinates":[6.629,44.62242]},"properties":{"nom":"MMV - Le Silvana ****","sub":"HolidayResort","cm":"05600#Risoul","web":"https://www.mmv.fr/residence-club-ski-risoul-le-silvana","uri":"https://data.datatourisme.fr/13/58e77a90-6bfc-33a4-b7a8-91a4114a75e7","dept":"05","reg":"pac"}},{"type":"Feature","geometry":{"type":"Point","coordinates":[6.87009,44.78233]},"properties":{"nom":"Viso Sport","sub":"Rental","cm":"05470#Aiguilles","web":"https://visosport.fr/","uri":"https://data.datatourisme.fr/13/fee4e2fc-b562-3295-a496-e59eca6520d5","dept":"05","reg":"pac"}},{"type":"Feature","geometry":{"type":"Point","coordinates":[6.68152,44.57327]},"properties":{"nom":"Résidence ARYA - Living Stone","sub":"HolidayResort","cm":"05560#Vars","web":"https://www.alpessudresidences.fr/","uri":"https://data.datatourisme.fr/13/b4d65970-76a8-3c3a-831a-e1f3ea47ef4e","dept":"05","reg":"pac"}},{"type":"Feature","geometry":{"type":"Point","coordinates":[6.32511,44.68564]},"properties":{"nom":"Orcières Cycling","sub":"Rental","cm":"05170#Orcières","web":"https://www.orcierescycling.com/","uri":"https://data.datatourisme.fr/13/4118fea8-4d83-3ee3-a5c5-c121c2a1dc79","dept":"05","reg":"pac"}},{"type":"Feature","geometry":{"type":"Point","coordinates":[6.6849,44.57346]},"properties":{"nom":"Odalys Résidences L'Écrin de Vars","sub":"HolidayResort","cm":"05560#Vars","web":null,"uri":"https://data.datatourisme.fr/13/c46babff-b2a8-3a03-a6e2-8c4e21b0a769","dept":"05","reg":"pac"}},{"type":"Feature","geometry":{"type":"Point","coordinates":[6.55262,44.95202]},"properties":{"nom":"Résidence Club Le Serra Neva","sub":"HolidayResort","cm":"05240#La Salle-les-Alpes","web":"https://www.mmv.fr/residence-club-ski-serre-chevalier-le-serra-neva","uri":"https://data.datatourisme.fr/13/a64aa880-2f08-3fc9-9b19-35a314160299","dept":"05","reg":"pac"}},{"type":"Feature","geometry":{"type":"Point","coordinates":[6.01334,44.54174]},"properties":{"nom":"Hôtel Azur","sub":"HotelRestaurant","cm":"05000#La Freissinouse","web":"http://www.hotelazur-fr.com/","uri":"https://data.datatourisme.fr/13/8fdad7f3-d27b-3b63-9424-84e331f1d8ad","dept":"05","reg":"pac"}},{"type":"Feature","geometry":{"type":"Point","coordinates":[6.63678,44.64833]},"properties":{"nom":"La Bonne Auberge","sub":"HotelRestaurant","cm":"05600#Risoul","web":"http://labonneauberge-risoul.com/","uri":"https://data.datatourisme.fr/13/4b824368-2f3e-37b1-925c-f965da700bb1","dept":"05","reg":"pac"}},{"type":"Feature","geometry":{"type":"Point","coordinates":[6.62587,44.65395]},"properties":{"nom":"Chalet individuel 15 personnes - Maé","sub":"LodgingBusiness","cm":"05600#Risoul","web":"https://www.chalet-mae-risoul.fr/","uri":"https://data.datatourisme.fr/13/cd9e1cc6-2464-3348-ba3c-ee9f101c702f","dept":"05","reg":"pac"}},{"type":"Feature","geometry":{"type":"Point","coordinates":[6.73893,44.76737]},"properties":{"nom":"Izoard Cycling","sub":"Rental","cm":"05350#Arvieux","web":"https://www.izoardcycling.com/","uri":"https://data.datatourisme.fr/13/5698698b-3562-331c-939e-d428ab0d1384","dept":"05","reg":"pac"}}]}