{"type":"FeatureCollection","features":[{"type":"Feature","geometry":{"type":"Point","coordinates":[1.66816,46.45579]},"properties":{"nom":"Le George Sand","sub":"HotelRestaurant","cm":"36190#Gargilesse-Dampierre","web":null,"uri":"https://data.datatourisme.fr/15/accd3b72-a62d-38e8-b438-f489276b0a63","dept":"36","reg":"cvl"}},{"type":"Feature","geometry":{"type":"Point","coordinates":[0.90194,46.6297]},"properties":{"nom":"Grand Meublé de Tourisme de Anthuai","sub":"LodgingBusiness","cm":"36220#Mérigny","web":"https://www.grand-gite-domaine-anthuai.fr/","uri":"https://data.datatourisme.fr/15/ccd15139-2fb9-3c3a-98e6-1ce67604ccb2","dept":"36","reg":"cvl"}},{"type":"Feature","geometry":{"type":"Point","coordinates":[0.90194,46.6297]},"properties":{"nom":"Meublé de Tourisme de Anthuai","sub":"LodgingBusiness","cm":"36220#Mérigny","web":"https://www.grand-gite-domaine-anthuai.fr/","uri":"https://data.datatourisme.fr/15/7d23e063-fb4c-3553-82e6-c4fd027b4b0a","dept":"36","reg":"cvl"}},{"type":"Feature","geometry":{"type":"Point","coordinates":[1.71358,46.80455]},"properties":{"nom":"Hôtel Christina","sub":"Hotel","cm":"36000#Châteauroux","web":"http://www.hotel-restaurant-chateauroux.com/","uri":"https://data.datatourisme.fr/15/92761b23-e516-3cb8-93f9-154330143fe6","dept":"36","reg":"cvl"}},{"type":"Feature","geometry":{"type":"Point","coordinates":[1.90896,46.5806]},"properties":{"nom":"Centre d'accueil camping/gîtes Ferme d'Hélice","sub":"Camping","cm":"36230#Sarzay","web":"http://www.ferme-dhelice.com/","uri":"https://data.datatourisme.fr/15/486458fd-762f-3caa-835a-30a3382f4336","dept":"36","reg":"cvl"}},{"type":"Feature","geometry":{"type":"Point","coordinates":[1.20976,46.81991]},"properties":{"nom":"Au Boeuf Couronné","sub":"HotelRestaurant","cm":"36290#Mézières-en-Brenne","web":"https://www.auboeufcouronne.com/","uri":"https://data.datatourisme.fr/15/1c9abd24-ff85-3cce-8b9d-c9c4199b64f9","dept":"36","reg":"cvl"}},{"type":"Feature","geometry":{"type":"Point","coordinates":[1.41794,46.89297]},"properties":{"nom":"Camping de la Tête Noire","sub":"Camping","cm":"36500#Buzançais","web":"http://www.campinglatetenoire.com/","uri":"https://data.datatourisme.fr/15/08b0fa44-243f-32aa-a754-7d1375d0a281","dept":"36","reg":"cvl"}},{"type":"Feature","geometry":{"type":"Point","coordinates":[1.69345,46.81138]},"properties":{"nom":"Hôtel Ibis","sub":"Hotel","cm":"36000#Châteauroux","web":"http://www.accorhotels.com/","uri":"https://data.datatourisme.fr/15/278caaa8-36a3-3bbf-8d28-5bcd3b5262ba","dept":"36","reg":"cvl"}},{"type":"Feature","geometry":{"type":"Point","coordinates":[1.97942,46.60168]},"properties":{"nom":"Camping municipal Solange Sand","sub":"Camping","cm":"36400#Montgivray","web":"http://www.montgivray.fr/","uri":"https://data.datatourisme.fr/15/037b3803-3cfd-3e4a-a5f9-6acafd7df578","dept":"36","reg":"cvl"}},{"type":"Feature","geometry":{"type":"Point","coordinates":[1.77715,46.58601]},"properties":{"nom":"Camping municipal \"les Frênes\"","sub":"Camping","cm":"36230#Neuvy-Saint-Sépulchre","web":null,"uri":"https://data.datatourisme.fr/15/d228455e-76cc-380c-aef4-c2df09472988","dept":"36","reg":"cvl"}},{"type":"Feature","geometry":{"type":"Point","coordinates":[1.64626,46.77436]},"properties":{"nom":"Première Classe Hôtel","sub":"Hotel","cm":"36250#Saint-Maur","web":"https://chateauroux-saint-maur.premiereclasse.com/fr-fr/","uri":"https://data.datatourisme.fr/15/a5b9524d-0c3e-35a3-9d19-17c33ac77f79","dept":"36","reg":"cvl"}},{"type":"Feature","geometry":{"type":"Point","coordinates":[1.71606,46.86378]},"properties":{"nom":"Relais Saint-Jacques","sub":"HotelRestaurant","cm":"36130#Coings","web":"https://www.rsj36.fr/","uri":"https://data.datatourisme.fr/15/aa4d182c-89f7-3131-a76c-6bbff343b919","dept":"36","reg":"cvl"}},{"type":"Feature","geometry":{"type":"Point","coordinates":[1.69237,46.80816]},"properties":{"nom":"Le Continental","sub":"HotelRestaurant","cm":"36000#Châteauroux","web":"http://www.hotel-continental36.com/","uri":"https://data.datatourisme.fr/15/b3ba907d-848f-3946-b8df-9ac058c3714a","dept":"36","reg":"cvl"}},{"type":"Feature","geometry":{"type":"Point","coordinates":[1.40943,46.63361]},"properties":{"nom":"L'Oasis du Berry","sub":"Camping","cm":"36800#Saint-Gaultier","web":"https://camping-oasisduberry.fr/","uri":"https://data.datatourisme.fr/15/a5397f81-bdfb-3119-9dc0-845457fde7f8","dept":"36","reg":"cvl"}},{"type":"Feature","geometry":{"type":"Point","coordinates":[1.40915,46.63351]},"properties":{"nom":"Location de vélos au camping de l'Oasis du Berry","sub":"Rental","cm":"36800#Saint-Gaultier","web":null,"uri":"https://data.datatourisme.fr/15/aa7639e6-7878-3714-836b-cbc2129c7216","dept":"36","reg":"cvl"}},{"type":"Feature","geometry":{"type":"Point","coordinates":[1.50593,46.59664]},"properties":{"nom":"Les Chambons","sub":"Camping","cm":"36200#Argenton-sur-Creuse","web":"https://www.facebook.com/profile.php?id=61572387252746","uri":"https://data.datatourisme.fr/15/b3ba3651-8f67-31a4-b882-030ce6e6fcef","dept":"36","reg":"cvl"}},{"type":"Feature","geometry":{"type":"Point","coordinates":[1.59813,46.42852]},"properties":{"nom":"Les Nugiras","sub":"Camping","cm":"36270#Éguzon-Chantôme","web":"http://www.camping-municipal-eguzon.com/","uri":"https://data.datatourisme.fr/15/e6f87eb3-053c-3724-adee-2185cc393c5b","dept":"36","reg":"cvl"}},{"type":"Feature","geometry":{"type":"Point","coordinates":[1.60444,46.43364]},"properties":{"nom":"Aire de service camping-car (camping municipal Les Nugiras)","sub":"CampingAndCaravanning","cm":"36270#Éguzon-Chantôme","web":"http://www.camping-municipal-eguzon.com/","uri":"https://data.datatourisme.fr/15/e5f9da82-b901-3595-98ed-451747ae685c","dept":"36","reg":"cvl"}},{"type":"Feature","geometry":{"type":"Point","coordinates":[1.80118,47.16956]},"properties":{"nom":"Camping à la ferme","sub":"Camping","cm":"36210#Anjouin","web":null,"uri":"https://data.datatourisme.fr/15/fbc690c3-b127-335c-92c4-5f2339559673","dept":"36","reg":"cvl"}},{"type":"Feature","geometry":{"type":"Point","coordinates":[2.00614,46.95399]},"properties":{"nom":"Hôtel Inn Design","sub":"Hotel","cm":"36100#Issoudun","web":"https://hotel-inn-issoudun.fr/","uri":"https://data.datatourisme.fr/15/bc95843b-e3bb-3eba-9aaa-c904f9ae1087","dept":"36","reg":"cvl"}},{"type":"Feature","geometry":{"type":"Point","coordinates":[1.20925,46.80572]},"properties":{"nom":"Le Chalet de Plume Cane","sub":"LodgingBusiness","cm":"36290#Mézières-en-Brenne","web":null,"uri":"https://data.datatourisme.fr/15/2d3c9ab4-0ade-3099-bc84-c0b7ba608b4e","dept":"36","reg":"cvl"}},{"type":"Feature","geometry":{"type":"Point","coordinates":[1.08373,46.75418]},"properties":{"nom":"Le Balcon de la Brenne","sub":"CollectiveAccommodation","cm":"36220#Lingé","web":null,"uri":"https://data.datatourisme.fr/15/623e45c3-e87d-3105-8905-3313dccbd49f","dept":"36","reg":"cvl"}},{"type":"Feature","geometry":{"type":"Point","coordinates":[1.16735,46.76581]},"properties":{"nom":"Les Ilons","sub":"LodgingBusiness","cm":"36290#Saint-Michel-en-Brenne","web":null,"uri":"https://data.datatourisme.fr/15/98b89b46-4909-3874-9f78-81a62857a4e7","dept":"36","reg":"cvl"}},{"type":"Feature","geometry":{"type":"Point","coordinates":[2.13329,46.58873]},"properties":{"nom":"Gîte le Bonhomme","sub":"LodgingBusiness","cm":"36400#Néret","web":"http://www.camping-lebonhomme.com/","uri":"https://data.datatourisme.fr/15/95f99fe5-5f64-379a-9661-c5ac27c5c84d","dept":"36","reg":"cvl"}},{"type":"Feature","geometry":{"type":"Point","coordinates":[1.63072,46.40041]},"properties":{"nom":"Gîte à proximité du lac d'Eguzon","sub":"LodgingBusiness","cm":"36190#Saint-Plantaire","web":null,"uri":"https://data.datatourisme.fr/15/388190af-f76e-3cd1-86c9-80245551d42c","dept":"36","reg":"cvl"}},{"type":"Feature","geometry":{"type":"Point","coordinates":[1.01951,46.59749]},"properties":{"nom":"La Maison Bleue","sub":"LodgingBusiness","cm":"36300#Concremiers","web":null,"uri":"https://data.datatourisme.fr/15/165d2bf0-37b3-397a-b7fd-889f460e6758","dept":"36","reg":"cvl"}},{"type":"Feature","geometry":{"type":"Point","coordinates":[1.69099,46.81064]},"properties":{"nom":"Elysée Hôtel","sub":"Hotel","cm":"36000#Châteauroux","web":"http://www.elysee-hotel-chateauroux.com/","uri":"https://data.datatourisme.fr/15/752329ba-f286-3fab-a944-df639373a953","dept":"36","reg":"cvl"}},{"type":"Feature","geometry":{"type":"Point","coordinates":[1.70325,46.84924]},"properties":{"nom":"Ace Hôtel Châteauroux Déols","sub":"Hotel","cm":"36130#Déols","web":"http://www.ace-hotel.com/fr/hotels/chateauroux/","uri":"https://data.datatourisme.fr/15/a0536a8f-69bc-31f4-8015-0c864156a50f","dept":"36","reg":"cvl"}},{"type":"Feature","geometry":{"type":"Point","coordinates":[1.21479,46.72808]},"properties":{"nom":"Ferme de Bois Retrait","sub":"LodgingBusiness","cm":"36300#Rosnay","web":null,"uri":"https://data.datatourisme.fr/15/aafff424-84af-3585-bef6-2c6de914a510","dept":"36","reg":"cvl"}},{"type":"Feature","geometry":{"type":"Point","coordinates":[1.16345,46.7613]},"properties":{"nom":"Le Gîte d'Elise","sub":"LodgingBusiness","cm":"36220#Lingé","web":null,"uri":"https://data.datatourisme.fr/15/3a7541fa-09f5-3cb4-b187-d079951fe81c","dept":"36","reg":"cvl"}},{"type":"Feature","geometry":{"type":"Point","coordinates":[1.99182,46.58633]},"properties":{"nom":"Le Lion d'Argent","sub":"HotelRestaurant","cm":"36400#La Châtre","web":"https://www.leliondargent.com/hotel-chambres.html","uri":"https://data.datatourisme.fr/15/e3362b6f-d25f-3fea-b21b-e149dea9c849","dept":"36","reg":"cvl"}},{"type":"Feature","geometry":{"type":"Point","coordinates":[1.99143,46.95013]},"properties":{"nom":"Les 3 Rois","sub":"HotelRestaurant","cm":"36100#Issoudun","web":"https://www.les3rois.fr/","uri":"https://data.datatourisme.fr/15/a56e1d75-309e-3d2c-adde-e8adb6866ead","dept":"36","reg":"cvl"}},{"type":"Feature","geometry":{"type":"Point","coordinates":[1.15653,46.54946]},"properties":{"nom":"Camping municipal La Quintaine","sub":"Camping","cm":"36370#Bélâbre","web":"http://www.ville-belabre.fr/","uri":"https://data.datatourisme.fr/15/763d5b33-9733-3fce-97a9-5efc0bef2189","dept":"36","reg":"cvl"}},{"type":"Feature","geometry":{"type":"Point","coordinates":[1.15652,46.54951]},"properties":{"nom":"Location de canoës, barque et paddles","sub":"Rental","cm":"36370#Bélâbre","web":"http://www.ville-belabre.fr/","uri":"https://data.datatourisme.fr/15/eac9e211-ed66-3950-8153-7a1a8a18a7fb","dept":"36","reg":"cvl"}},{"type":"Feature","geometry":{"type":"Point","coordinates":[1.1565,46.54953]},"properties":{"nom":"Location de vélos au camping la Quintaine","sub":"Rental","cm":"36370#Bélâbre","web":null,"uri":"https://data.datatourisme.fr/15/5aad7ec8-fbba-3fac-9270-0a66e8440257","dept":"36","reg":"cvl"}},{"type":"Feature","geometry":{"type":"Point","coordinates":[1.15508,46.54961]},"properties":{"nom":"Borne de camping-car (camping municipal de La Quintaine)","sub":"CampingAndCaravanning","cm":"36370#Bélâbre","web":"http://ville-belabre.fr/","uri":"https://data.datatourisme.fr/15/795afe81-2abe-332b-8792-6be89e03df9e","dept":"36","reg":"cvl"}},{"type":"Feature","geometry":{"type":"Point","coordinates":[1.77011,46.84853]},"properties":{"nom":"Gîte des Abeilles","sub":"LodgingBusiness","cm":"36130#Montierchaume","web":null,"uri":"https://data.datatourisme.fr/15/bedc310b-5e08-3252-b372-b4757fbfd42a","dept":"36","reg":"cvl"}},{"type":"Feature","geometry":{"type":"Point","coordinates":[1.90831,46.58174]},"properties":{"nom":"Ferme d'Hélice Gîtes et camping Accueil Paysan","sub":"LodgingBusiness","cm":"36230#Sarzay","web":"http://www.ferme-dhelice.com/","uri":"https://data.datatourisme.fr/15/f70d0485-fe00-3976-ba52-0b4b1c69a27f","dept":"36","reg":"cvl"}},{"type":"Feature","geometry":{"type":"Point","coordinates":[1.58334,46.50767]},"properties":{"nom":"La Chaumerette","sub":"Camping","cm":"36190#Gargilesse-Dampierre","web":"http://www.gargilesse.fr/","uri":"https://data.datatourisme.fr/15/47ed7b3c-a0e0-30b7-a343-89b0496cc689","dept":"36","reg":"cvl"}},{"type":"Feature","geometry":{"type":"Point","coordinates":[0.99588,46.59084]},"properties":{"nom":"Le Grand Chardon","sub":"LodgingBusiness","cm":"36300#Concremiers","web":"http://www.leschardonnieres.fr/","uri":"https://data.datatourisme.fr/15/b2c59529-a348-3fec-a65c-acfc3559c060","dept":"36","reg":"cvl"}},{"type":"Feature","geometry":{"type":"Point","coordinates":[1.60532,46.43755]},"properties":{"nom":"Studio au Bord du Lac d'Eguzon","sub":"LodgingBusiness","cm":"36270#Éguzon-Chantôme","web":null,"uri":"https://data.datatourisme.fr/15/1c57d835-e3f5-313b-8ebb-90cf0f0a5c35","dept":"36","reg":"cvl"}},{"type":"Feature","geometry":{"type":"Point","coordinates":[1.53435,46.5747]},"properties":{"nom":"L'Escapade","sub":"HotelRestaurant","cm":"36200#Le Pêchereau","web":"http://www.lescapadehotel.com/","uri":"https://data.datatourisme.fr/15/9d228c0a-017c-3e0b-ba92-c80ec971ddf3","dept":"36","reg":"cvl"}},{"type":"Feature","geometry":{"type":"Point","coordinates":[1.40359,46.54196]},"properties":{"nom":"Camping naturiste La Petite Brenne","sub":"Camping","cm":"36800#Luzeret","web":"http://www.lapetitebrenne.com/","uri":"https://data.datatourisme.fr/15/9164428a-720e-342e-8cb7-119de7630052","dept":"36","reg":"cvl"}},{"type":"Feature","geometry":{"type":"Point","coordinates":[1.68851,46.81255]},"properties":{"nom":"Panoramique Saint-Martin","sub":"LodgingBusiness","cm":"36000#Châteauroux","web":null,"uri":"https://data.datatourisme.fr/15/9143cea7-a7bb-3831-91bf-85c5a529b564","dept":"36","reg":"cvl"}},{"type":"Feature","geometry":{"type":"Point","coordinates":[1.68851,46.81255]},"properties":{"nom":"La Porte Saint-Martin","sub":"LodgingBusiness","cm":"36000#Châteauroux","web":null,"uri":"https://data.datatourisme.fr/15/d7fcab22-79f4-38ee-b7ae-b8d4a97fa95e","dept":"36","reg":"cvl"}},{"type":"Feature","geometry":{"type":"Point","coordinates":[1.95124,46.87255]},"properties":{"nom":"La Maison de Charlotte","sub":"BedAndBreakfast","cm":"36100#Meunet-Planches","web":"https://www.chambres-hotes.fr/chambres-hotes_la-maison-de-charlotte_meunet-planches_35674.htm","uri":"https://data.datatourisme.fr/15/7863476f-6586-3abd-bab0-097a5ed54a86","dept":"36","reg":"cvl"}},{"type":"Feature","geometry":{"type":"Point","coordinates":[1.72924,47.06526]},"properties":{"nom":"Gîte de séjour Les Fosses","sub":"LodgingBusiness","cm":"36150#Guilly","web":null,"uri":"https://data.datatourisme.fr/15/9f71ef81-e05e-3f90-ac11-cdc12d569816","dept":"36","reg":"cvl"}},{"type":"Feature","geometry":{"type":"Point","coordinates":[1.72924,47.06526]},"properties":{"nom":"Gîte Les Fosses","sub":"LodgingBusiness","cm":"36150#Guilly","web":null,"uri":"https://data.datatourisme.fr/15/67ef2a57-2fe7-3f27-b369-7118eb675736","dept":"36","reg":"cvl"}},{"type":"Feature","geometry":{"type":"Point","coordinates":[1.57979,46.63107]},"properties":{"nom":"Château de Mazières","sub":"BedAndBreakfast","cm":"36200#Tendu","web":"http://www.chateaudemazieres.com/","uri":"https://data.datatourisme.fr/15/baf59d10-47fd-3bda-87d8-5b9fc23db4d4","dept":"36","reg":"cvl"}},{"type":"Feature","geometry":{"type":"Point","coordinates":[1.10021,46.92263]},"properties":{"nom":"Meublé de Tourisme \"The Grange\"","sub":"LodgingBusiness","cm":"36700#Cléré-du-Bois","web":"https://www.gites-loire.com/","uri":"https://data.datatourisme.fr/15/c3be7130-c34f-392a-a0f3-3d73805f2c6f","dept":"36","reg":"cvl"}},{"type":"Feature","geometry":{"type":"Point","coordinates":[1.10021,46.92263]},"properties":{"nom":"Meublé de Tourisme \"The Farmhouse\"","sub":"LodgingBusiness","cm":"36700#Cléré-du-Bois","web":"https://www.gites-loire.com/","uri":"https://data.datatourisme.fr/15/4b085e72-acc3-3eb7-aa70-0cdb8f0e7d3b","dept":"36","reg":"cvl"}},{"type":"Feature","geometry":{"type":"Point","coordinates":[1.10021,46.92263]},"properties":{"nom":"Meublé de Tourisme \"The Stable\"","sub":"LodgingBusiness","cm":"36700#Cléré-du-Bois","web":"https://www.gites-loire.com/","uri":"https://data.datatourisme.fr/15/52125cfa-0c0e-3a66-85ba-69a94596e23c","dept":"36","reg":"cvl"}},{"type":"Feature","geometry":{"type":"Point","coordinates":[1.10021,46.92263]},"properties":{"nom":"Meublé de Tourisme \"The Croft\"","sub":"LodgingBusiness","cm":"36700#Cléré-du-Bois","web":"https://www.gites-loire.com/","uri":"https://data.datatourisme.fr/15/5c540574-a3ed-3ec6-9ae0-199c31bd0b64","dept":"36","reg":"cvl"}},{"type":"Feature","geometry":{"type":"Point","coordinates":[1.10021,46.92263]},"properties":{"nom":"Meublé de Tourisme \"The Dairy\"","sub":"LodgingBusiness","cm":"36700#Cléré-du-Bois","web":"https://www.gites-loire.com/","uri":"https://data.datatourisme.fr/15/2ee05506-c328-3a68-915f-693d6b9f4cfb","dept":"36","reg":"cvl"}},{"type":"Feature","geometry":{"type":"Point","coordinates":[1.53724,47.21044]},"properties":{"nom":"L'Argenterie - Gîte d'Ethan","sub":"LodgingBusiness","cm":"36600#Fontguenand","web":null,"uri":"https://data.datatourisme.fr/15/b8f0d481-cb69-3ed5-9027-69bb6a87898e","dept":"36","reg":"cvl"}},{"type":"Feature","geometry":{"type":"Point","coordinates":[1.53724,47.21044]},"properties":{"nom":"L'Argenterie - Gîte de Maëlle","sub":"LodgingBusiness","cm":"36600#Fontguenand","web":null,"uri":"https://data.datatourisme.fr/15/17d5618e-96b3-384b-8e99-52159ac60f33","dept":"36","reg":"cvl"}},{"type":"Feature","geometry":{"type":"Point","coordinates":[0.97646,46.74401]},"properties":{"nom":"Manoir de Pierre Levée","sub":"HotelRestaurant","cm":"36220#Tournon-Saint-Martin","web":"https://www.manoirdepierrelevee.com/","uri":"https://data.datatourisme.fr/15/ecb8c818-8084-3cb5-986b-7160aed162ef","dept":"36","reg":"cvl"}},{"type":"Feature","geometry":{"type":"Point","coordinates":[1.85014,47.09105]},"properties":{"nom":"La Guérinière Villa Nature 1","sub":"LodgingBusiness","cm":"36150#Meunet-sur-Vatan","web":null,"uri":"https://data.datatourisme.fr/15/7a43ff73-569f-324e-818a-5568a9b6ceb0","dept":"36","reg":"cvl"}},{"type":"Feature","geometry":{"type":"Point","coordinates":[1.8498,47.09102]},"properties":{"nom":"La Guérinière Villa nature 2","sub":"LodgingBusiness","cm":"36150#Meunet-sur-Vatan","web":null,"uri":"https://data.datatourisme.fr/15/888d71db-8e36-3527-a9a5-cbc22c84bb6b","dept":"36","reg":"cvl"}},{"type":"Feature","geometry":{"type":"Point","coordinates":[1.8498,47.09102]},"properties":{"nom":"La Guérinière Nature 3","sub":"LodgingBusiness","cm":"36150#Meunet-sur-Vatan","web":null,"uri":"https://data.datatourisme.fr/15/d21b2a18-0e14-359a-bfb3-182493ea4ce3","dept":"36","reg":"cvl"}},{"type":"Feature","geometry":{"type":"Point","coordinates":[1.8498,47.09102]},"properties":{"nom":"Petite maison charmante","sub":"LodgingBusiness","cm":"36150#Meunet-sur-Vatan","web":null,"uri":"https://data.datatourisme.fr/15/4bf6b06a-9072-3f41-93cf-d1b741101f9c","dept":"36","reg":"cvl"}},{"type":"Feature","geometry":{"type":"Point","coordinates":[1.8498,47.09102]},"properties":{"nom":"Maison familiale à la campagne","sub":"LodgingBusiness","cm":"36150#Meunet-sur-Vatan","web":null,"uri":"https://data.datatourisme.fr/15/aa2bc6b6-f623-348a-b612-b6deb994dd77","dept":"36","reg":"cvl"}},{"type":"Feature","geometry":{"type":"Point","coordinates":[1.55192,47.15772]},"properties":{"nom":"Camping \"Les Chênes\"","sub":"Camping","cm":"36600#Valençay","web":"http://camping-leschenes.fr/","uri":"https://data.datatourisme.fr/15/dd95bc10-e9ce-3663-9112-5481a7679372","dept":"36","reg":"cvl"}},{"type":"Feature","geometry":{"type":"Point","coordinates":[1.61303,46.42389]},"properties":{"nom":"Camping municipal de Fougères","sub":"Camping","cm":"36190#Saint-Plantaire","web":"https://www.camping-fougeres36.fr/Notre-Camping","uri":"https://data.datatourisme.fr/15/4103fbbb-97fe-343c-9ee5-35a287e9f9e9","dept":"36","reg":"cvl"}},{"type":"Feature","geometry":{"type":"Point","coordinates":[1.89769,46.46851]},"properties":{"nom":"Ferme de la Lande","sub":"LodgingBusiness","cm":"36140#Crozon-sur-Vauvre","web":"http://www.gitedelalandeenberry.fr/","uri":"https://data.datatourisme.fr/15/d8b634ff-73c9-339b-8890-19d72aa63569","dept":"36","reg":"cvl"}},{"type":"Feature","geometry":{"type":"Point","coordinates":[1.16209,46.76141]},"properties":{"nom":"Auberge de La Gabrière","sub":"HotelRestaurant","cm":"36220#Lingé","web":"http://www.aubergedelagabriere.com/","uri":"https://data.datatourisme.fr/15/d3d26ed1-189f-34ed-b19a-cefcfd849840","dept":"36","reg":"cvl"}},{"type":"Feature","geometry":{"type":"Point","coordinates":[2.04609,47.08619]},"properties":{"nom":"Les 3 Cépages","sub":"HotelRestaurant","cm":"36260#Reuilly","web":"http://www.les-3-cepages.com/","uri":"https://data.datatourisme.fr/15/8954d71e-de3c-32b0-ab80-d2e806a49916","dept":"36","reg":"cvl"}},{"type":"Feature","geometry":{"type":"Point","coordinates":[1.57881,47.0181]},"properties":{"nom":"Gîte la Charonnerie","sub":"LodgingBusiness","cm":"36110#Moulins-sur-Céphons","web":null,"uri":"https://data.datatourisme.fr/15/21768583-729a-35b8-b63a-3fb8bb56490c","dept":"36","reg":"cvl"}},{"type":"Feature","geometry":{"type":"Point","coordinates":[1.69943,46.81032]},"properties":{"nom":"Hôtel de la Gare","sub":"HotelRestaurant","cm":"36000#Châteauroux","web":"https://www.hoteldelagare-chateauroux.fr/","uri":"https://data.datatourisme.fr/15/4ba24115-0ae4-319a-98ca-d1be1e894ea4","dept":"36","reg":"cvl"}},{"type":"Feature","geometry":{"type":"Point","coordinates":[2.05313,46.60119]},"properties":{"nom":"Gîte des Retrouvailles","sub":"LodgingBusiness","cm":"36400#Lacs","web":"https://gite-des-retrouvailles.jimdosite.com/","uri":"https://data.datatourisme.fr/15/29974a8c-7880-37cc-b8fe-cede048fee12","dept":"36","reg":"cvl"}},{"type":"Feature","geometry":{"type":"Point","coordinates":[2.09621,46.62105]},"properties":{"nom":"Les Ormeaux","sub":"LodgingBusiness","cm":"36400#Thevet-Saint-Julien","web":"https://gites-de-france-indre.com/fr/location/locations-gites-thevet-saint-julien-h36g009582","uri":"https://data.datatourisme.fr/15/10f708b0-b167-3f3f-aa27-0edca9932365","dept":"36","reg":"cvl"}},{"type":"Feature","geometry":{"type":"Point","coordinates":[2.05842,46.45256]},"properties":{"nom":"Gîte Orange au Domaine Pouzoult","sub":"LodgingBusiness","cm":"36160#Sazeray","web":"http://www.domainepouzoult.com/","uri":"https://data.datatourisme.fr/15/0506cf2c-bc61-3c39-9f19-fb1ac2fcdf11","dept":"36","reg":"cvl"}},{"type":"Feature","geometry":{"type":"Point","coordinates":[2.05802,46.45392]},"properties":{"nom":"L'Escalier au Domaine Pouzoult","sub":"LodgingBusiness","cm":"36160#Sazeray","web":"http://www.domainepouzoult.com/","uri":"https://data.datatourisme.fr/15/e304ee3a-fe67-3d25-a806-d1e48d229b06","dept":"36","reg":"cvl"}},{"type":"Feature","geometry":{"type":"Point","coordinates":[1.01003,46.66518]},"properties":{"nom":"Le Moulin de Mijault","sub":"LodgingBusiness","cm":"36220#Sauzelles","web":null,"uri":"https://data.datatourisme.fr/15/092dcdab-b716-3e9a-b58e-dccad98711a7","dept":"36","reg":"cvl"}},{"type":"Feature","geometry":{"type":"Point","coordinates":[1.44982,46.43103]},"properties":{"nom":"Gîte Ferme de l'Imprenable","sub":"LodgingBusiness","cm":"36170#Parnac","web":null,"uri":"https://data.datatourisme.fr/15/59b05159-da4e-3e16-b9c8-74706e8135d1","dept":"36","reg":"cvl"}},{"type":"Feature","geometry":{"type":"Point","coordinates":[1.73543,47.06031]},"properties":{"nom":"La Bisquinerie","sub":"LodgingBusiness","cm":"36150#Fontenay","web":null,"uri":"https://data.datatourisme.fr/15/be4998c8-6d9a-3992-950a-5aaa0b89f7ec","dept":"36","reg":"cvl"}},{"type":"Feature","geometry":{"type":"Point","coordinates":[1.10796,47.01365]},"properties":{"nom":"Meublé de tourisme l'Aunay","sub":"LodgingBusiness","cm":"36700#Fléré-la-Rivière","web":null,"uri":"https://data.datatourisme.fr/15/80f615eb-4010-3262-843f-d158dd199aa5","dept":"36","reg":"cvl"}},{"type":"Feature","geometry":{"type":"Point","coordinates":[1.62771,46.39364]},"properties":{"nom":"Hôtel Restaurant du Lac","sub":"HotelRestaurant","cm":"36190#Saint-Plantaire","web":"http://www.hoteldulac-crozant.com/","uri":"https://data.datatourisme.fr/15/8d94c382-9db9-3bbc-b086-a02d686d5886","dept":"36","reg":"cvl"}},{"type":"Feature","geometry":{"type":"Point","coordinates":[1.70272,46.78858]},"properties":{"nom":"Hôtel Kyriad","sub":"HotelRestaurant","cm":"36000#Châteauroux","web":"https://chateauroux.kyriad.com/fr-fr/","uri":"https://data.datatourisme.fr/15/d2d7d831-3602-3dd9-805e-cb6e9c6e4a92","dept":"36","reg":"cvl"}},{"type":"Feature","geometry":{"type":"Point","coordinates":[0.938,46.64018]},"properties":{"nom":"Chambre d'hôte de la ferme du Bois d'Haut","sub":"BedAndBreakfast","cm":"36220#Mérigny","web":"https://www.accueil-paysan.com/","uri":"https://data.datatourisme.fr/15/36fcf8fa-778b-3b16-adbb-31d7657a6252","dept":"36","reg":"cvl"}},{"type":"Feature","geometry":{"type":"Point","coordinates":[1.24525,46.63186]},"properties":{"nom":"Gîte des Ecureuils","sub":"LodgingBusiness","cm":"36300#Ciron","web":null,"uri":"https://data.datatourisme.fr/15/3e196cb0-9b82-3308-a468-f91d70cb1106","dept":"36","reg":"cvl"}},{"type":"Feature","geometry":{"type":"Point","coordinates":[2.05146,46.71259]},"properties":{"nom":"Camping à la ferme","sub":"Camping","cm":"36400#La Berthenoux","web":"http://www.gites-de-france-indre.com/location/H36C005191","uri":"https://data.datatourisme.fr/15/1e011b81-feea-3489-879f-e41a00f8b07c","dept":"36","reg":"cvl"}},{"type":"Feature","geometry":{"type":"Point","coordinates":[2.05146,46.71259]},"properties":{"nom":"Ferme des Goyons","sub":"LodgingBusiness","cm":"36400#La Berthenoux","web":"https://gites-de-france-indre.com/fr/location/locations-gites-la-berthenoux-ferme-des-goyons-h36g004286","uri":"https://data.datatourisme.fr/15/2ab9c0c7-6e9a-3ca1-9885-4aa6d5c14bfa","dept":"36","reg":"cvl"}},{"type":"Feature","geometry":{"type":"Point","coordinates":[1.51663,46.56115]},"properties":{"nom":"Le Pigeonnier","sub":"LodgingBusiness","cm":"36200#Argenton-sur-Creuse","web":null,"uri":"https://data.datatourisme.fr/15/d3a2cc10-6bcb-3c3c-91f9-21e759ea2884","dept":"36","reg":"cvl"}},{"type":"Feature","geometry":{"type":"Point","coordinates":[1.75581,46.84894]},"properties":{"nom":"Fasthôtel","sub":"HotelRestaurant","cm":"36130#Montierchaume","web":"http://www.fasthotel.com/centre/hotel-chateauroux","uri":"https://data.datatourisme.fr/15/41b5cddc-e7a8-3583-9760-157735e88d5e","dept":"36","reg":"cvl"}},{"type":"Feature","geometry":{"type":"Point","coordinates":[1.41877,46.89497]},"properties":{"nom":"L'Hermitage","sub":"HotelRestaurant","cm":"36500#Buzançais","web":"http://www.lhermitagehotel.com/","uri":"https://data.datatourisme.fr/15/4cd08257-391b-38a4-8656-278cc474bf68","dept":"36","reg":"cvl"}},{"type":"Feature","geometry":{"type":"Point","coordinates":[1.58934,46.45092]},"properties":{"nom":"Sun Valley","sub":"Camping","cm":"36270#Éguzon-Chantôme","web":"https://campingsunvalley.com/","uri":"https://data.datatourisme.fr/15/5e2ff659-2805-316a-9dbf-a76b6a864a9a","dept":"36","reg":"cvl"}},{"type":"Feature","geometry":{"type":"Point","coordinates":[1.5193,46.58893]},"properties":{"nom":"Hôtel Beauséjour","sub":"HotelRestaurant","cm":"36200#Argenton-sur-Creuse","web":"http://www.hotel-argenton.com/","uri":"https://data.datatourisme.fr/15/f0e8a42b-90b8-33d5-9808-4546989ea331","dept":"36","reg":"cvl"}},{"type":"Feature","geometry":{"type":"Point","coordinates":[1.23598,46.95799]},"properties":{"nom":"Chambres des Roussis","sub":"BedAndBreakfast","cm":"36700#Le Tranger","web":"https://www.airbnb.fr/rooms/4253865?search_mode=regular_search&adults=1&category_tag=Tag%3A8678&check_in=2026-01-13&check_out=2026-01-18&children=0&infants=0&pets=0&photo_id=32465425&source_impression_id=p3_1768210192_P3DUWMM_4CgG_Fc-&previous_page_section_name=1000&federated_search_id=21443c52-e547-4304-b1cc-db687938629b","uri":"https://data.datatourisme.fr/15/f54d2078-722b-32c7-90f2-5e0d2d1fb66e","dept":"36","reg":"cvl"}},{"type":"Feature","geometry":{"type":"Point","coordinates":[1.23613,46.95796]},"properties":{"nom":"L'Atelier d'Ébène","sub":"LodgingBusiness","cm":"36700#Le Tranger","web":"https://www.facebook.com/chambresblanchet/","uri":"https://data.datatourisme.fr/15/c0ed3b1d-dbc1-3613-9d32-36cadb42c00f","dept":"36","reg":"cvl"}},{"type":"Feature","geometry":{"type":"Point","coordinates":[1.98971,46.96421]},"properties":{"nom":"Camping municipal Les Taupeaux","sub":"Camping","cm":"36100#Issoudun","web":"https://www.tourisme.issoudun.fr/o-dormir","uri":"https://data.datatourisme.fr/15/43903191-3c09-3dad-be26-2b9f453a00ac","dept":"36","reg":"cvl"}},{"type":"Feature","geometry":{"type":"Point","coordinates":[2.00803,46.95325]},"properties":{"nom":"Hôtel Kyriad Issoudun","sub":"HotelRestaurant","cm":"36100#Issoudun","web":"https://issoudun.kyriad.com/fr-fr/","uri":"https://data.datatourisme.fr/15/62f75b62-b8d9-38b8-ab42-357e04c11cb3","dept":"36","reg":"cvl"}},{"type":"Feature","geometry":{"type":"Point","coordinates":[1.70361,46.85139]},"properties":{"nom":"B&B Hôtel Chateauroux A20 L'Occitane","sub":"Hotel","cm":"36130#Déols","web":"https://www.hotel-bb.com/fr/hotel/chateauroux-a20-l-occitane","uri":"https://data.datatourisme.fr/15/2f7e8b3f-8056-3171-b8a3-3db3586bd254","dept":"36","reg":"cvl"}},{"type":"Feature","geometry":{"type":"Point","coordinates":[1.64695,46.7744]},"properties":{"nom":"Hôtel Kyriad Châteauroux - Saint-Maur","sub":"HotelRestaurant","cm":"36250#Saint-Maur","web":"https://chateauroux-saint-maur.kyriad.com/fr-fr/","uri":"https://data.datatourisme.fr/15/e4194b1b-a555-3840-b8c5-8846b11aaee4","dept":"36","reg":"cvl"}},{"type":"Feature","geometry":{"type":"Point","coordinates":[1.47638,46.92021]},"properties":{"nom":"Villa piscine BerrySprings","sub":"LodgingBusiness","cm":"36500#Argy","web":"https://lesgitesduberry.com/2019/07/01/berrysprings-toutes-mes-photos/","uri":"https://data.datatourisme.fr/15/cf1306b1-0dc5-3bd8-900f-215bdf618715","dept":"36","reg":"cvl"}},{"type":"Feature","geometry":{"type":"Point","coordinates":[1.22998,46.53644]},"properties":{"nom":"Domaine du Ris de Feu - Chambres d'hôtes de charme","sub":"BedAndBreakfast","cm":"36370#Chalais","web":"https://www.lerisdefeu.fr/","uri":"https://data.datatourisme.fr/15/629879de-5dc6-31a7-892c-dd5f49b686d4","dept":"36","reg":"cvl"}},{"type":"Feature","geometry":{"type":"Point","coordinates":[1.22987,46.53644]},"properties":{"nom":"Gîte L'Abloux au Domaine du Ris de Feu","sub":"LodgingBusiness","cm":"36370#Chalais","web":"https://www.lerisdefeu.fr/","uri":"https://data.datatourisme.fr/15/6b212a3f-7577-38b1-a1fd-d578f1b51656","dept":"36","reg":"cvl"}},{"type":"Feature","geometry":{"type":"Point","coordinates":[1.22987,46.53644]},"properties":{"nom":"Gite L'Anglin au Domaine du Ris de Feu","sub":"LodgingBusiness","cm":"36370#Chalais","web":"https://www.lerisdefeu.fr/","uri":"https://data.datatourisme.fr/15/dabfbb1c-fc15-39e5-b19d-9fe8d24b3d32","dept":"36","reg":"cvl"}},{"type":"Feature","geometry":{"type":"Point","coordinates":[1.19632,46.74543]},"properties":{"nom":"Chez le P’pa","sub":"LodgingBusiness","cm":"36300#Rosnay","web":null,"uri":"https://data.datatourisme.fr/15/519b8fb0-6cff-3858-ba55-1d17fdce795f","dept":"36","reg":"cvl"}},{"type":"Feature","geometry":{"type":"Point","coordinates":[1.71041,46.80643]},"properties":{"nom":"Hôtel Le Boischaut","sub":"Hotel","cm":"36000#Châteauroux","web":"https://www.restaurant-hotel-chateauroux.com/fr","uri":"https://data.datatourisme.fr/15/536e7a0c-9ffa-3691-8839-7a2b1d6a04a9","dept":"36","reg":"cvl"}},{"type":"Feature","geometry":{"type":"Point","coordinates":[1.70351,46.8095]},"properties":{"nom":"Best Western Plus Hôtel Colbert","sub":"HotelRestaurant","cm":"36000#Châteauroux","web":"https://www.lecolbert36.fr/hotel-chambre.html","uri":"https://data.datatourisme.fr/15/6f64c1c1-4511-3697-b4f0-ee503fd6076f","dept":"36","reg":"cvl"}},{"type":"Feature","geometry":{"type":"Point","coordinates":[1.7337,46.7943]},"properties":{"nom":"Sure Hôtel by Best Western","sub":"HotelRestaurant","cm":"36330#Le Poinçonnet","web":"https://www.facebook.com/hotelrestaurantamarys/","uri":"https://data.datatourisme.fr/15/9c2a1e44-19d6-30c9-9ea9-855f536a293a","dept":"36","reg":"cvl"}},{"type":"Feature","geometry":{"type":"Point","coordinates":[1.97222,46.75172]},"properties":{"nom":"La Fermette Lot","sub":"LodgingBusiness","cm":"36120#Saint-Août","web":"https://www.monsieurdeux.com/","uri":"https://data.datatourisme.fr/15/08c5ed7b-bc71-36b7-bc56-13696f244e7d","dept":"36","reg":"cvl"}},{"type":"Feature","geometry":{"type":"Point","coordinates":[1.97222,46.75172]},"properties":{"nom":"Le Château","sub":"LodgingBusiness","cm":"36120#Saint-Août","web":"https://www.monsieurdeux.com/","uri":"https://data.datatourisme.fr/15/d6f5ddb3-1288-3704-b3f1-c7df09c612f4","dept":"36","reg":"cvl"}},{"type":"Feature","geometry":{"type":"Point","coordinates":[1.52234,46.59962]},"properties":{"nom":"Le Prieuré","sub":"HotelRestaurant","cm":"36200#Saint-Marcel","web":"http://www.restaurant-leprieure.com/","uri":"https://data.datatourisme.fr/15/ca0bcc20-bb9f-377c-98ef-abbfaaf03709","dept":"36","reg":"cvl"}},{"type":"Feature","geometry":{"type":"Point","coordinates":[1.60653,46.43511]},"properties":{"nom":"Base de Plein Air Lac Eguzon Pôle Hébergement","sub":"Hostel","cm":"36270#Éguzon-Chantôme","web":"https://www.bpa-laceguzon.fr/","uri":"https://data.datatourisme.fr/15/3ecdd614-80d3-3720-8dc6-2245097367e2","dept":"36","reg":"cvl"}},{"type":"Feature","geometry":{"type":"Point","coordinates":[1.98942,46.95024]},"properties":{"nom":"La Cognette","sub":"HotelRestaurant","cm":"36100#Issoudun","web":"http://www.la-cognette.com/","uri":"https://data.datatourisme.fr/15/2ed7cea9-036d-38a1-baf2-546bff8a9d6a","dept":"36","reg":"cvl"}},{"type":"Feature","geometry":{"type":"Point","coordinates":[1.17376,46.72045]},"properties":{"nom":"Le Pas de la Mule","sub":"LodgingBusiness","cm":"36300#Rosnay","web":null,"uri":"https://data.datatourisme.fr/15/cd2385b5-e8bf-34b6-8417-aece6e2668b3","dept":"36","reg":"cvl"}},{"type":"Feature","geometry":{"type":"Point","coordinates":[1.08411,46.75428]},"properties":{"nom":"Gîte La Forge","sub":"LodgingBusiness","cm":"36220#Lingé","web":"https://gitedelaforge36.wixsite.com/brenne","uri":"https://data.datatourisme.fr/15/0ea4ca97-1e73-3a7d-8618-90ba33915b77","dept":"36","reg":"cvl"}},{"type":"Feature","geometry":{"type":"Point","coordinates":[1.64512,47.24733]},"properties":{"nom":"Maison familiale","sub":"LodgingBusiness","cm":"36210#Chabris","web":null,"uri":"https://data.datatourisme.fr/15/8acd498f-4eaf-3e9a-94e3-b83b5febd020","dept":"36","reg":"cvl"}},{"type":"Feature","geometry":{"type":"Point","coordinates":[1.50859,47.12566]},"properties":{"nom":"Longère 3* proche Valençay - Zoo de Beauval","sub":"LodgingBusiness","cm":"36600#Veuil","web":"http://leschuets.wordpress.com/","uri":"https://data.datatourisme.fr/15/14707b18-3136-30ac-b73e-dfe9e8a593cf","dept":"36","reg":"cvl"}},{"type":"Feature","geometry":{"type":"Point","coordinates":[2.09883,46.99989]},"properties":{"nom":"Aire de service camping-car","sub":"CampingAndCaravanning","cm":"36100#Saint-Georges-sur-Arnon","web":"https://www.facebook.com/mairiesaintgeorgessurarnon","uri":"https://data.datatourisme.fr/15/d34623a9-79d8-3947-93bf-4bf797b1cbd1","dept":"36","reg":"cvl"}},{"type":"Feature","geometry":{"type":"Point","coordinates":[1.99092,46.58213]},"properties":{"nom":"Moulin de la Grand Font","sub":"LodgingBusiness","cm":"36400#La Châtre","web":"http://www.gites-de-france-indre-berry.com/hebergement-36G46004.html?ori=TRF","uri":"https://data.datatourisme.fr/15/80a1daea-4c68-3927-8b71-9d3d45aeea13","dept":"36","reg":"cvl"}},{"type":"Feature","geometry":{"type":"Point","coordinates":[2.13103,46.45005]},"properties":{"nom":"Domaine Savoir Vivre - L'Etable","sub":"LodgingBusiness","cm":"36160#Vijon","web":"https://www.domainesavoirvivre.com/","uri":"https://data.datatourisme.fr/15/b3f4684b-5a2a-3079-a365-adc555c660c8","dept":"36","reg":"cvl"}},{"type":"Feature","geometry":{"type":"Point","coordinates":[2.13103,46.45005]},"properties":{"nom":"Domaine Savoir Vivre - La Cabane","sub":"LodgingBusiness","cm":"36160#Vijon","web":"https://www.domainesavoirvivre.com/","uri":"https://data.datatourisme.fr/15/d49f797f-7086-30eb-9186-1351ba977712","dept":"36","reg":"cvl"}},{"type":"Feature","geometry":{"type":"Point","coordinates":[2.13103,46.45005]},"properties":{"nom":"Domaine Savoir Vivre - Le Garage","sub":"LodgingBusiness","cm":"36160#Vijon","web":"https://www.domainesavoirvivre.com/","uri":"https://data.datatourisme.fr/15/ed1e4381-afe6-3b9d-8c32-9a776062cba6","dept":"36","reg":"cvl"}},{"type":"Feature","geometry":{"type":"Point","coordinates":[1.31402,46.80529]},"properties":{"nom":"Domaine de Woodland","sub":"LodgingBusiness","cm":"36500#Vendœuvres","web":null,"uri":"https://data.datatourisme.fr/15/d55dd6f7-d3f3-3913-a205-21fe31d892e1","dept":"36","reg":"cvl"}},{"type":"Feature","geometry":{"type":"Point","coordinates":[1.17982,46.91824]},"properties":{"nom":"Le Truc bidule","sub":"LodgingBusiness","cm":"36700#Murs","web":"https://www.facebook.com/p/Le-Truc-Bidule-100083004168806/","uri":"https://data.datatourisme.fr/15/619563c2-8d49-3134-b3ae-61b920b32bc2","dept":"36","reg":"cvl"}},{"type":"Feature","geometry":{"type":"Point","coordinates":[1.88694,46.60906]},"properties":{"nom":"Chez Tata","sub":"LodgingBusiness","cm":"36230#Tranzault","web":"https://gites-de-france-indre.com/fr/location/locations-gites-sarzay-chez-tata-h36g003715","uri":"https://data.datatourisme.fr/15/11173f0a-49eb-33d5-ad76-0668e98b15cb","dept":"36","reg":"cvl"}},{"type":"Feature","geometry":{"type":"Point","coordinates":[2.19254,46.48531]},"properties":{"nom":"La Hulotte","sub":"LodgingBusiness","cm":"36160#Pérassay","web":"https://gites-de-france-indre.com/fr/location/locations-gites-perassay-la-hulotte-draps-et-linge-de-toilettes-offerts-h36g008982","uri":"https://data.datatourisme.fr/15/1713c988-d6a0-3fe4-8920-378096ea5d16","dept":"36","reg":"cvl"}},{"type":"Feature","geometry":{"type":"Point","coordinates":[2.02556,46.48115]},"properties":{"nom":"Pod n°15","sub":"LodgingBusiness","cm":"36160#Pouligny-Notre-Dame","web":"https://gites-de-france-indre.com/fr/location/locations-gites-pouligny-notre-dame-cabane-forestiere-1-h36g022756","uri":"https://data.datatourisme.fr/15/1b8cac50-00c9-3950-ac23-1719d63ec181","dept":"36","reg":"cvl"}},{"type":"Feature","geometry":{"type":"Point","coordinates":[2.02556,46.48115]},"properties":{"nom":"Pod n°16","sub":"LodgingBusiness","cm":"36160#Pouligny-Notre-Dame","web":"https://gites-de-france-indre.com/fr/location/locations-gites-pouligny-notre-dame-pod-n-15-h36g022759","uri":"https://data.datatourisme.fr/15/9650e0bc-580e-3d67-84b9-f8fe4c48d684","dept":"36","reg":"cvl"}},{"type":"Feature","geometry":{"type":"Point","coordinates":[2.02556,46.48115]},"properties":{"nom":"Bivouac 1","sub":"LodgingBusiness","cm":"36160#Pouligny-Notre-Dame","web":"https://gites-de-france-indre.com/fr/location/locations-gites-pouligny-notre-dame-pod-n-16-h36g022760","uri":"https://data.datatourisme.fr/15/0a1e522d-2855-32be-8925-fbd398b77f55","dept":"36","reg":"cvl"}},{"type":"Feature","geometry":{"type":"Point","coordinates":[2.02556,46.48115]},"properties":{"nom":"Bivouac 2","sub":"LodgingBusiness","cm":"36160#Pouligny-Notre-Dame","web":"https://gites-de-france-indre.com/fr/location/locations-gites-pouligny-notre-dame-bivouac-1-h36g022762","uri":"https://data.datatourisme.fr/15/6b9b164a-d9cf-3493-8458-f3a96609f94b","dept":"36","reg":"cvl"}},{"type":"Feature","geometry":{"type":"Point","coordinates":[2.02556,46.48115]},"properties":{"nom":"Pod n°17","sub":"LodgingBusiness","cm":"36160#Pouligny-Notre-Dame","web":"https://gites-de-france-indre.com/fr/location/locations-gites-pouligny-notre-dame-pod-n-17-h36g022761","uri":"https://data.datatourisme.fr/15/0c8e2854-c2a9-31d3-a4de-78c2b0c41fe3","dept":"36","reg":"cvl"}},{"type":"Feature","geometry":{"type":"Point","coordinates":[2.02556,46.48115]},"properties":{"nom":"Cabane forestière 1","sub":"LodgingBusiness","cm":"36160#Pouligny-Notre-Dame","web":"https://gites-de-france-indre.com/fr/location/locations-gites-pouligny-notre-dame-cabane-forestiere-1-h36g022749","uri":"https://data.datatourisme.fr/15/85ef3312-3d43-3763-b522-c35bdce67266","dept":"36","reg":"cvl"}},{"type":"Feature","geometry":{"type":"Point","coordinates":[2.02556,46.48115]},"properties":{"nom":"Cabane forestière 2","sub":"LodgingBusiness","cm":"36160#Pouligny-Notre-Dame","web":"https://gites-de-france-indre.com/fr/location/locations-gites-pouligny-notre-dame-cabane-forestiere-1-h36g022752","uri":"https://data.datatourisme.fr/15/d3bb6aea-a81c-3314-ac68-d43a22e0583b","dept":"36","reg":"cvl"}},{"type":"Feature","geometry":{"type":"Point","coordinates":[2.02556,46.48115]},"properties":{"nom":"Bivouac 3","sub":"LodgingBusiness","cm":"36160#Pouligny-Notre-Dame","web":"https://gites-de-france-indre.com/fr/location/locations-gites-pouligny-notre-dame-bivouac-2-h36g022763","uri":"https://data.datatourisme.fr/15/b824db7e-32e2-3489-81c7-113255f8e9ff","dept":"36","reg":"cvl"}},{"type":"Feature","geometry":{"type":"Point","coordinates":[2.02283,46.48087]},"properties":{"nom":"Camping de la base de loisirs de Ligny","sub":"Camping","cm":"36160#Pouligny-Notre-Dame","web":"https://campingpnd.wixsite.com/ligny","uri":"https://data.datatourisme.fr/15/eaa70d65-67d4-3bd2-855c-3c9e67369226","dept":"36","reg":"cvl"}},{"type":"Feature","geometry":{"type":"Point","coordinates":[2.01428,46.53154]},"properties":{"nom":"Le Cocon Berrichon","sub":"LodgingBusiness","cm":"36400#Briantes","web":"https://gites-de-france-indre.com/fr/location/locations-gites-briantes-h36g023598","uri":"https://data.datatourisme.fr/15/7b602ba2-b5e4-3529-9831-e3dba89ce97e","dept":"36","reg":"cvl"}},{"type":"Feature","geometry":{"type":"Point","coordinates":[1.85183,46.46639]},"properties":{"nom":"La Caurière","sub":"LodgingBusiness","cm":"36140#Aigurande","web":"https://gites-de-france-indre.com/fr/location/locations-gites-aigurande-la-cauriere-h36g000007","uri":"https://data.datatourisme.fr/15/80463bcb-ae97-3472-8361-65f046086a96","dept":"36","reg":"cvl"}},{"type":"Feature","geometry":{"type":"Point","coordinates":[1.86338,46.58594]},"properties":{"nom":"Gîte Rouge","sub":"LodgingBusiness","cm":"36230#Fougerolles","web":"https://gites-de-france-indre.com/fr/location/locations-gites-fougerolles-le-beau-de-varennes-bis-h36g002997","uri":"https://data.datatourisme.fr/15/82d28640-b8e9-331c-9466-ecaf6d07483a","dept":"36","reg":"cvl"}},{"type":"Feature","geometry":{"type":"Point","coordinates":[1.86338,46.58594]},"properties":{"nom":"Gîte Bleu","sub":"LodgingBusiness","cm":"36230#Fougerolles","web":"https://gites-de-france-indre.com/fr/location/locations-gites-fougerolles-le-beau-de-varennes-h36g001373","uri":"https://data.datatourisme.fr/15/f3308b4f-0da6-3151-87fb-0f6646f64959","dept":"36","reg":"cvl"}},{"type":"Feature","geometry":{"type":"Point","coordinates":[1.95758,46.6385]},"properties":{"nom":"Chez Clémentine","sub":"LodgingBusiness","cm":"36400#Nohant-Vic","web":"https://gites-de-france-indre.com/fr/location/locations-gites-nohant-vic-chez-clementine-h36g014458","uri":"https://data.datatourisme.fr/15/93c282e3-bc0b-3c09-a4f3-b50a591826ec","dept":"36","reg":"cvl"}},{"type":"Feature","geometry":{"type":"Point","coordinates":[1.53613,47.09933]},"properties":{"nom":"Château de Coubloust","sub":"LodgingBusiness","cm":"36600#Vicq-sur-Nahon","web":"https://chateaudecoubloust.fr/","uri":"https://data.datatourisme.fr/15/6ab9fb82-9179-355b-921a-2c1b50e79ce4","dept":"36","reg":"cvl"}},{"type":"Feature","geometry":{"type":"Point","coordinates":[1.60678,46.43594]},"properties":{"nom":"VVF Villages Club Essentiel Le Lac à Eguzon","sub":"CollectiveAccommodation","cm":"36270#Éguzon-Chantôme","web":"http://www.vvf-villages.fr/location-vacances/vacances-lac-deguzon-vvf-villages.html","uri":"https://data.datatourisme.fr/15/88283190-8387-320f-ac8c-f2a0548a375d","dept":"36","reg":"cvl"}},{"type":"Feature","geometry":{"type":"Point","coordinates":[1.44493,47.2118]},"properties":{"nom":"Le Berry Cosy","sub":"LodgingBusiness","cm":"36600#Lye","web":"https://leberrycosy.wixsite.com/leberrycosy?fbclid=IwAR1F9iyGToVjDx9lds7AsdnXxi4Qt_19iIWg8JHrb7lieQ1FWH3m7Lq4oGI","uri":"https://data.datatourisme.fr/15/30d97852-bd3b-3ef3-bab0-0fc6430def1f","dept":"36","reg":"cvl"}},{"type":"Feature","geometry":{"type":"Point","coordinates":[1.62063,46.42788]},"properties":{"nom":"Les Fougères du Lac : Gîte Guillaumin","sub":"LodgingBusiness","cm":"36190#Saint-Plantaire","web":"http://www.gites-lesfougeresdulac.fr/","uri":"https://data.datatourisme.fr/15/304d97b0-a432-3828-8704-cebf07bb3024","dept":"36","reg":"cvl"}},{"type":"Feature","geometry":{"type":"Point","coordinates":[1.62063,46.42788]},"properties":{"nom":"Les Fougères du Lac : Gîte Monet","sub":"LodgingBusiness","cm":"36190#Saint-Plantaire","web":"http://www.gites-lesfougeresdulac.fr/","uri":"https://data.datatourisme.fr/15/8b1f5490-7a86-35d6-b91e-0d98b310df29","dept":"36","reg":"cvl"}},{"type":"Feature","geometry":{"type":"Point","coordinates":[1.21108,46.70642]},"properties":{"nom":"Camping municipal les Millots","sub":"Camping","cm":"36300#Rosnay","web":null,"uri":"https://data.datatourisme.fr/15/509af476-15b1-361d-8b82-5e3779a0fbab","dept":"36","reg":"cvl"}},{"type":"Feature","geometry":{"type":"Point","coordinates":[1.18184,46.45697]},"properties":{"nom":"Camping Vallée de Lignac***","sub":"Camping","cm":"36370#Lignac","web":"http://www.valleedelignac.com/","uri":"https://data.datatourisme.fr/15/6011c6b4-67e5-3852-af88-a512a72e9d2b","dept":"36","reg":"cvl"}},{"type":"Feature","geometry":{"type":"Point","coordinates":[1.59162,46.47754]},"properties":{"nom":"Gîte de Cromay","sub":"LodgingBusiness","cm":"36270#Baraize","web":"https://gites-de-france-indre.com/fr/location/locations-gites-baraize-h36g019777","uri":"https://data.datatourisme.fr/15/1184536d-2c6d-308f-a475-464d03f251ac","dept":"36","reg":"cvl"}},{"type":"Feature","geometry":{"type":"Point","coordinates":[1.602,46.5673]},"properties":{"nom":"L'Etable","sub":"LodgingBusiness","cm":"36200#Chavin","web":"https://gites-de-france-indre.com/fr/location/locations-gites-chavin-l-etable-h36g021273","uri":"https://data.datatourisme.fr/15/165f7f93-efe0-3708-8ef8-085af7f21706","dept":"36","reg":"cvl"}},{"type":"Feature","geometry":{"type":"Point","coordinates":[1.52055,46.58935]},"properties":{"nom":"La Tannière","sub":"LodgingBusiness","cm":"36200#Argenton-sur-Creuse","web":"https://gites-de-france-indre.com/fr/location/locations-gites-argenton-sur-creuse-111-h36g018994","uri":"https://data.datatourisme.fr/15/91bcb3bc-fb52-36a5-9eb5-ab32b33b3cfb","dept":"36","reg":"cvl"}},{"type":"Feature","geometry":{"type":"Point","coordinates":[1.56888,46.54882]},"properties":{"nom":"Les Volets Rouges","sub":"LodgingBusiness","cm":"36200#Le Menoux","web":"https://gites-de-france-indre.com/fr/location/locations-gites-le-menoux-les-volets-rouges-h36g023502","uri":"https://data.datatourisme.fr/15/9549024c-509b-3165-8c29-f74d404961a2","dept":"36","reg":"cvl"}},{"type":"Feature","geometry":{"type":"Point","coordinates":[1.66809,47.2362]},"properties":{"nom":"Moulin de la Grange","sub":"LodgingBusiness","cm":"36210#Chabris","web":"https://gites-de-france-indre.com/fr/location/locations-gites-chabris-moulin-de-la-grange-h36g000621","uri":"https://data.datatourisme.fr/15/2050f0ac-74ac-36eb-af03-89e5f4d4c0f5","dept":"36","reg":"cvl"}},{"type":"Feature","geometry":{"type":"Point","coordinates":[1.34904,47.08467]},"properties":{"nom":"Les Ouches","sub":"LodgingBusiness","cm":"36240#Écueillé","web":"https://gites-de-france-indre.com/fr/location/locations-gites-ecueille-les-ouches-h36g001187","uri":"https://data.datatourisme.fr/15/1164e993-edf8-3da6-82e7-2cc5ff890d67","dept":"36","reg":"cvl"}},{"type":"Feature","geometry":{"type":"Point","coordinates":[1.41899,47.18951]},"properties":{"nom":"Le 10 Cave des Peguets","sub":"LodgingBusiness","cm":"36360#Villentrois-Faverolles-en-Berry","web":"https://gites-de-france-indre.com/fr/location/locations-gites-villentrois-faverolles-en-berry-le-10-la-cave-des-peguets-h36g024801","uri":"https://data.datatourisme.fr/15/1834d5e2-2e5f-3529-bd34-35c3cd6e6a7e","dept":"36","reg":"cvl"}},{"type":"Feature","geometry":{"type":"Point","coordinates":[1.41899,47.18951]},"properties":{"nom":"Le 6 Cave des Péguets","sub":"LodgingBusiness","cm":"36360#Villentrois-Faverolles-en-Berry","web":"https://gites-de-france-indre.com/fr/location/locations-gites-villentrois-faverolles-en-berry-le-6-la-cave-des-peguets-h36g024804","uri":"https://data.datatourisme.fr/15/9504d7fb-5911-33d9-a710-a2fc2dd573ed","dept":"36","reg":"cvl"}},{"type":"Feature","geometry":{"type":"Point","coordinates":[1.50158,47.04657]},"properties":{"nom":"Les Hirondelles en Berry","sub":"LodgingBusiness","cm":"36240#Gehée","web":"https://gites-de-france-indre.com/fr/location/locations-gites-gehee-les-hirondelles-h36g001506","uri":"https://data.datatourisme.fr/15/18820f78-b2c9-370c-a5ba-2b0419873cb8","dept":"36","reg":"cvl"}},{"type":"Feature","geometry":{"type":"Point","coordinates":[1.57433,47.13183]},"properties":{"nom":"Sermoise","sub":"LodgingBusiness","cm":"36600#Vicq-sur-Nahon","web":"https://gites-de-france-indre.com/fr/location/locations-gites-vicq-sur-nahon-gite-de-sermoise-h36g004324","uri":"https://data.datatourisme.fr/15/858572e7-9008-37a6-a449-26abbbde20d8","dept":"36","reg":"cvl"}},{"type":"Feature","geometry":{"type":"Point","coordinates":[1.47663,47.09194]},"properties":{"nom":"La Bournillière","sub":"LodgingBusiness","cm":"36600#Vicq-sur-Nahon","web":"https://gites-de-france-indre.com/fr/location/locations-gites-vicq-sur-nahon-la-bournilliere-h36g004325","uri":"https://data.datatourisme.fr/15/951f45e0-ac72-321c-9844-ea830418af53","dept":"36","reg":"cvl"}},{"type":"Feature","geometry":{"type":"Point","coordinates":[1.40877,47.17767]},"properties":{"nom":"Les Ravineaux n°2","sub":"LodgingBusiness","cm":"36360#Villentrois-Faverolles-en-Berry","web":"https://gites-de-france-indre.com/fr/location/locations-gites-faverolles-les-ravineaux-n-2-h36g005134","uri":"https://data.datatourisme.fr/15/99db9793-4bef-3f60-a114-053c190307ff","dept":"36","reg":"cvl"}},{"type":"Feature","geometry":{"type":"Point","coordinates":[1.40877,47.17767]},"properties":{"nom":"La Rivière","sub":"LodgingBusiness","cm":"36360#Villentrois-Faverolles-en-Berry","web":"https://gites-de-france-indre.com/fr/location/locations-gites-villentrois-faverolles-en-berry-la-riviere-h36g024455","uri":"https://data.datatourisme.fr/15/e4b4b55c-dcbe-3bc6-b4ba-a73b9d293cb3","dept":"36","reg":"cvl"}},{"type":"Feature","geometry":{"type":"Point","coordinates":[1.40877,47.17767]},"properties":{"nom":"Les Ravineaux n°1","sub":"LodgingBusiness","cm":"36360#Villentrois-Faverolles-en-Berry","web":"https://gites-de-france-indre.com/fr/location/locations-gites-faverolles-les-ravineaux-n-1-h36g001273","uri":"https://data.datatourisme.fr/15/f83f5d77-11bd-3726-a58c-43648c5cb391","dept":"36","reg":"cvl"}},{"type":"Feature","geometry":{"type":"Point","coordinates":[1.40877,47.17767]},"properties":{"nom":"Les Ravineaux n°3","sub":"LodgingBusiness","cm":"36360#Villentrois-Faverolles-en-Berry","web":"https://gites-de-france-indre.com/fr/location/locations-gites-faverolles-les-ravineaux-n-3-h36g001278","uri":"https://data.datatourisme.fr/15/be4967b8-601f-306d-9cbb-4a1d2f5cf25a","dept":"36","reg":"cvl"}},{"type":"Feature","geometry":{"type":"Point","coordinates":[1.6952,46.81369]},"properties":{"nom":"Le Cosy","sub":"LodgingBusiness","cm":"36000#Châteauroux","web":null,"uri":"https://data.datatourisme.fr/15/7e072c79-c5c4-38f8-8c59-f021c3845a5e","dept":"36","reg":"cvl"}},{"type":"Feature","geometry":{"type":"Point","coordinates":[2.06139,46.66046]},"properties":{"nom":"L'Olivier du Berry","sub":"LodgingBusiness","cm":"36400#La Berthenoux","web":"https://www.abritel.fr/location-vacances/p2034609?noDates=true&uni_id=2210505","uri":"https://data.datatourisme.fr/15/7fa6c68f-215e-3e39-925b-92493e3b3772","dept":"36","reg":"cvl"}},{"type":"Feature","geometry":{"type":"Point","coordinates":[1.70404,46.85112]},"properties":{"nom":"Hôtels B&B Châteauroux Déols","sub":"Hotel","cm":"36130#Déols","web":"http://www.hotel-bb.com/fr/hotel/chateauroux-deols","uri":"https://data.datatourisme.fr/15/2b9303cd-a5d4-399f-8de7-5cdbe034728e","dept":"36","reg":"cvl"}},{"type":"Feature","geometry":{"type":"Point","coordinates":[1.70447,46.852]},"properties":{"nom":"B&B Châteauroux Aéroport","sub":"Hotel","cm":"36130#Déols","web":"http://www.hotel-bb.com/","uri":"https://data.datatourisme.fr/15/fc7d7a98-bdd4-3675-a9d8-38581d52b835","dept":"36","reg":"cvl"}},{"type":"Feature","geometry":{"type":"Point","coordinates":[1.70749,46.85221]},"properties":{"nom":"Village Vacances l'Endorph'In","sub":"CollectiveAccommodation","cm":"36130#Déols","web":"https://village-vacances-endorphin.fr/","uri":"https://data.datatourisme.fr/15/e8830432-16a6-3e2e-a0d0-f1b4cdc3c3cd","dept":"36","reg":"cvl"}},{"type":"Feature","geometry":{"type":"Point","coordinates":[0.93836,46.63932]},"properties":{"nom":"Relais Paysan Le Bois d'Haut","sub":"CollectiveAccommodation","cm":"36220#Mérigny","web":"https://www.accueil-paysan.com/trouver-hebergement/19/ferme-du-bois-d-haut","uri":"https://data.datatourisme.fr/15/294b13ff-47b7-3439-a41c-f9e47ad2e65f","dept":"36","reg":"cvl"}},{"type":"Feature","geometry":{"type":"Point","coordinates":[1.39382,46.75637]},"properties":{"nom":"Destination sauvage","sub":"CollectiveAccommodation","cm":"36500#Méobecq","web":"http://www.moulindebaratte.com/","uri":"https://data.datatourisme.fr/15/715514eb-2496-39e1-87b3-61a60080913d","dept":"36","reg":"cvl"}},{"type":"Feature","geometry":{"type":"Point","coordinates":[1.25556,46.41978]},"properties":{"nom":"Château Le Breuil","sub":"BedAndBreakfast","cm":"36310#Chaillac","web":"http://www.chateaulebreuil.com/","uri":"https://data.datatourisme.fr/15/d7112dd5-64de-32a1-8c21-21310ac5e64f","dept":"36","reg":"cvl"}},{"type":"Feature","geometry":{"type":"Point","coordinates":[1.11165,46.8591]},"properties":{"nom":"Chez Renée - Ferme berrichonne en Brenne","sub":"LodgingBusiness","cm":"36290#Azay-le-Ferron","web":"https://gites-de-france-indre.com/fr/location/location-gite-azay-le-ferron-la-chevraie-h36g030591","uri":"https://data.datatourisme.fr/15/aae7f839-ab9e-3f7a-90b0-6c47cd2d629c","dept":"36","reg":"cvl"}},{"type":"Feature","geometry":{"type":"Point","coordinates":[1.11165,46.8591]},"properties":{"nom":"La Marivole","sub":"LodgingBusiness","cm":"36290#Azay-le-Ferron","web":"https://gites-de-france-indre.com/fr/location/location-gite-azay-le-ferron-la-marivole-h36g029967","uri":"https://data.datatourisme.fr/15/f55697c9-06c3-3394-9f42-ee99f51b8990","dept":"36","reg":"cvl"}},{"type":"Feature","geometry":{"type":"Point","coordinates":[1.76304,47.19595]},"properties":{"nom":"Gîte de la Piscine","sub":"LodgingBusiness","cm":"36210#Dun-le-Poëlier","web":"https://gites-de-france-indre.com/fr/location/locations-gites-dun-le-poelier-gite-de-la-piscine-h36g023505","uri":"https://data.datatourisme.fr/15/027f90a7-1d96-3271-b8d2-ef6f988039ea","dept":"36","reg":"cvl"}},{"type":"Feature","geometry":{"type":"Point","coordinates":[1.76304,47.19595]},"properties":{"nom":"Le Petit Pont","sub":"LodgingBusiness","cm":"36210#Dun-le-Poëlier","web":"https://gites-de-france-indre.com/fr/location/locations-gites-dun-le-poelier-gue-rabot-h36g019775","uri":"https://data.datatourisme.fr/15/e47ad7a8-d7c4-3847-8610-9a20aa373610","dept":"36","reg":"cvl"}},{"type":"Feature","geometry":{"type":"Point","coordinates":[1.61152,46.42412]},"properties":{"nom":"La Maison du Lac","sub":"LodgingBusiness","cm":"36190#Saint-Plantaire","web":"https://gites-de-france-indre.com/fr/location/location-gite-saint-plantaire-la-maison-du-lac-h36g029629","uri":"https://data.datatourisme.fr/15/2f8da53f-c727-3f5a-a832-6257b797ab7a","dept":"36","reg":"cvl"}},{"type":"Feature","geometry":{"type":"Point","coordinates":[1.30932,46.50979]},"properties":{"nom":"Le Domaine","sub":"LodgingBusiness","cm":"36370#Prissac","web":"https://gites-de-france-indre.com/fr/location/location-gite-prissac-le-domaine-h36g029324","uri":"https://data.datatourisme.fr/15/384c72ec-dd77-3b38-934d-2a769935fb74","dept":"36","reg":"cvl"}},{"type":"Feature","geometry":{"type":"Point","coordinates":[1.98131,46.59222]},"properties":{"nom":"Montgivray","sub":"LodgingBusiness","cm":"36400#Montgivray","web":"https://gites-de-france-indre.com/fr/location/locations-gites-la-chatre-montgivray-h36g002035","uri":"https://data.datatourisme.fr/15/1458a3ee-97a7-3199-87c8-3f47091ac6da","dept":"36","reg":"cvl"}},{"type":"Feature","geometry":{"type":"Point","coordinates":[1.95567,46.56741]},"properties":{"nom":"Gîte d'étape du Champs des Clous","sub":"LodgingBusiness","cm":"36400#Le Magny","web":"https://gites-de-france-indre.com/fr/location/locations-gites-le-magny-h36g021172","uri":"https://data.datatourisme.fr/15/1f91594d-4a9e-3293-a139-b6bc6b990a77","dept":"36","reg":"cvl"}},{"type":"Feature","geometry":{"type":"Point","coordinates":[1.95567,46.56741]},"properties":{"nom":"Le Champs des Clous","sub":"LodgingBusiness","cm":"36400#Le Magny","web":"https://gites-de-france-indre.com/fr/location/locations-gites-le-magny-h36g021170","uri":"https://data.datatourisme.fr/15/dba5f202-f1ac-3e4d-b6e9-896e6834615e","dept":"36","reg":"cvl"}},{"type":"Feature","geometry":{"type":"Point","coordinates":[2.01964,46.53812]},"properties":{"nom":"Le Virolan","sub":"LodgingBusiness","cm":"36400#Briantes","web":"https://gites-de-france-indre.com/fr/location/locations-gites-la-chatre-le-virolan-h36g002031","uri":"https://data.datatourisme.fr/15/573e8b7d-1a69-3da3-8920-66b1658d7f62","dept":"36","reg":"cvl"}},{"type":"Feature","geometry":{"type":"Point","coordinates":[1.67223,46.45265]},"properties":{"nom":"Les Aulnaies","sub":"LodgingBusiness","cm":"36190#Saint-Plantaire","web":"https://gites-de-france-indre.com/fr/location/locations-gites-st-plantaire-les-aulnaies-h36g003953","uri":"https://data.datatourisme.fr/15/58acd9ba-8a51-33f4-8d76-4735266864bb","dept":"36","reg":"cvl"}},{"type":"Feature","geometry":{"type":"Point","coordinates":[1.62444,46.4011]},"properties":{"nom":"Au  Rocher de la Fileuse","sub":"LodgingBusiness","cm":"36190#Saint-Plantaire","web":"https://gites-de-france-indre.com/fr/location/locations-gites-saint-plantaire-au-rocher-de-la-fileuse-h36g024006","uri":"https://data.datatourisme.fr/15/6ec3d23e-5b2c-3c8e-b72f-4bf17561c377","dept":"36","reg":"cvl"}},{"type":"Feature","geometry":{"type":"Point","coordinates":[1.62444,46.4011]},"properties":{"nom":"La Grange au Rocher de la Fileuse","sub":"LodgingBusiness","cm":"36190#Saint-Plantaire","web":"https://www.gites-de-france-indre.com/fr/location/locations-gites-st-plantaire-la-grange-h36g003954","uri":"https://data.datatourisme.fr/15/d1642cad-200d-3036-a731-22937885e8f3","dept":"36","reg":"cvl"}},{"type":"Feature","geometry":{"type":"Point","coordinates":[1.69428,46.53085]},"properties":{"nom":"L'ami","sub":"LodgingBusiness","cm":"36190#Orsennes","web":"https://gites-de-france-indre.com/fr/location/locations-gites-orsennes-h36g022894","uri":"https://data.datatourisme.fr/15/76137055-3993-38cf-992c-4b88a8e1ea8e","dept":"36","reg":"cvl"}},{"type":"Feature","geometry":{"type":"Point","coordinates":[1.74695,46.5214]},"properties":{"nom":"Le Champ de Père","sub":"LodgingBusiness","cm":"36340#Cluis","web":"https://gites-de-france-indre.com/fr/location/locations-gites-cluis-le-champ-de-pere-h36g000894","uri":"https://data.datatourisme.fr/15/902c728f-52c1-3a2f-b047-31a3ff937bca","dept":"36","reg":"cvl"}},{"type":"Feature","geometry":{"type":"Point","coordinates":[2.05629,46.6186]},"properties":{"nom":"La Pouzerie","sub":"LodgingBusiness","cm":"36400#Thevet-Saint-Julien","web":"https://gites-de-france-indre.com/fr/location/locations-gites-thevet-saint-julien-la-pouzerie-h36g022674","uri":"https://data.datatourisme.fr/15/e2b41bd3-5258-3114-b5f1-98dd41f54504","dept":"36","reg":"cvl"}},{"type":"Feature","geometry":{"type":"Point","coordinates":[2.09494,46.43392]},"properties":{"nom":"La Ferme des Vacances","sub":"LodgingBusiness","cm":"36160#Vigoulant","web":"https://gites-de-france-indre.com/fr/location/locations-gites-vigoulant-la-ferme-des-vacances-h36g020546","uri":"https://data.datatourisme.fr/15/f0e3ae4f-b96a-36dd-9c70-58235903457b","dept":"36","reg":"cvl"}},{"type":"Feature","geometry":{"type":"Point","coordinates":[1.14171,46.58979]},"properties":{"nom":"L'étang Drait","sub":"LodgingBusiness","cm":"36370#Bélâbre","web":"https://gites-de-france-indre.com/fr/location/locations-gites-belabre-l-etang-drait-h36g022527","uri":"https://data.datatourisme.fr/15/16a1245d-d689-3997-8084-47ac6fade975","dept":"36","reg":"cvl"}},{"type":"Feature","geometry":{"type":"Point","coordinates":[1.0624,46.62783]},"properties":{"nom":"Le Naillac","sub":"LodgingBusiness","cm":"36300#Le Blanc","web":"https://gites-de-france-indre.com/fr/location/locations-gites-le-blanc-le-naillac-h36g005364","uri":"https://data.datatourisme.fr/15/1f285556-ce56-3dc8-92a0-fd84611945b5","dept":"36","reg":"cvl"}},{"type":"Feature","geometry":{"type":"Point","coordinates":[0.98183,46.66256]},"properties":{"nom":"Les Renaudières","sub":"LodgingBusiness","cm":"36220#Sauzelles","web":"https://gites-de-france-indre.com/fr/location/locations-gites-sauzelles-les-renaudieres-h36g003778","uri":"https://data.datatourisme.fr/15/2f1a3cec-8f97-3bd9-9520-a168a8e3e54b","dept":"36","reg":"cvl"}},{"type":"Feature","geometry":{"type":"Point","coordinates":[1.20211,46.40642]},"properties":{"nom":"Le Communal du Bourg","sub":"LodgingBusiness","cm":"36310#Tilly","web":"https://gites-de-france-indre.com/fr/location/locations-gites-tilly-le-communal-du-bourg-h36g004053","uri":"https://data.datatourisme.fr/15/35c8b987-5d21-3a39-871a-a5ebccb80429","dept":"36","reg":"cvl"}},{"type":"Feature","geometry":{"type":"Point","coordinates":[1.59143,46.77218]},"properties":{"nom":"Maison du Potager de Laleuf","sub":"LodgingBusiness","cm":"36250#Saint-Maur","web":"https://gites-de-france-indre.com/fr/location/locations-gites-saint-maur-maison-du-potager-de-laleuf-h36g019238","uri":"https://data.datatourisme.fr/15/3355a979-fcd0-3fd5-9e9f-6c18ec33d40b","dept":"36","reg":"cvl"}},{"type":"Feature","geometry":{"type":"Point","coordinates":[1.47747,46.96283]},"properties":{"nom":"Gîte de La Basse Roche 1","sub":"LodgingBusiness","cm":"36500#Sougé","web":"https://gites-de-france-indre.com/fr/location/locations-gites-souge-gite-de-la-basse-roche-1-h36g025699","uri":"https://data.datatourisme.fr/15/4c595fa3-1d54-3e82-9a91-44875c5f14e7","dept":"36","reg":"cvl"}},{"type":"Feature","geometry":{"type":"Point","coordinates":[1.47502,46.96406]},"properties":{"nom":"Gîte de la Basse Roche","sub":"LodgingBusiness","cm":"36500#Sougé","web":null,"uri":"https://data.datatourisme.fr/15/ba2f4148-e8c6-3790-a791-342b9390abbd","dept":"36","reg":"cvl"}},{"type":"Feature","geometry":{"type":"Point","coordinates":[1.47747,46.96283]},"properties":{"nom":"Gîte de La Basse Roche 2","sub":"LodgingBusiness","cm":"36500#Sougé","web":"https://gites-de-france-indre.com/fr/location/locations-gites-souge-gite-de-la-basse-roche-2-h36g025698","uri":"https://data.datatourisme.fr/15/dd41e300-299d-37c5-8f58-31a988990cf2","dept":"36","reg":"cvl"}},{"type":"Feature","geometry":{"type":"Point","coordinates":[1.64717,46.77392]},"properties":{"nom":"Le Clos des Aubrys","sub":"LodgingBusiness","cm":"36250#Saint-Maur","web":"https://gites-de-france-indre.com/fr/location/locations-gites-saint-maur-le-clos-des-aubrys-h36g014265","uri":"https://data.datatourisme.fr/15/51318a76-c15a-30bc-8b03-e854bdf91df6","dept":"36","reg":"cvl"}},{"type":"Feature","geometry":{"type":"Point","coordinates":[1.83117,47.11774]},"properties":{"nom":"Le Prépoilé","sub":"LodgingBusiness","cm":"36150#Reboursin","web":"https://gites-de-france-indre.com/fr/location/locations-gites-reboursin-h36g023350","uri":"https://data.datatourisme.fr/15/538ac690-cb00-3dc6-b511-754943de664d","dept":"36","reg":"cvl"}},{"type":"Feature","geometry":{"type":"Point","coordinates":[1.86106,46.83767]},"properties":{"nom":"Ablenay","sub":"LodgingBusiness","cm":"36100#Sainte-Fauste","web":"https://gites-de-france-indre.com/fr/location/locations-gites-ste-fauste-ablenay-h36g003969","uri":"https://data.datatourisme.fr/15/8037d697-1cea-3dcc-a3c3-62d306d46d78","dept":"36","reg":"cvl"}},{"type":"Feature","geometry":{"type":"Point","coordinates":[1.4262,46.63597]},"properties":{"nom":"Mi fa sol","sub":"LodgingBusiness","cm":"36800#Saint-Gaultier","web":"https://gites-de-france-indre.com/fr/location/locations-gites-saint-gaultier-h36g022377","uri":"https://data.datatourisme.fr/15/2aec5027-e0fb-39b2-8b96-c4b2e41a9d6f","dept":"36","reg":"cvl"}},{"type":"Feature","geometry":{"type":"Point","coordinates":[1.57138,46.55385]},"properties":{"nom":"Le Gîte du Hérisson","sub":"LodgingBusiness","cm":"36200#Le Menoux","web":"https://gites-de-france-indre.com/fr/location/location-gite-le-menoux-gite-le-menoux-h36g024620","uri":"https://data.datatourisme.fr/15/8544dc57-8c02-37ac-a17b-f6eca5051417","dept":"36","reg":"cvl"}},{"type":"Feature","geometry":{"type":"Point","coordinates":[1.56958,46.55303]},"properties":{"nom":"Le Broquet","sub":"LodgingBusiness","cm":"36200#Le Menoux","web":"https://gites-de-france-indre.com/fr/location/locations-gites-le-menoux-le-broquet-h36g002219","uri":"https://data.datatourisme.fr/15/eb3beb88-0e76-3698-b171-7c0a09b5332c","dept":"36","reg":"cvl"}},{"type":"Feature","geometry":{"type":"Point","coordinates":[1.70069,46.82979]},"properties":{"nom":"Le petit nid (studio)","sub":"LodgingBusiness","cm":"36130#Déols","web":null,"uri":"https://data.datatourisme.fr/15/4b97e6f2-241a-3195-ac12-a819f1fed90c","dept":"36","reg":"cvl"}},{"type":"Feature","geometry":{"type":"Point","coordinates":[1.70069,46.82979]},"properties":{"nom":"Les tomettes","sub":"LodgingBusiness","cm":"36130#Déols","web":null,"uri":"https://data.datatourisme.fr/15/ba5adaba-91bb-3091-8b95-310cbeccf737","dept":"36","reg":"cvl"}},{"type":"Feature","geometry":{"type":"Point","coordinates":[1.70069,46.82979]},"properties":{"nom":"La maison cachée","sub":"LodgingBusiness","cm":"36130#Déols","web":null,"uri":"https://data.datatourisme.fr/15/5b219bd2-fde8-394a-863f-c46e64e9b5ac","dept":"36","reg":"cvl"}},{"type":"Feature","geometry":{"type":"Point","coordinates":[1.70225,46.82951]},"properties":{"nom":"L'évasion","sub":"LodgingBusiness","cm":"36130#Déols","web":null,"uri":"https://data.datatourisme.fr/15/c85ca496-2711-33b8-b194-ae35b3b244af","dept":"36","reg":"cvl"}},{"type":"Feature","geometry":{"type":"Point","coordinates":[1.0806,46.84924]},"properties":{"nom":"La Philine","sub":"LodgingBusiness","cm":"36290#Azay-le-Ferron","web":"https://www.laphiline-azayleferron.com/","uri":"https://data.datatourisme.fr/15/bbf02c19-3004-3a7c-947a-d293af38dcc8","dept":"36","reg":"cvl"}},{"type":"Feature","geometry":{"type":"Point","coordinates":[1.68093,46.81671]},"properties":{"nom":"La Fontaine","sub":"LodgingBusiness","cm":"36000#Châteauroux","web":"https://gites-de-france-indre.com/fr/location/location-gite-chateauroux-gite-la-fontaine-h36g031126","uri":"https://data.datatourisme.fr/15/22f486a0-21fd-3c62-84c1-a4de03af05e4","dept":"36","reg":"cvl"}},{"type":"Feature","geometry":{"type":"Point","coordinates":[1.41181,46.73946]},"properties":{"nom":"Millebecco","sub":"LodgingBusiness","cm":"36500#Méobecq","web":"https://gites-de-france-indre.com/fr/location/location-gite-meobecq-gite-en-brenne-h36g031185","uri":"https://data.datatourisme.fr/15/d5333e31-4419-3681-a534-d72d50c15bef","dept":"36","reg":"cvl"}},{"type":"Feature","geometry":{"type":"Point","coordinates":[1.04336,46.82764]},"properties":{"nom":"Tente 3","sub":"LodgingBusiness","cm":"36290#Azay-le-Ferron","web":"https://gites-de-france-indre.com/fr/location/locations-gites-azay-le-ferron-tente-3-h36g025705","uri":"https://data.datatourisme.fr/15/39afefb8-2cd7-31c1-8b8a-d72dabb10bec","dept":"36","reg":"cvl"}},{"type":"Feature","geometry":{"type":"Point","coordinates":[1.04336,46.82764]},"properties":{"nom":"Yourte 2","sub":"LodgingBusiness","cm":"36290#Azay-le-Ferron","web":"https://gites-de-france-indre.com/fr/location/locations-gites-azay-le-ferron-yourte-2-h36g025701","uri":"https://data.datatourisme.fr/15/772ee70d-fb34-3149-a6dd-0da6d01e0876","dept":"36","reg":"cvl"}},{"type":"Feature","geometry":{"type":"Point","coordinates":[1.04336,46.82764]},"properties":{"nom":"Yourte 1","sub":"LodgingBusiness","cm":"36290#Azay-le-Ferron","web":"https://gites-de-france-indre.com/fr/location/camping-azay-le-ferron-yourte-1-h36c025700","uri":"https://data.datatourisme.fr/15/d9dc11d1-aee7-3ee5-a8fe-cbdaf3b5d2a9","dept":"36","reg":"cvl"}},{"type":"Feature","geometry":{"type":"Point","coordinates":[1.04336,46.82764]},"properties":{"nom":"Tente 2","sub":"LodgingBusiness","cm":"36290#Azay-le-Ferron","web":"https://gites-de-france-indre.com/fr/location/locations-gites-azay-le-ferron-tente-2-h36g025703","uri":"https://data.datatourisme.fr/15/dfc256d4-df1b-3efa-b9ff-218400ca87d8","dept":"36","reg":"cvl"}},{"type":"Feature","geometry":{"type":"Point","coordinates":[1.04336,46.82764]},"properties":{"nom":"Yourte 3","sub":"LodgingBusiness","cm":"36290#Azay-le-Ferron","web":"https://gites-de-france-indre.com/fr/location/locations-gites-azay-le-ferron-yourte-3-h36g025702","uri":"https://data.datatourisme.fr/15/f6ffdd84-7aa1-3a86-84c0-9f4797478d70","dept":"36","reg":"cvl"}},{"type":"Feature","geometry":{"type":"Point","coordinates":[1.04336,46.82764]},"properties":{"nom":"Tente 4","sub":"LodgingBusiness","cm":"36290#Azay-le-Ferron","web":"https://gites-de-france-indre.com/fr/location/locations-gites-azay-le-ferron-tente-4-h36g025706","uri":"https://data.datatourisme.fr/15/6d1f9aa9-5391-3a55-9eb1-4acf09a3eb6c","dept":"36","reg":"cvl"}},{"type":"Feature","geometry":{"type":"Point","coordinates":[1.04336,46.82764]},"properties":{"nom":"Tente 1","sub":"LodgingBusiness","cm":"36290#Azay-le-Ferron","web":"https://gites-de-france-indre.com/fr/location/locations-gites-azay-le-ferron-tente-1-h36g025704","uri":"https://data.datatourisme.fr/15/e01e8c4c-718e-30ec-bbe2-4af7a0eec715","dept":"36","reg":"cvl"}},{"type":"Feature","geometry":{"type":"Point","coordinates":[1.42319,46.63499]},"properties":{"nom":"Le Petit Prieuré","sub":"LodgingBusiness","cm":"36800#Saint-Gaultier","web":"https://gites-de-france-indre.com/fr/location/locations-gites-saint-gaultier-le-petit-prieure-h36g023869","uri":"https://data.datatourisme.fr/15/5a475089-dde6-344d-a840-38493d3f7a8f","dept":"36","reg":"cvl"}},{"type":"Feature","geometry":{"type":"Point","coordinates":[1.42319,46.63499]},"properties":{"nom":"Le Prieuré","sub":"LodgingBusiness","cm":"36800#Saint-Gaultier","web":"https://gites-de-france-indre.com/fr/location/locations-gites-saint-gaultier-h36g022481","uri":"https://data.datatourisme.fr/15/470ee8a8-2f1a-3e1d-b7dd-b3560533ae66","dept":"36","reg":"cvl"}},{"type":"Feature","geometry":{"type":"Point","coordinates":[1.11175,46.72579]},"properties":{"nom":"Espace réception Domaine du prieuré Saint  André","sub":"LodgingBusiness","cm":"36300#Douadic","web":"https://gites-de-france-indre.com/fr/location/location-gite-douadic-espace-reception-domaine-du-prieure-h36g026378","uri":"https://data.datatourisme.fr/15/622a6271-b39e-3026-ae9f-ad7e75171563","dept":"36","reg":"cvl"}},{"type":"Feature","geometry":{"type":"Point","coordinates":[1.11175,46.72579]},"properties":{"nom":"La Mer Rouge, Domaine du Prieuré","sub":"LodgingBusiness","cm":"36300#Douadic","web":"https://gites-de-france-indre.com/fr/location/locations-gites-douadic-h36g021294","uri":"https://data.datatourisme.fr/15/f46a22e7-6d74-334f-97ae-6f57ff4574fb","dept":"36","reg":"cvl"}},{"type":"Feature","geometry":{"type":"Point","coordinates":[1.11175,46.72579]},"properties":{"nom":"La Hire, Domaine du Prieuré","sub":"LodgingBusiness","cm":"36300#Douadic","web":"https://gites-de-france-indre.com/fr/location/locations-gites-douadic-h36g021295","uri":"https://data.datatourisme.fr/15/fa38af97-0dd1-39c5-ba55-7f5ed5c4d96c","dept":"36","reg":"cvl"}},{"type":"Feature","geometry":{"type":"Point","coordinates":[1.66885,46.80868]},"properties":{"nom":"Grand Chantilly (Maison & STUDIO)","sub":"LodgingBusiness","cm":"36000#Châteauroux","web":"https://gites-de-france-indre.com/fr/location/locations-gites-chateauroux-chantilly-h36g029448","uri":"https://data.datatourisme.fr/15/7906bb1f-38c6-3269-bca9-551e9cce1e75","dept":"36","reg":"cvl"}},{"type":"Feature","geometry":{"type":"Point","coordinates":[1.14631,46.85077]},"properties":{"nom":"Gîte de l'Hirondelle","sub":"LodgingBusiness","cm":"36290#Paulnay","web":"https://gites-de-france-indre.com/fr/location/locations-gites-mezieres-en-brenne-gite-coeur-de-brenne-1-h36g029963","uri":"https://data.datatourisme.fr/15/8deea36d-5699-385a-a6e6-1228076cb58b","dept":"36","reg":"cvl"}},{"type":"Feature","geometry":{"type":"Point","coordinates":[1.40526,47.17128]},"properties":{"nom":"Superbe Lodge à 15 minutes du zoo de Beauval","sub":"LodgingBusiness","cm":"36360#Villentrois-Faverolles-en-Berry","web":"https://gites-de-france-indre.com/fr/location/locations-gites-villentrois-faverolles-en-berry-superbe-lodge-a-15-minutes-du-zoo-de-beauval-h36g029969","uri":"https://data.datatourisme.fr/15/dc1d4710-e6d6-304d-87d7-ab3e6250fa2a","dept":"36","reg":"cvl"}},{"type":"Feature","geometry":{"type":"Point","coordinates":[1.99883,46.56751]},"properties":{"nom":"Camping le Val Vert en Berry","sub":"Camping","cm":"36400#La Châtre","web":"http://www.campingvalvertenberry.com/","uri":"https://data.datatourisme.fr/15/579f0897-9bbc-3448-8ac8-c70c6cf15738","dept":"36","reg":"cvl"}},{"type":"Feature","geometry":{"type":"Point","coordinates":[1.25665,46.49342]},"properties":{"nom":"Camping Parc de la Brenne","sub":"Camping","cm":"36370#Lignac","web":"https://campingparcdelabrenne.com/fr/","uri":"https://data.datatourisme.fr/15/55281a86-8e69-3b1e-98cf-6fd5d13e729a","dept":"36","reg":"cvl"}},{"type":"Feature","geometry":{"type":"Point","coordinates":[1.60639,46.82264]},"properties":{"nom":"La Ferme d'Aigurolles","sub":"BedAndBreakfast","cm":"36250#Saint-Maur","web":"http://www.lafermedaigurolles.fr/","uri":"https://data.datatourisme.fr/15/fd397862-992b-3830-89ec-ca2c1cc8d92c","dept":"36","reg":"cvl"}},{"type":"Feature","geometry":{"type":"Point","coordinates":[1.43164,46.63707]},"properties":{"nom":"Le Florin d'Or","sub":"LodgingBusiness","cm":"36800#Saint-Gaultier","web":"https://gites-de-france-indre.com/fr/location/location-gite-saint-gaultier-le-florin-dor-h36g026538","uri":"https://data.datatourisme.fr/15/10d76796-ba13-3cbb-a6b0-247208d74551","dept":"36","reg":"cvl"}},{"type":"Feature","geometry":{"type":"Point","coordinates":[1.57363,47.17826]},"properties":{"nom":"Le Petit Pont","sub":"LodgingBusiness","cm":"36600#Valençay","web":"https://gites-de-france-indre.com/fr/location/location-gite-valencay-le-petit-pont-h36g029605","uri":"https://data.datatourisme.fr/15/7684535b-d569-374f-8a14-0c3dee6f61fc","dept":"36","reg":"cvl"}},{"type":"Feature","geometry":{"type":"Point","coordinates":[1.59728,46.5137]},"properties":{"nom":"Gîte Léon","sub":"LodgingBusiness","cm":"36190#Gargilesse-Dampierre","web":"https://gites-de-france-indre.com/fr/location/locations-gites-gargilesse-dampierre-leon-h36g025479","uri":"https://data.datatourisme.fr/15/92f44a91-1e7d-3d03-8f64-d511a03e88bf","dept":"36","reg":"cvl"}},{"type":"Feature","geometry":{"type":"Point","coordinates":[1.69715,46.8143]},"properties":{"nom":"La charmante maison hyper centre","sub":"LodgingBusiness","cm":"36000#Châteauroux","web":null,"uri":"https://data.datatourisme.fr/15/8dcea459-335c-3add-96e2-498af7f814f8","dept":"36","reg":"cvl"}},{"type":"Feature","geometry":{"type":"Point","coordinates":[1.51878,46.58565]},"properties":{"nom":"Manoir de Boisvillers","sub":"Hotel","cm":"36200#Argenton-sur-Creuse","web":"http://www.manoirdeboisvillers.com/","uri":"https://data.datatourisme.fr/15/cfecabb9-a3ee-3198-8bc2-d0dc3d6dbedd","dept":"36","reg":"cvl"}},{"type":"Feature","geometry":{"type":"Point","coordinates":[1.58714,46.51442]},"properties":{"nom":"La Remise","sub":"LodgingBusiness","cm":"36190#Gargilesse-Dampierre","web":"https://www.domainelehautverger.fr/","uri":"https://data.datatourisme.fr/15/857abccd-cea9-35a0-b5fd-ff8cf93b5821","dept":"36","reg":"cvl"}},{"type":"Feature","geometry":{"type":"Point","coordinates":[1.58714,46.51442]},"properties":{"nom":"La Maison du Jardinier","sub":"LodgingBusiness","cm":"36190#Gargilesse-Dampierre","web":"https://www.domainelehautverger.fr/","uri":"https://data.datatourisme.fr/15/e764613b-4824-385c-bd4e-a22190c58b10","dept":"36","reg":"cvl"}},{"type":"Feature","geometry":{"type":"Point","coordinates":[1.0189,46.65963]},"properties":{"nom":"les Hérons","sub":"LodgingBusiness","cm":"36300#Pouligny-Saint-Pierre","web":"https://gites-de-france-indre.com/fr/location/location-gite-pouligny-saint-pierre-gite-pouligny-sain-pierre-h36g024209","uri":"https://data.datatourisme.fr/15/49096470-2e89-3caa-8cd9-063d48735587","dept":"36","reg":"cvl"}},{"type":"Feature","geometry":{"type":"Point","coordinates":[1.19575,46.74478]},"properties":{"nom":"Ecole du Maupas, Gite Familial 4 étoiles","sub":"LodgingBusiness","cm":"36300#Rosnay","web":"https://gites-de-france-indre.com/fr/location/location-gite-rosnay-le-maupas-h36g024847","uri":"https://data.datatourisme.fr/15/7cbe02f2-62bf-30af-874d-066732412e40","dept":"36","reg":"cvl"}},{"type":"Feature","geometry":{"type":"Point","coordinates":[1.2683,46.78134]},"properties":{"nom":"Les Périnières","sub":"LodgingBusiness","cm":"36290#Mézières-en-Brenne","web":"https://gites-de-france-indre.com/fr/location/locations-gites-mezieres-en-brenne-les-perinieres-h36g002777","uri":"https://data.datatourisme.fr/15/960f81b4-bddb-39fc-a736-0bb09bbfbda6","dept":"36","reg":"cvl"}},{"type":"Feature","geometry":{"type":"Point","coordinates":[1.34435,46.64337]},"properties":{"nom":"Le Petit Gîte des sorciers","sub":"LodgingBusiness","cm":"36800#Chitray","web":"https://gites-de-france-indre.com/fr/location/locations-gites-chitray-le-petit-gite-des-sorciers-h36g023024","uri":"https://data.datatourisme.fr/15/99e7ca9c-9037-3dec-a34f-f784cb4ba7c5","dept":"36","reg":"cvl"}},{"type":"Feature","geometry":{"type":"Point","coordinates":[1.34435,46.64337]},"properties":{"nom":"La petite maisonnette des amoureux","sub":"LodgingBusiness","cm":"36800#Chitray","web":"https://gites-de-france-indre.com/fr/location/locations-gites-chitray-la-petite-maisonnette-des-amoureux-h36g024830","uri":"https://data.datatourisme.fr/15/fe010bbd-20b1-3bc1-b9aa-c8709c1e77a0","dept":"36","reg":"cvl"}},{"type":"Feature","geometry":{"type":"Point","coordinates":[1.4903,46.71125]},"properties":{"nom":"La Soulatterie","sub":"LodgingBusiness","cm":"36350#La Pérouille","web":"https://gites-de-france-indre.com/fr/location/locations-gites-la-perouille-la-soulatterie-h36g002078","uri":"https://data.datatourisme.fr/15/ce60f0bc-7d9d-3e96-b4e8-6083f81cd2eb","dept":"36","reg":"cvl"}},{"type":"Feature","geometry":{"type":"Point","coordinates":[1.23341,46.81231]},"properties":{"nom":"La Roche Marteau","sub":"LodgingBusiness","cm":"36290#Mézières-en-Brenne","web":"https://gites-de-france-indre.com/fr/location/locations-gites-mezieres-en-brenne-la-roche-marteau-h36g002774","uri":"https://data.datatourisme.fr/15/e4bfde4f-7285-37b2-aaa3-401a3f22aec7","dept":"36","reg":"cvl"}},{"type":"Feature","geometry":{"type":"Point","coordinates":[1.30192,46.43563]},"properties":{"nom":"La Clef des Champs Gîte","sub":"LodgingBusiness","cm":"36310#Chaillac","web":"https://gites-de-france-indre.com/fr/location/locations-gites-chaillac-la-clef-des-champs-gite-h36g005403","uri":"https://data.datatourisme.fr/15/e63f9035-09d4-32bf-bc0c-67a91b5bf648","dept":"36","reg":"cvl"}},{"type":"Feature","geometry":{"type":"Point","coordinates":[1.15542,46.69368]},"properties":{"nom":"La Loge du Parc","sub":"LodgingBusiness","cm":"36300#Douadic","web":"https://gites-de-france-indre.com/fr/location/locations-gites-douadic-la-loge-du-parc-h36g001149","uri":"https://data.datatourisme.fr/15/f0119631-f709-328d-8c3d-9534e16ccd29","dept":"36","reg":"cvl"}},{"type":"Feature","geometry":{"type":"Point","coordinates":[1.03958,46.6484]},"properties":{"nom":"Mont la Chapelle","sub":"LodgingBusiness","cm":"36300#Pouligny-Saint-Pierre","web":"https://gites-de-france-indre.com/fr/location/locations-gites-pouligny-saint-pierre-mont-la-chapelle-h36g003316","uri":"https://data.datatourisme.fr/15/0fcbf566-3af8-307d-bede-76550e15394a","dept":"36","reg":"cvl"}},{"type":"Feature","geometry":{"type":"Point","coordinates":[1.27199,46.70721]},"properties":{"nom":"Les Migrateurs","sub":"LodgingBusiness","cm":"36800#Migné","web":"https://gites-de-france-indre.com/fr/location/locations-gites-migne-h36g021212","uri":"https://data.datatourisme.fr/15/163d0551-600f-3272-98f1-ed556239e72d","dept":"36","reg":"cvl"}},{"type":"Feature","geometry":{"type":"Point","coordinates":[0.95309,46.6025]},"properties":{"nom":"L'Atelier","sub":"LodgingBusiness","cm":"36300#Ingrandes","web":"https://gites-de-france-indre.com/fr/location/locations-gites-ingrandes-l-atelier-h36g005159","uri":"https://data.datatourisme.fr/15/1aad7f96-3c7d-35f3-a177-f1aa24738682","dept":"36","reg":"cvl"}},{"type":"Feature","geometry":{"type":"Point","coordinates":[0.95309,46.6025]},"properties":{"nom":"La Miellerie Côté Jardin","sub":"LodgingBusiness","cm":"36300#Ingrandes","web":"https://gites-de-france-indre.com/fr/location/locations-gites-ingrandes-la-miellerie-cote-jardin-h36g005161","uri":"https://data.datatourisme.fr/15/92f40191-ab68-3467-88bc-4d9092852c14","dept":"36","reg":"cvl"}},{"type":"Feature","geometry":{"type":"Point","coordinates":[0.95309,46.6025]},"properties":{"nom":"La Miellerie Côté Cour","sub":"LodgingBusiness","cm":"36300#Ingrandes","web":"https://gites-de-france-indre.com/fr/location/locations-gites-ingrandes-la-miellerie-cote-cour-h36g001838","uri":"https://data.datatourisme.fr/15/2bf22739-1527-3ae7-b887-73842cf6d400","dept":"36","reg":"cvl"}},{"type":"Feature","geometry":{"type":"Point","coordinates":[0.95309,46.6025]},"properties":{"nom":"La Petite Maison","sub":"LodgingBusiness","cm":"36300#Ingrandes","web":"https://gites-de-france-indre.com/fr/location/locations-gites-ingrandes-la-petite-maison-h36g001839","uri":"https://data.datatourisme.fr/15/fb466b4b-c3a5-303c-83fd-d6d2fc0d9f04","dept":"36","reg":"cvl"}},{"type":"Feature","geometry":{"type":"Point","coordinates":[0.95309,46.6025]},"properties":{"nom":"L'Orangerie","sub":"LodgingBusiness","cm":"36300#Ingrandes","web":"https://gites-de-france-indre.com/fr/location/locations-gites-ingrandes-l-orangerie-h36g005162","uri":"https://data.datatourisme.fr/15/cc00de6c-9fd1-310e-8810-d0d9459baac3","dept":"36","reg":"cvl"}},{"type":"Feature","geometry":{"type":"Point","coordinates":[0.95309,46.6025]},"properties":{"nom":"L'Ecurie","sub":"LodgingBusiness","cm":"36300#Ingrandes","web":"https://gites-de-france-indre.com/fr/location/locations-gites-ingrandes-l-ecurie-h36g008518","uri":"https://data.datatourisme.fr/15/553fa6ff-fe1e-39ef-99c7-0440ccff14bf","dept":"36","reg":"cvl"}},{"type":"Feature","geometry":{"type":"Point","coordinates":[1.02813,46.64753]},"properties":{"nom":"Le Moulin","sub":"LodgingBusiness","cm":"36300#Saint-Aigny","web":"https://gites-de-france-indre.com/fr/location/location-gite-saint-aigny-le-moulin-h36g024427","uri":"https://data.datatourisme.fr/15/205faa20-66da-370b-8ade-23538dba7803","dept":"36","reg":"cvl"}},{"type":"Feature","geometry":{"type":"Point","coordinates":[1.2662,46.76902]},"properties":{"nom":"Les Vigneaux","sub":"LodgingBusiness","cm":"36290#Mézières-en-Brenne","web":"https://gites-de-france-indre.com/fr/location/locations-gites-mezieres-en-brenne-les-vigneaux-h36g002779","uri":"https://data.datatourisme.fr/15/78e2041d-677e-35bc-8070-cf05a1a99b98","dept":"36","reg":"cvl"}},{"type":"Feature","geometry":{"type":"Point","coordinates":[1.19681,46.56267]},"properties":{"nom":"Le Petit Ajoux","sub":"LodgingBusiness","cm":"36370#Chalais","web":"https://gites-de-france-indre.com/fr/location/locations-gites-chalais-le-petit-ajoux-h36g015916","uri":"https://data.datatourisme.fr/15/79f85770-8acd-3fe1-ab8e-2449489bfcaa","dept":"36","reg":"cvl"}},{"type":"Feature","geometry":{"type":"Point","coordinates":[1.05471,46.67639]},"properties":{"nom":"Les Grands Veillons","sub":"LodgingBusiness","cm":"36300#Pouligny-Saint-Pierre","web":"https://gites-de-france-indre.com/fr/location/locations-gites-pouligny-saint-pierre-les-grands-veillons-h36g003313","uri":"https://data.datatourisme.fr/15/7fbe93a8-d171-3d40-9599-89959286efb6","dept":"36","reg":"cvl"}},{"type":"Feature","geometry":{"type":"Point","coordinates":[0.98365,46.70374]},"properties":{"nom":"Villa du Pigeonnier","sub":"LodgingBusiness","cm":"36220#Preuilly-la-Ville","web":"https://gites-de-france-indre.com/fr/location/locations-gites-preuilly-la-ville-villa-du-pigeonnier-h36g003320","uri":"https://data.datatourisme.fr/15/874093f0-8c70-35f8-8d0f-01e4d593ffc3","dept":"36","reg":"cvl"}},{"type":"Feature","geometry":{"type":"Point","coordinates":[1.39013,46.43994]},"properties":{"nom":"Le Bénédictin","sub":"LodgingBusiness","cm":"36170#Saint-Benoît-du-Sault","web":"https://gites-de-france-indre.com/fr/location/locations-gites-saint-benoit-du-sault-h36g022347","uri":"https://data.datatourisme.fr/15/8d669b62-6965-3527-83e9-4b4a9b20ec02","dept":"36","reg":"cvl"}},{"type":"Feature","geometry":{"type":"Point","coordinates":[1.17252,46.57132]},"properties":{"nom":"Le Terrier Blanc Bis","sub":"LodgingBusiness","cm":"36370#Bélâbre","web":"https://gites-de-france-indre.com/fr/location/locations-gites-belabre-le-terrier-blanc-h36g014457","uri":"https://data.datatourisme.fr/15/91186b72-d771-3d90-8069-ea2a75951aa2","dept":"36","reg":"cvl"}},{"type":"Feature","geometry":{"type":"Point","coordinates":[1.17252,46.57132]},"properties":{"nom":"Le Terrier Blanc","sub":"LodgingBusiness","cm":"36370#Bélâbre","web":"https://gites-de-france-indre.com/fr/location/locations-gites-belabre-h36g019939","uri":"https://data.datatourisme.fr/15/431c4911-f376-3ac4-8bc6-af8e94dbc518","dept":"36","reg":"cvl"}},{"type":"Feature","geometry":{"type":"Point","coordinates":[1.03559,46.91573]},"properties":{"nom":"Guet de Chouettes","sub":"LodgingBusiness","cm":"36290#Obterre","web":"https://gites-de-france-indre.com/fr/location/locations-gites-obterre-le-gue-de-chouette-h36g019823","uri":"https://data.datatourisme.fr/15/96290207-e45c-373b-a9dc-1cca6e16a922","dept":"36","reg":"cvl"}},{"type":"Feature","geometry":{"type":"Point","coordinates":[1.06244,46.62782]},"properties":{"nom":"Le Haut du Blanc","sub":"LodgingBusiness","cm":"36300#Le Blanc","web":"https://gites-de-france-indre.com/fr/location/locations-gites-le-blanc-le-haut-du-blanc-h36g002181","uri":"https://data.datatourisme.fr/15/9bdce7dc-c628-3803-afcd-b165d53af164","dept":"36","reg":"cvl"}},{"type":"Feature","geometry":{"type":"Point","coordinates":[1.40027,46.95612]},"properties":{"nom":"Cornepic","sub":"LodgingBusiness","cm":"36500#Argy","web":"https://gites-de-france-indre.com/fr/location/locations-gites-argy-cornepic-h36g008457","uri":"https://data.datatourisme.fr/15/21628106-842e-38c7-a7da-b9be7b377d97","dept":"36","reg":"cvl"}},{"type":"Feature","geometry":{"type":"Point","coordinates":[1.69504,46.80819]},"properties":{"nom":"Les Jardins du Palais","sub":"LodgingBusiness","cm":"36000#Châteauroux","web":"https://gites-de-france-indre.com/fr/location/locations-gites-chateauroux-tarif-tout-inclus-h36g008981","uri":"https://data.datatourisme.fr/15/2430221e-037c-3710-bae2-cdb74873050b","dept":"36","reg":"cvl"}},{"type":"Feature","geometry":{"type":"Point","coordinates":[0.96338,46.64617]},"properties":{"nom":"La Bergerie du Logis","sub":"LodgingBusiness","cm":"36220#Sauzelles","web":null,"uri":"https://data.datatourisme.fr/15/797b280a-e1c1-3994-a507-04b831330a44","dept":"36","reg":"cvl"}},{"type":"Feature","geometry":{"type":"Point","coordinates":[1.33837,46.92938]},"properties":{"nom":"L'Estrée","sub":"LodgingBusiness","cm":"36500#Saint-Genou","web":"https://gites-de-france-indre.com/fr/location/locations-gites-saint-genou-l-estree-h36g005137","uri":"https://data.datatourisme.fr/15/7f41d43c-a8ce-3d09-8f49-d746fda33003","dept":"36","reg":"cvl"}},{"type":"Feature","geometry":{"type":"Point","coordinates":[1.63939,46.80443]},"properties":{"nom":"Le Gué","sub":"LodgingBusiness","cm":"36250#Saint-Maur","web":"https://gites-de-france-indre.com/fr/location/locations-gites-saint-maur-le-gue-1-h36g014664","uri":"https://data.datatourisme.fr/15/98a520d3-0bea-3d70-a885-bcd3959210f0","dept":"36","reg":"cvl"}},{"type":"Feature","geometry":{"type":"Point","coordinates":[1.92458,47.07239]},"properties":{"nom":"Petit Bois Girard","sub":"LodgingBusiness","cm":"36150#Giroux","web":"https://gites-de-france-indre.com/fr/location/locations-gites-giroux-h36g001647-h36g001647","uri":"https://data.datatourisme.fr/15/130374f5-6998-3fdb-9a20-b26f794c8114","dept":"36","reg":"cvl"}},{"type":"Feature","geometry":{"type":"Point","coordinates":[2.0307,46.91481]},"properties":{"nom":"Gite de Villenoue","sub":"LodgingBusiness","cm":"36100#Chouday","web":"https://www.gitedevillenoue.fr/Le-Gite","uri":"https://data.datatourisme.fr/15/8eb53c47-3306-3775-9002-32efb5a730ce","dept":"36","reg":"cvl"}},{"type":"Feature","geometry":{"type":"Point","coordinates":[1.56949,46.55286]},"properties":{"nom":"Le Petit Broquet","sub":"LodgingBusiness","cm":"36200#Le Menoux","web":"https://gites-de-france-indre.com/fr/location/locations-gites-le-menoux-le-petit-broquet-h36g002220","uri":"https://data.datatourisme.fr/15/0f496d3b-fe28-31be-9b68-513c230ecc6c","dept":"36","reg":"cvl"}},{"type":"Feature","geometry":{"type":"Point","coordinates":[1.56949,46.55286]},"properties":{"nom":"Chez Andrée","sub":"LodgingBusiness","cm":"36200#Le Menoux","web":"https://gites-de-france-indre.com/fr/location/gites-groupe-le-menoux-h36p019003","uri":"https://data.datatourisme.fr/15/89780984-48f8-3aa5-9fe0-14ad574e27ba","dept":"36","reg":"cvl"}},{"type":"Feature","geometry":{"type":"Point","coordinates":[1.24505,46.69886]},"properties":{"nom":"Le Bas Coudreau n°4","sub":"LodgingBusiness","cm":"36300#Rosnay","web":"https://gites-de-france-indre.com/fr/location/locations-gites-rosnay-le-bas-coudreau-n-2-h36g030563","uri":"https://data.datatourisme.fr/15/5102c643-477d-3249-83ed-3041b3e02b34","dept":"36","reg":"cvl"}},{"type":"Feature","geometry":{"type":"Point","coordinates":[1.24505,46.69886]},"properties":{"nom":"Le Bas Coudreau n°2","sub":"LodgingBusiness","cm":"36300#Rosnay","web":"https://gites-de-france-indre.com/fr/location/location-gite-rosnay-bas-coudreau-2-h36g030518","uri":"https://data.datatourisme.fr/15/7159a27b-bfbe-311e-b8e4-ce9a281d14db","dept":"36","reg":"cvl"}},{"type":"Feature","geometry":{"type":"Point","coordinates":[1.24505,46.69886]},"properties":{"nom":"Le Bas Coudreau n°3","sub":"LodgingBusiness","cm":"36300#Rosnay","web":"https://gites-de-france-indre.com/fr/location/locations-gites-rosnay-le-bas-coudreau-n-2-h36g030531","uri":"https://data.datatourisme.fr/15/ce098a82-e749-342f-964c-be2788f1b5c5","dept":"36","reg":"cvl"}},{"type":"Feature","geometry":{"type":"Point","coordinates":[1.83001,47.10198]},"properties":{"nom":"La Fontaine","sub":"LodgingBusiness","cm":"36150#Reboursin","web":"https://gites-de-france-indre.com/fr/location/location-gite-reboursin-la-fontaine-h36g030757","uri":"https://data.datatourisme.fr/15/9b1cd4ec-7c37-3118-b7f9-c208ba8c4693","dept":"36","reg":"cvl"}},{"type":"Feature","geometry":{"type":"Point","coordinates":[1.51384,46.60259]},"properties":{"nom":"Le Clos d'Emilie Maison Suzanne","sub":"LodgingBusiness","cm":"36200#Saint-Marcel","web":"https://gites-de-france-indre.com/fr/location/locations-gites-saint-marcel-le-clos-d-emilie-h36g030750","uri":"https://data.datatourisme.fr/15/46350edc-e170-30d9-8df7-398fe3d2beb1","dept":"36","reg":"cvl"}},{"type":"Feature","geometry":{"type":"Point","coordinates":[1.51384,46.60259]},"properties":{"nom":"Le Clos d'Emilie Maison Carmen","sub":"LodgingBusiness","cm":"36200#Saint-Marcel","web":"https://gites-de-france-indre.com/fr/location/locations-gites-saint-marcel-le-clos-d-emilie-maison-carmen-h36g032086","uri":"https://data.datatourisme.fr/15/6bd8fa97-8d8a-38d5-b80a-128533ea4ccc","dept":"36","reg":"cvl"}},{"type":"Feature","geometry":{"type":"Point","coordinates":[1.3664,47.18348]},"properties":{"nom":"Les Couturiers","sub":"LodgingBusiness","cm":"36600#Villentrois-Faverolles-en-Berry","web":"https://gites-de-france-indre.com/fr/location/location-gite-villentrois-faverolles-en-berry-les-couturiers-h36g031028","uri":"https://data.datatourisme.fr/15/f36534c2-6218-36d8-b842-3e3320b3cf9c","dept":"36","reg":"cvl"}},{"type":"Feature","geometry":{"type":"Point","coordinates":[1.58308,47.20204]},"properties":{"nom":"Les Effes 2","sub":"LodgingBusiness","cm":"36210#Val-Fouzon","web":"https://gites-de-france-indre.com/fr/location/locations-gites-varennes-sur-fouzon-les-effes-h36g004186","uri":"https://data.datatourisme.fr/15/845c130b-fe02-3fdc-9d33-a0bbf50b7a16","dept":"36","reg":"cvl"}},{"type":"Feature","geometry":{"type":"Point","coordinates":[1.58308,47.20204]},"properties":{"nom":"Les Effes 4","sub":"LodgingBusiness","cm":"36210#Val-Fouzon","web":"https://gites-de-france-indre.com/fr/location/locations-gites-val-fouzon-les-effes-4-h36g023381","uri":"https://data.datatourisme.fr/15/99974331-6e8c-30ab-b35f-248398471b7c","dept":"36","reg":"cvl"}},{"type":"Feature","geometry":{"type":"Point","coordinates":[1.58308,47.20204]},"properties":{"nom":"Les Effes 1","sub":"LodgingBusiness","cm":"36210#Val-Fouzon","web":"https://gites-de-france-indre.com/fr/location/locations-gites-varennes-sur-fouzon-les-effes-h36g004185","uri":"https://data.datatourisme.fr/15/aa170da2-b66d-39cb-b43e-1adec0f6303d","dept":"36","reg":"cvl"}},{"type":"Feature","geometry":{"type":"Point","coordinates":[1.82278,47.20018]},"properties":{"nom":"La Boulaye","sub":"LodgingBusiness","cm":"36210#Anjouin","web":"https://gites-de-france-indre.com/fr/location/locations-gites-anjouin-la-boulaye-h36g000053","uri":"https://data.datatourisme.fr/15/bfe4bc33-5507-3794-ac2a-8aac1ef755f6","dept":"36","reg":"cvl"}},{"type":"Feature","geometry":{"type":"Point","coordinates":[1.47973,47.00355]},"properties":{"nom":"La Nobléterie","sub":"LodgingBusiness","cm":"36180#Frédille","web":"https://gites-de-france-indre.com/fr/location/locations-gites-fredille-h36g014238","uri":"https://data.datatourisme.fr/15/04145d0f-82a4-3c82-b696-498424ad09c7","dept":"36","reg":"cvl"}},{"type":"Feature","geometry":{"type":"Point","coordinates":[1.47973,47.00355]},"properties":{"nom":"La Nobléterie 2","sub":"LodgingBusiness","cm":"36180#Frédille","web":"https://gites-de-france-indre.com/fr/location/locations-gites-fredille-h36g015628","uri":"https://data.datatourisme.fr/15/fb7bb059-239e-365c-8642-87a257717cb2","dept":"36","reg":"cvl"}},{"type":"Feature","geometry":{"type":"Point","coordinates":[1.56043,47.16187]},"properties":{"nom":"Villa Esperanza","sub":"LodgingBusiness","cm":"36600#Valençay","web":"https://gites-de-france-indre.com/fr/location/locations-gites-valencay-villa-esperanza-h36g024647","uri":"https://data.datatourisme.fr/15/23789236-a606-3b05-92ba-bb2138112fc4","dept":"36","reg":"cvl"}},{"type":"Feature","geometry":{"type":"Point","coordinates":[2.02575,47.08492]},"properties":{"nom":"Les Champs de Devant","sub":"LodgingBusiness","cm":"36260#Reuilly","web":"https://gites-de-france-indre.com/fr/location/locations-gites-reuilly-les-champs-de-devant-h36g014326","uri":"https://data.datatourisme.fr/15/93610d19-982e-3071-ae27-78e2a41b95a1","dept":"36","reg":"cvl"}},{"type":"Feature","geometry":{"type":"Point","coordinates":[1.36284,46.71402]},"properties":{"nom":"Beaugu","sub":"LodgingBusiness","cm":"36800#Migné","web":"https://gites-de-france-indre.com/fr/location/locations-gites-migne-beaugu-tarifs-tout-inclus-h36g009008","uri":"https://data.datatourisme.fr/15/f09dc72a-a552-304f-8a0e-66a794caa395","dept":"36","reg":"cvl"}},{"type":"Feature","geometry":{"type":"Point","coordinates":[1.54864,46.9907]},"properties":{"nom":"La Seigneurerie","sub":"LodgingBusiness","cm":"36110#Moulins-sur-Céphons","web":"https://gites-de-france-indre.com/fr/location/locations-gites-moulins-sur-cephons-la-seigneurerie-h36g002884","uri":"https://data.datatourisme.fr/15/4c8fb766-bceb-3923-a1fc-5a8dedffaf98","dept":"36","reg":"cvl"}},{"type":"Feature","geometry":{"type":"Point","coordinates":[1.70246,46.97517]},"properties":{"nom":"La Meublaterie","sub":"LodgingBusiness","cm":"36110#Brion","web":"https://gites-de-france-indre.com/fr/location/locations-gites-brion-la-meublaterie-h36g005402","uri":"https://data.datatourisme.fr/15/75d9a63e-6a1a-342e-9601-3730603ad75a","dept":"36","reg":"cvl"}},{"type":"Feature","geometry":{"type":"Point","coordinates":[1.66507,47.15254]},"properties":{"nom":"Gîte les Glycines au Domaine de Poulaines","sub":"LodgingBusiness","cm":"36210#Poulaines","web":"https://domaine-de-poulaines.amenitiz.io/fr/booking/room","uri":"https://data.datatourisme.fr/15/8e87df29-4577-3c3d-a18c-86b3227d32d7","dept":"36","reg":"cvl"}},{"type":"Feature","geometry":{"type":"Point","coordinates":[1.66507,47.15254]},"properties":{"nom":"Maison du Métayer du Domaine de Poulaines","sub":"LodgingBusiness","cm":"36210#Poulaines","web":"https://domaine-de-poulaines.amenitiz.io/fr/booking/room","uri":"https://data.datatourisme.fr/15/9f3019cd-e4fa-3838-89f7-ec4a7a622ba4","dept":"36","reg":"cvl"}},{"type":"Feature","geometry":{"type":"Point","coordinates":[1.66507,47.15254]},"properties":{"nom":"Suite des Barons de Graçay au Domaine de Poulaines","sub":"BedAndBreakfast","cm":"36210#Poulaines","web":"https://domaine-de-poulaines.amenitiz.io/fr/booking/room","uri":"https://data.datatourisme.fr/15/553c5485-7d3e-36c7-936b-8820e168d147","dept":"36","reg":"cvl"}},{"type":"Feature","geometry":{"type":"Point","coordinates":[1.66483,47.15266]},"properties":{"nom":"Chambre Catherine du Bois au Domaine de Poulaines","sub":"BedAndBreakfast","cm":"36210#Poulaines","web":"https://domaine-de-poulaines.amenitiz.io/fr/booking/room","uri":"https://data.datatourisme.fr/15/59573fbb-d587-3a1d-a170-9463e2435bba","dept":"36","reg":"cvl"}},{"type":"Feature","geometry":{"type":"Point","coordinates":[1.73328,46.70864]},"properties":{"nom":"La Petite Roche","sub":"LodgingBusiness","cm":"36330#Arthon","web":"https://gites-de-france-indre.com/fr/location/location-gite-arthon-la-petite-roche-h36g029907","uri":"https://data.datatourisme.fr/15/39762862-7891-372a-aa4c-bf2b87bf3670","dept":"36","reg":"cvl"}},{"type":"Feature","geometry":{"type":"Point","coordinates":[1.59404,46.46954]},"properties":{"nom":"Villa dans la Vallée de la Creuse","sub":"LodgingBusiness","cm":"36270#Baraize","web":"https://gites-de-france-indre.com/fr/location/location-gite-baraize-villa-dans-la-vallee-de-la-creuse-h36g029340","uri":"https://data.datatourisme.fr/15/626f986f-0597-3fe8-90bb-c268a9a50552","dept":"36","reg":"cvl"}},{"type":"Feature","geometry":{"type":"Point","coordinates":[1.24426,46.90572]},"properties":{"nom":"Juliette","sub":"LodgingBusiness","cm":"36700#Arpheuilles","web":"https://gites-de-france-indre.com/fr/location/location-gite-arpheuilles-juliette-h36g030220","uri":"https://data.datatourisme.fr/15/ba9f27dd-7f47-3e64-ba08-5352f307d4a4","dept":"36","reg":"cvl"}},{"type":"Feature","geometry":{"type":"Point","coordinates":[1.24426,46.90572]},"properties":{"nom":"Célestin","sub":"LodgingBusiness","cm":"36700#Arpheuilles","web":"https://gites-de-france-indre.com/fr/location/locations-gites-arpheuilles-celestin-h36g030221","uri":"https://data.datatourisme.fr/15/3252b889-b46d-38c9-8d0f-573d4f238d1b","dept":"36","reg":"cvl"}},{"type":"Feature","geometry":{"type":"Point","coordinates":[0.96932,46.69838]},