{"type":"FeatureCollection","features":[{"type":"Feature","geometry":{"type":"Point","coordinates":[3.87878,45.04245]},"properties":{"nom":"Appart'Hôtel des Capucins***","sub":"Hotel","cm":"43000#Le Puy-en-Velay","web":"http://www.lescapucins.net/","uri":"https://data.datatourisme.fr/13/32f20372-8c27-33e3-abdf-623bf6c25f65","dept":"43","reg":"ara"}},{"type":"Feature","geometry":{"type":"Point","coordinates":[3.87882,45.0425]},"properties":{"nom":"Appart'Hôtel des Capucins - Hôtel*** - Gîte d'Étape","sub":"CollectiveAccommodation","cm":"43000#Le Puy-en-Velay","web":"http://www.lescapucins.net/","uri":"https://data.datatourisme.fr/13/1a9e68e0-ae02-38d7-ab04-e833d1bd5d92","dept":"43","reg":"ara"}},{"type":"Feature","geometry":{"type":"Point","coordinates":[3.7935,45.12033]},"properties":{"nom":"Camping la Rochelambert","sub":"Camping","cm":"43350#Saint-Paulien","web":"http://www.camping-rochelambert.com/","uri":"https://data.datatourisme.fr/13/32fbe1f8-9091-33db-b243-e5088652d0e8","dept":"43","reg":"ara"}},{"type":"Feature","geometry":{"type":"Point","coordinates":[3.88005,45.04739]},"properties":{"nom":"Hôtel Ibis Centre","sub":"HotelRestaurant","cm":"43000#Le Puy-en-Velay","web":"https://www.lepuy-hotels.com/","uri":"https://data.datatourisme.fr/13/9a13b6ff-9f64-3a1a-a523-7090b19c128d","dept":"43","reg":"ara"}},{"type":"Feature","geometry":{"type":"Point","coordinates":[3.62254,44.9165]},"properties":{"nom":"Camping Les Fauvettes","sub":"Camping","cm":"43580#Saint-Préjet-d'Allier","web":"http://www.saintprejetdallier.com/?page_id=22&lang=fr","uri":"https://data.datatourisme.fr/13/9fd6d53c-6d36-3982-a8c8-b60741d26efd","dept":"43","reg":"ara"}},{"type":"Feature","geometry":{"type":"Point","coordinates":[4.09231,45.04183]},"properties":{"nom":"Hôtel Restaurant - La Ferme du Bien-être","sub":"HotelRestaurant","cm":"43260#Saint-Julien-Chapteuil","web":"http://www.fermebienetre.com/","uri":"https://data.datatourisme.fr/13/35e1ffb7-8d27-33bd-ac07-b5b0694c7a63","dept":"43","reg":"ara"}},{"type":"Feature","geometry":{"type":"Point","coordinates":[4.30262,45.06041]},"properties":{"nom":"Hôtel-Restaurant La Maison du Chambon","sub":"HotelRestaurant","cm":"43400#Le Chambon-sur-Lignon","web":null,"uri":"https://data.datatourisme.fr/13/6f6f4df9-775f-3884-bdc1-f303f53a3d25","dept":"43","reg":"ara"}},{"type":"Feature","geometry":{"type":"Point","coordinates":[3.38413,45.29025]},"properties":{"nom":"Hôtel Poste Et Champanne","sub":"HotelRestaurant","cm":"43100#Brioude","web":"https://www.hotel-de-la-poste-brioude.com/","uri":"https://data.datatourisme.fr/13/71e4b443-c9e5-34ee-89ae-e47a5eb2aaa4","dept":"43","reg":"ara"}},{"type":"Feature","geometry":{"type":"Point","coordinates":[3.93048,45.04379]},"properties":{"nom":"Camping d'Audinet","sub":"Camping","cm":"43700#Brives-Charensac","web":"http://www.camping-audinet.fr/","uri":"https://data.datatourisme.fr/13/ae8eb18d-5608-376a-9d9e-c8d1dbae740e","dept":"43","reg":"ara"}},{"type":"Feature","geometry":{"type":"Point","coordinates":[4.16107,44.90491]},"properties":{"nom":"Hôtel la Découverte","sub":"HotelRestaurant","cm":"43150#Les Estables","web":"http://www.decouverte-estables.com/","uri":"https://data.datatourisme.fr/13/8f835c33-4b44-3cb0-a067-7e0ba87a39b5","dept":"43","reg":"ara"}},{"type":"Feature","geometry":{"type":"Point","coordinates":[4.1183,45.3078]},"properties":{"nom":"Camping Municipal la Garenne","sub":"Camping","cm":"43210#Bas-en-Basset","web":"https://www.basenbasset.fr/fr/camping.html","uri":"https://data.datatourisme.fr/13/12fa8be0-0f4a-3c27-a934-7d2a88a3db86","dept":"43","reg":"ara"}},{"type":"Feature","geometry":{"type":"Point","coordinates":[3.88092,45.05434]},"properties":{"nom":"Camping du Puy-en-Velay***","sub":"Camping","cm":"43000#Aiguilhe","web":"https://www.terracamps.com/camping-nature/camping-du-puy-en-velay","uri":"https://data.datatourisme.fr/13/5f84e5c0-b1f6-38f0-8217-13c73879c3e6","dept":"43","reg":"ara"}},{"type":"Feature","geometry":{"type":"Point","coordinates":[4.31349,45.18747]},"properties":{"nom":"Gîte le Jardin Mirandou","sub":"CollectiveAccommodation","cm":"43290#Montfaucon-en-Velay","web":"https://www.sentierpiedsnus.fr/","uri":"https://data.datatourisme.fr/13/225892bb-44ac-37e1-bd5e-2b85fe30f0fc","dept":"43","reg":"ara"}},{"type":"Feature","geometry":{"type":"Point","coordinates":[3.89048,45.04538]},"properties":{"nom":"Hôtel-restaurant le Bilboquet","sub":"HotelRestaurant","cm":"43000#Le Puy-en-Velay","web":"http://www.hotel-bilboquet.fr/<>https://www.logishotels.com/fr/hotel/logis-hotel-le-bilboquet-6304","uri":"https://data.datatourisme.fr/13/060fb362-ba42-35c7-9282-0298a463ed7e","dept":"43","reg":"ara"}},{"type":"Feature","geometry":{"type":"Point","coordinates":[3.94336,45.20297]},"properties":{"nom":"Camping Domaine le Pra de Mars","sub":"Camping","cm":"43800#Vorey","web":"http://www.leprademars.com/","uri":"https://data.datatourisme.fr/13/08e387af-a3ec-3e08-9cbb-b9e59d9fc21a","dept":"43","reg":"ara"}},{"type":"Feature","geometry":{"type":"Point","coordinates":[3.8819,45.0369]},"properties":{"nom":"Hôtel-Restaurant Le Chris'tel","sub":"HotelRestaurant","cm":"43000#Le Puy-en-Velay","web":"http://www.hotel-christel.fr/","uri":"https://data.datatourisme.fr/13/0953b967-57f4-33c3-999b-131530b49038","dept":"43","reg":"ara"}},{"type":"Feature","geometry":{"type":"Point","coordinates":[3.8819,45.0369]},"properties":{"nom":"Hôtel Chris'tel - salle de séminaire","sub":"Rental","cm":"43000#Le Puy-en-Velay","web":"http://www.hotel-christel.fr/","uri":"https://data.datatourisme.fr/13/863d2b16-8cfb-3d34-9f7c-2463a1c8cc5b","dept":"43","reg":"ara"}},{"type":"Feature","geometry":{"type":"Point","coordinates":[4.27041,45.25671]},"properties":{"nom":"Hôtel-Restaurant les Feuillantines","sub":"HotelRestaurant","cm":"43620#Saint-Pal-de-Mons","web":"https://www.lesfeuillantines.com/","uri":"https://data.datatourisme.fr/13/1e46cd54-ed3d-3fe1-a0dc-a16a634dc7fa","dept":"43","reg":"ara"}},{"type":"Feature","geometry":{"type":"Point","coordinates":[4.14182,44.95744]},"properties":{"nom":"Gîte la Redonde (Boyer-Paillon)","sub":"CollectiveAccommodation","cm":"43550#Saint-Front","web":"http://www.gitelaredonde.com/","uri":"https://data.datatourisme.fr/13/46d22ca5-996d-3258-a6f9-3d51c45edf70","dept":"43","reg":"ara"}},{"type":"Feature","geometry":{"type":"Point","coordinates":[4.2127,45.21608]},"properties":{"nom":"Camping de Vaubarlet - Camping Sites Et Paysages","sub":"Camping","cm":"43600#Sainte-Sigolène","web":"http://www.vaubarlet.com/","uri":"https://data.datatourisme.fr/13/bab2d0c6-6ba1-3d56-ba77-ca45d935c04a","dept":"43","reg":"ara"}},{"type":"Feature","geometry":{"type":"Point","coordinates":[3.90648,45.18631]},"properties":{"nom":"NEW LIFE / Camping les Moulettes","sub":"Camping","cm":"43800#Vorey","web":"http://www.camping-les-moulettes.fr/","uri":"https://data.datatourisme.fr/13/c255a568-19be-3d42-be48-9c24a882e556","dept":"43","reg":"ara"}},{"type":"Feature","geometry":{"type":"Point","coordinates":[3.96103,45.05729]},"properties":{"nom":"Hôtel Restaurant L'Abri","sub":"HotelRestaurant","cm":"43700#Blavozy","web":"http://www.abrihotel.com/","uri":"https://data.datatourisme.fr/13/136cc672-2b1d-3a94-a5d6-418192bc6915","dept":"43","reg":"ara"}},{"type":"Feature","geometry":{"type":"Point","coordinates":[4.30247,45.04583]},"properties":{"nom":"Hôtel Le Relais du Bois Vialotte","sub":"HotelRestaurant","cm":"43400#Le Chambon-sur-Lignon","web":"http://www.relaisduboisvialotte.fr/","uri":"https://data.datatourisme.fr/13/0b6c1b84-48a3-3e14-92ee-727329d2d1c4","dept":"43","reg":"ara"}},{"type":"Feature","geometry":{"type":"Point","coordinates":[4.2786,45.114]},"properties":{"nom":"Camping**** Les Murmures du Lignon","sub":"Camping","cm":"43190#Tence","web":"http://www.lesmurmuresdulignon.com/","uri":"https://data.datatourisme.fr/13/c3bb21b6-3cea-3fb4-a9d9-232adc6d7f27","dept":"43","reg":"ara"}},{"type":"Feature","geometry":{"type":"Point","coordinates":[4.2786,45.114]},"properties":{"nom":"Salle du camping","sub":"Rental","cm":"43190#Tence","web":"http://www.lesmurmuresdulignon.com/","uri":"https://data.datatourisme.fr/13/a7f953e7-3668-3954-bcd1-2585b6629dba","dept":"43","reg":"ara"}},{"type":"Feature","geometry":{"type":"Point","coordinates":[3.37325,45.32061]},"properties":{"nom":"Artemis Hôtel","sub":"HotelRestaurant","cm":"43100#Cohade","web":"http://www.artemis-hotel.com/","uri":"https://data.datatourisme.fr/13/10fc26c2-36a6-379e-aef9-1cee66223a5c","dept":"43","reg":"ara"}},{"type":"Feature","geometry":{"type":"Point","coordinates":[3.6783,44.99]},"properties":{"nom":"Bar Restaurant Hôtel la Vieille Auberge","sub":"HotelRestaurant","cm":"43580#Saint-Privat-d'Allier","web":"http://www.lavieilleauberge.fr/","uri":"https://data.datatourisme.fr/13/7d3e53a9-8fe7-3dcf-9540-ec883d496023","dept":"43","reg":"ara"}},{"type":"Feature","geometry":{"type":"Point","coordinates":[3.88753,45.04242]},"properties":{"nom":"Dyke Hôtel","sub":"Hotel","cm":"43000#Le Puy-en-Velay","web":"https://dykehotel.fr/","uri":"https://data.datatourisme.fr/13/03d08aa7-df40-341d-91be-cc8b5fbb34a6","dept":"43","reg":"ara"}},{"type":"Feature","geometry":{"type":"Point","coordinates":[3.98481,44.93627]},"properties":{"nom":"Camping et Gîte L'Estela","sub":"Camping","cm":"43150#Le Monastier-sur-Gazeille","web":"http://www.campingestela.fr/","uri":"https://data.datatourisme.fr/13/eac0da86-1c0d-3dda-a3ae-c1bf16253c16","dept":"43","reg":"ara"}},{"type":"Feature","geometry":{"type":"Point","coordinates":[3.98484,44.93627]},"properties":{"nom":"Gite d'étape l'Estela","sub":"CollectiveAccommodation","cm":"43150#Le Monastier-sur-Gazeille","web":"http://www.campingestela.fr/","uri":"https://data.datatourisme.fr/13/112ec868-28a9-3e42-a853-d35a6d1ca97e","dept":"43","reg":"ara"}},{"type":"Feature","geometry":{"type":"Point","coordinates":[4.15167,45.2228]},"properties":{"nom":"Camping Ushuaïa Villages du Sabot","sub":"Camping","cm":"43200#Saint-Maurice-de-Lignon","web":"https://www.campingdusabot.fr/","uri":"https://data.datatourisme.fr/13/f43c397d-8c8c-3a83-9383-19e27e397c9d","dept":"43","reg":"ara"}},{"type":"Feature","geometry":{"type":"Point","coordinates":[4.15468,45.13798]},"properties":{"nom":"Le Neyrial - Location de vélos","sub":"Rental","cm":"43200#Yssingeaux","web":"http://www.leneyrial.com/","uri":"https://data.datatourisme.fr/13/fe7c8b5c-ea10-3604-80b3-64ce45257d1c","dept":"43","reg":"ara"}},{"type":"Feature","geometry":{"type":"Point","coordinates":[3.89182,45.04297]},"properties":{"nom":"Hôtel Ibis Budget","sub":"Hotel","cm":"43000#Le Puy-en-Velay","web":"https://www.lepuy-hotels.com/","uri":"https://data.datatourisme.fr/13/18e0b7ed-6fe4-3a2e-8c52-8857dc86ca40","dept":"43","reg":"ara"}},{"type":"Feature","geometry":{"type":"Point","coordinates":[3.88823,45.04288]},"properties":{"nom":"Hôtel Ibis Styles","sub":"HotelRestaurant","cm":"43000#Le Puy-en-Velay","web":"http://www.lepuy-hotels.com/","uri":"https://data.datatourisme.fr/13/34313168-0533-3328-86d6-52f9168b2890","dept":"43","reg":"ara"}},{"type":"Feature","geometry":{"type":"Point","coordinates":[4.19454,45.36079]},"properties":{"nom":"Camping des Gorges de la Loire***","sub":"Camping","cm":"43110#Aurec-sur-Loire","web":"https://lesrivesdaurec.fr/<>https://lesrivesdaurec.fr/hebergements-loire-groupe/camping-3-etoiles-gorges-de-la-loire/","uri":"https://data.datatourisme.fr/13/d0e76018-9257-3aa4-b5e0-793bf5ba1fc6","dept":"43","reg":"ara"}},{"type":"Feature","geometry":{"type":"Point","coordinates":[3.92092,44.89107]},"properties":{"nom":"Camping Au Bord de l'Eau - Rock'N Camp","sub":"Camping","cm":"43150#Goudet","web":"http://www.campingauborddeleau.com/","uri":"https://data.datatourisme.fr/13/7db25c60-d03a-3836-ba57-1a2f0c776df0","dept":"43","reg":"ara"}},{"type":"Feature","geometry":{"type":"Point","coordinates":[3.87645,45.02939]},"properties":{"nom":"B&B Hôtel","sub":"HotelRestaurant","cm":"43750#Vals-près-le-Puy","web":"https://www.hotel-bb.com/fr/hotel/le-puy-en-velay?utm_source=google&utm_medium=cpc&utm_campaign=fr_goo_brand_text_tROI_exact_Hotel_City_EN&gclsrc=aw.ds&gad_source=1&gad_campaignid=19602199425&gbraid=0AAAAAC-XIuDr7oTiAA0aC2f9_ZkNgfvwh&gclid=Cj0KCQiAuvTJBhCwARIsAL6DemjIl5HlghuEsIIvgo9ykN6qDFSFGdGuVJ64pSBQ2OelLAhB49TL65MaAnR7EALw_wcB&test=1","uri":"https://data.datatourisme.fr/13/858e40b9-04b4-390e-8dc1-19b392aad127","dept":"43","reg":"ara"}},{"type":"Feature","geometry":{"type":"Point","coordinates":[3.87645,45.02939]},"properties":{"nom":"B&B Hôtel","sub":"Rental","cm":"43750#Vals-près-le-Puy","web":null,"uri":"https://data.datatourisme.fr/13/3ad3ed77-754e-38ff-8805-dedac8d6c2e5","dept":"43","reg":"ara"}},{"type":"Feature","geometry":{"type":"Point","coordinates":[3.40459,45.28127]},"properties":{"nom":"Camping 3* de La Bageasse - Onlycamp","sub":"Camping","cm":"43100#Brioude","web":"https://www.terracamps.com/camping-nature/camping-la-bageasse","uri":"https://data.datatourisme.fr/13/e6430a78-af5d-360d-ab6a-9c41263ae72e","dept":"43","reg":"ara"}},{"type":"Feature","geometry":{"type":"Point","coordinates":[4.1197,45.2947]},"properties":{"nom":"Camping la Camargue","sub":"Camping","cm":"43210#Bas-en-Basset","web":"https://www.camping-la-camargue.fr/","uri":"https://data.datatourisme.fr/13/dcad7330-164b-3ff0-83a1-f840b683d633","dept":"43","reg":"ara"}},{"type":"Feature","geometry":{"type":"Point","coordinates":[3.81229,45.13401]},"properties":{"nom":"Hôtel des Voyageurs","sub":"HotelRestaurant","cm":"43350#Saint-Paulien","web":"http://www.hotelvoyageur.com/","uri":"https://data.datatourisme.fr/13/c0d8d097-f3be-36f7-bf2c-c66ff3fe2ea1","dept":"43","reg":"ara"}},{"type":"Feature","geometry":{"type":"Point","coordinates":[4.29726,45.05979]},"properties":{"nom":"Camping le Lignon***","sub":"Camping","cm":"43400#Le Chambon-sur-Lignon","web":"http://www.camping-le-lignon.com/","uri":"https://data.datatourisme.fr/13/f43cdaee-153e-3d81-bd94-807145c1d1a2","dept":"43","reg":"ara"}},{"type":"Feature","geometry":{"type":"Point","coordinates":[4.297,45.05998]},"properties":{"nom":"Salle le Lignon","sub":"Rental","cm":"43400#Le Chambon-sur-Lignon","web":"http://www.camping-le-lignon.com/","uri":"https://data.datatourisme.fr/13/19ac4f84-d3ac-361b-8a5e-644070c98864","dept":"43","reg":"ara"}},{"type":"Feature","geometry":{"type":"Point","coordinates":[4.29112,45.11356]},"properties":{"nom":"Hôtel-Restaurant de La Poste","sub":"HotelRestaurant","cm":"43190#Tence","web":"http://www.hotel-poste-tence.com/","uri":"https://data.datatourisme.fr/13/bb2d49dc-af74-369e-a40b-1ac90595052c","dept":"43","reg":"ara"}},{"type":"Feature","geometry":{"type":"Point","coordinates":[3.88801,45.04247]},"properties":{"nom":"Hôtel Le Regina****","sub":"HotelRestaurant","cm":"43000#Le Puy-en-Velay","web":"http://www.hotelrestregina.com/","uri":"https://data.datatourisme.fr/13/89735388-dc61-3266-b856-dd93a1b6c922","dept":"43","reg":"ara"}},{"type":"Feature","geometry":{"type":"Point","coordinates":[3.88825,45.04238]},"properties":{"nom":"Le Régina Séminaires & Réceptions","sub":"Rental","cm":"43000#Le Puy-en-Velay","web":null,"uri":"https://data.datatourisme.fr/13/90f08204-7828-386c-8029-b79280c1f3bf","dept":"43","reg":"ara"}},{"type":"Feature","geometry":{"type":"Point","coordinates":[3.81886,45.21975]},"properties":{"nom":"Hôtel Restaurant des Voyageurs","sub":"HotelRestaurant","cm":"43350#Bellevue-la-Montagne","web":"https://www.hoteldesvoyageurs43.fr/","uri":"https://data.datatourisme.fr/13/bd234d31-d926-3c8a-affc-9e4258d1ebe9","dept":"43","reg":"ara"}},{"type":"Feature","geometry":{"type":"Point","coordinates":[3.9997,44.9331]},"properties":{"nom":"Hôtel restaurant Chèvre et Chou","sub":"HotelRestaurant","cm":"43150#Le Monastier-sur-Gazeille","web":"https://chevreetchou.com/","uri":"https://data.datatourisme.fr/13/eb39b3b0-6cb3-3df6-9579-d42389a455ed","dept":"43","reg":"ara"}},{"type":"Feature","geometry":{"type":"Point","coordinates":[4.43596,45.14187]},"properties":{"nom":"Hôtel la Découverte","sub":"HotelRestaurant","cm":"43290#Saint-Bonnet-le-Froid","web":null,"uri":"https://data.datatourisme.fr/13/43df42d4-8db6-3557-9f6f-85537186a40c","dept":"43","reg":"ara"}},{"type":"Feature","geometry":{"type":"Point","coordinates":[4.43596,45.14187]},"properties":{"nom":"Hôtel Clos des Cimes","sub":"HotelRestaurant","cm":"43290#Saint-Bonnet-le-Froid","web":null,"uri":"https://data.datatourisme.fr/13/3915d1c6-1005-3932-af05-334be2f14455","dept":"43","reg":"ara"}},{"type":"Feature","geometry":{"type":"Point","coordinates":[4.10031,44.95292]},"properties":{"nom":"Hostellerie Le Pré Bossu","sub":"HotelRestaurant","cm":"43150#Moudeyres","web":"https://www.leprebossu.com/","uri":"https://data.datatourisme.fr/13/c78a3431-1b11-36cf-8083-297e0e62a164","dept":"43","reg":"ara"}},{"type":"Feature","geometry":{"type":"Point","coordinates":[3.17071,45.31903]},"properties":{"nom":"Hôtel Restaurant - La Bougnate","sub":"HotelRestaurant","cm":"43450#Blesle","web":"http://www.labougnate.fr/","uri":"https://data.datatourisme.fr/13/b51afd4c-1abe-3952-8bc1-d70f8045c27f","dept":"43","reg":"ara"}},{"type":"Feature","geometry":{"type":"Point","coordinates":[3.40441,45.26394]},"properties":{"nom":"Hôtel les Glycines -Restaurant Les Hydropathes","sub":"HotelRestaurant","cm":"43100#Vieille-Brioude","web":"http://lesglycines-hotel.com/","uri":"https://data.datatourisme.fr/13/f5e16fc9-ff0d-3fc9-9129-5cee40d8a34f","dept":"43","reg":"ara"}},{"type":"Feature","geometry":{"type":"Point","coordinates":[3.38311,45.2895]},"properties":{"nom":"Hôtel-Restaurant la Sapinière","sub":"HotelRestaurant","cm":"43100#Brioude","web":"http://www.hotel-sapiniere-brioude.com/","uri":"https://data.datatourisme.fr/13/99cc205d-c023-37a2-89d8-363c95420109","dept":"43","reg":"ara"}},{"type":"Feature","geometry":{"type":"Point","coordinates":[4.11545,45.01603]},"properties":{"nom":"Camping de Sabatoux","sub":"Camping","cm":"43260#Montusclat","web":"https://auberge-camping-sabatoux.fr/","uri":"https://data.datatourisme.fr/13/90816234-3a21-3071-bf22-4d97490a36c6","dept":"43","reg":"ara"}},{"type":"Feature","geometry":{"type":"Point","coordinates":[4.12428,45.14399]},"properties":{"nom":"Hôtel le Bourbon","sub":"HotelRestaurant","cm":"43200#Yssingeaux","web":"http://www.le-bourbon.com/","uri":"https://data.datatourisme.fr/13/6716f6bc-515c-36f3-b7c7-7734287aac11","dept":"43","reg":"ara"}},{"type":"Feature","geometry":{"type":"Point","coordinates":[4.18239,45.28306]},"properties":{"nom":"Hôtel les Balcons du Velay","sub":"Hotel","cm":"43120#Monistrol-sur-Loire","web":"http://www.hotel-restaurant-balcons-velay.fr/","uri":"https://data.datatourisme.fr/13/95d277f4-ad33-3f5b-897d-18941cfdf175","dept":"43","reg":"ara"}},{"type":"Feature","geometry":{"type":"Point","coordinates":[4.43767,45.158]},"properties":{"nom":"Auberge des Myrtilles","sub":"HotelRestaurant","cm":"43290#Saint-Bonnet-le-Froid","web":"http://www.auberge-des-myrtilles.fr/","uri":"https://data.datatourisme.fr/13/9464a3c9-b09f-3b81-9269-46853fcccf0f","dept":"43","reg":"ara"}},{"type":"Feature","geometry":{"type":"Point","coordinates":[4.4213,45.13841]},"properties":{"nom":"Hob Fort du Pré","sub":"HotelRestaurant","cm":"43290#Saint-Bonnet-le-Froid","web":"https://www.evihob.com/hobs/hob-fort-du-pre/presentation","uri":"https://data.datatourisme.fr/13/28943dda-b74b-3e18-9c97-6c354538d8d8","dept":"43","reg":"ara"}},{"type":"Feature","geometry":{"type":"Point","coordinates":[4.33103,45.06695]},"properties":{"nom":"Clair Matin resort & spa","sub":"HotelRestaurant","cm":"43400#Le Chambon-sur-Lignon","web":"http://www.hotelclairmatin.com/","uri":"https://data.datatourisme.fr/13/2e049c80-7e6a-3c52-b121-a5b69e9293e1","dept":"43","reg":"ara"}},{"type":"Feature","geometry":{"type":"Point","coordinates":[3.29939,45.27422]},"properties":{"nom":"Hôtel et SPA Le Baudière","sub":"HotelRestaurant","cm":"43100#Saint-Beauzire","web":"http://hotel-lebaudiere.com/","uri":"https://data.datatourisme.fr/13/d1328d56-9f9e-3480-a74e-b6a9b43ea65e","dept":"43","reg":"ara"}},{"type":"Feature","geometry":{"type":"Point","coordinates":[3.72048,45.20875]},"properties":{"nom":"Camping la Pinède","sub":"Camping","cm":"43270#Allègre","web":"https://www.campingcarpark.com/fr_FR/sejour/camping/auvergne-rhone-alpes/43-haute-loire/allegre-la-pinede","uri":"https://data.datatourisme.fr/13/881615c9-1ab1-3d35-bf03-479b4d87807d","dept":"43","reg":"ara"}},{"type":"Feature","geometry":{"type":"Point","coordinates":[4.0617,45.0331]},"properties":{"nom":"Hôtel-Restaurant Le Barriol","sub":"HotelRestaurant","cm":"43260#Saint-Julien-Chapteuil","web":"http://www.lebarriol.com/","uri":"https://data.datatourisme.fr/13/9d6f3c59-4204-32b8-9059-31e1a44ca000","dept":"43","reg":"ara"}},{"type":"Feature","geometry":{"type":"Point","coordinates":[4.28288,45.30086]},"properties":{"nom":"Camping La Fressange**","sub":"Camping","cm":"43140#Saint-Didier-en-Velay","web":"http://www.camping-lafressange.com/","uri":"https://data.datatourisme.fr/13/abc1a82a-49b0-3166-9c3c-cc23f46080ae","dept":"43","reg":"ara"}},{"type":"Feature","geometry":{"type":"Point","coordinates":[3.90957,45.05211]},"properties":{"nom":"CycleXperience","sub":"Rental","cm":"43700#Brives-Charensac","web":null,"uri":"https://data.datatourisme.fr/13/880faa3a-5992-3ba8-b6fb-ccd0803bb8a0","dept":"43","reg":"ara"}},{"type":"Feature","geometry":{"type":"Point","coordinates":[3.70588,45.33647]},"properties":{"nom":"Hôtel Le Vénéré","sub":"Hotel","cm":"43160#La Chaise-Dieu","web":"https://www.grandsgites.com/gite-43-venere-5209.htm","uri":"https://data.datatourisme.fr/13/ff6e48c3-a7a3-3af7-9053-543d6a3c130b","dept":"43","reg":"ara"}},{"type":"Feature","geometry":{"type":"Point","coordinates":[3.90762,45.05084]},"properties":{"nom":"COMPRESSION Bicycles","sub":"Rental","cm":"43700#Brives-Charensac","web":"https://www.compressionbicycles-workshop.com/","uri":"https://data.datatourisme.fr/13/7a165cff-4c98-3716-a609-26abc52ca266","dept":"43","reg":"ara"}},{"type":"Feature","geometry":{"type":"Point","coordinates":[3.53322,45.07226]},"properties":{"nom":"Auberge de Chanteuges","sub":"HotelRestaurant","cm":"43300#Chanteuges","web":"https://www.auberge-de-chanteuges.fr/","uri":"https://data.datatourisme.fr/13/b90babf6-1a1a-35a6-8f3a-e79d1c96df9a","dept":"43","reg":"ara"}},{"type":"Feature","geometry":{"type":"Point","coordinates":[4.16778,44.91404]},"properties":{"nom":"La Maison Forestière du Mézenc","sub":"CollectiveAccommodation","cm":"43150#Les Estables","web":"https://lamaisonforestieredumezenc.fr/gite-etape-gr40-gr7/","uri":"https://data.datatourisme.fr/13/becf933f-2d5b-3c19-b93a-423d9481ba8a","dept":"43","reg":"ara"}},{"type":"Feature","geometry":{"type":"Point","coordinates":[3.49951,45.10248]},"properties":{"nom":"Camping des Gorges de L'Allier","sub":"Camping","cm":"43300#Langeac","web":"http://www.campinglangeac.com/","uri":"https://data.datatourisme.fr/13/c246c6b7-59e3-3463-bc50-e61657dca361","dept":"43","reg":"ara"}},{"type":"Feature","geometry":{"type":"Point","coordinates":[3.50494,45.09291]},"properties":{"nom":"Hôtel de L' île d'Amour","sub":"Hotel","cm":"43300#Langeac","web":"https://aubergeiledamour.wixsite.com/hotel-de-l","uri":"https://data.datatourisme.fr/13/ccbe4c67-69e7-33f8-8f01-cc1a36e0aacf","dept":"43","reg":"ara"}},{"type":"Feature","geometry":{"type":"Point","coordinates":[3.80829,44.92441]},"properties":{"nom":"Hôtel-restaurant La Croisée des Chemins","sub":"HotelRestaurant","cm":"43510#Cayres","web":null,"uri":"https://data.datatourisme.fr/13/9b8f135e-2985-3fd0-87b9-e2b31391b182","dept":"43","reg":"ara"}},{"type":"Feature","geometry":{"type":"Point","coordinates":[4.06332,45.01253]},"properties":{"nom":"Centre de vacances AVEA Saint-Julien","sub":"CollectiveAccommodation","cm":"43260#Saint-Julien-Chapteuil","web":"https://www.avea-patrimoine.fr/montagne-saint-julien-chapteuil/","uri":"https://data.datatourisme.fr/13/87c32fca-9ba6-3bc4-8060-112015b23977","dept":"43","reg":"ara"}},{"type":"Feature","geometry":{"type":"Point","coordinates":[3.47296,45.2313]},"properties":{"nom":"Hôtel-Restaurant La Crèche","sub":"HotelRestaurant","cm":"43230#La Chomette","web":"https://www.lacreche-43.com/","uri":"https://data.datatourisme.fr/13/6746e499-1a4c-3d49-9dd3-7d7b0fee6179","dept":"43","reg":"ara"}},{"type":"Feature","geometry":{"type":"Point","coordinates":[3.4866,45.12377]},"properties":{"nom":"Les Rives d'Allier","sub":"HotelRestaurant","cm":"43300#Mazeyrat-d'Allier","web":"https://www.hotellesrivesdallier.fr/","uri":"https://data.datatourisme.fr/13/714bb6bb-7604-34d7-b8b3-0d78ccb2bb93","dept":"43","reg":"ara"}},{"type":"Feature","geometry":{"type":"Point","coordinates":[3.26593,45.3879]},"properties":{"nom":"Le Pont d'Allagnon","sub":"Camping","cm":"43410#Lempdes-sur-Allagnon","web":"http://www.campingenauvergne.com/","uri":"https://data.datatourisme.fr/13/65a46981-4c94-3cf6-a4bd-e0e2adf2515a","dept":"43","reg":"ara"}},{"type":"Feature","geometry":{"type":"Point","coordinates":[3.54073,44.95818]},"properties":{"nom":"Camping de la Seuge","sub":"Camping","cm":"43170#Saugues","web":"https://www.campingdelaseuge.fr/","uri":"https://data.datatourisme.fr/13/228c3b30-f43e-38af-8ade-191d581aa5a3","dept":"43","reg":"ara"}},{"type":"Feature","geometry":{"type":"Point","coordinates":[4.4693,45.22191]},"properties":{"nom":"Gîte La Clavarine","sub":"CollectiveAccommodation","cm":"43220#Riotord","web":null,"uri":"https://data.datatourisme.fr/13/442b0d03-2110-3518-88ab-1fd7e0f54cd7","dept":"43","reg":"ara"}},{"type":"Feature","geometry":{"type":"Point","coordinates":[3.50618,45.36562]},"properties":{"nom":"Camping - La Chanterelle","sub":"Camping","cm":"43440#Champagnac-le-Vieux","web":"http://www.champagnac.com/","uri":"https://data.datatourisme.fr/13/f1a09c20-5902-32c9-baa2-b72fad789606","dept":"43","reg":"ara"}},{"type":"Feature","geometry":{"type":"Point","coordinates":[3.39084,45.2956]},"properties":{"nom":"Alti Cycles Brioude","sub":"Rental","cm":"43100#Brioude","web":"https://www.alticycles.fr/","uri":"https://data.datatourisme.fr/13/10219ea7-d8c5-33a1-b43f-acce8cd2f480","dept":"43","reg":"ara"}},{"type":"Feature","geometry":{"type":"Point","coordinates":[3.48495,45.2132]},"properties":{"nom":"Domaine Saint-Roch","sub":"HotelRestaurant","cm":"43230#Salzuit","web":"http://www.hotel-auvergne-saintroch.com/","uri":"https://data.datatourisme.fr/13/eac10ec8-df36-30fe-aaff-321523234a8e","dept":"43","reg":"ara"}},{"type":"Feature","geometry":{"type":"Point","coordinates":[3.85016,44.89499]},"properties":{"nom":"E-Solution Vélo 43","sub":"Rental","cm":"43490#Costaros","web":"https://www.esolutionvelo43.fr/#Accueil.A","uri":"https://data.datatourisme.fr/13/03a8843b-ba9b-3d38-a804-dd6b70ac6a79","dept":"43","reg":"ara"}},{"type":"Feature","geometry":{"type":"Point","coordinates":[4.34119,45.03701]},"properties":{"nom":"Gîte La Vigne","sub":"CollectiveAccommodation","cm":"43400#Le Chambon-sur-Lignon","web":"http://www.gite-la-vigne.com/","uri":"https://data.datatourisme.fr/13/0da436be-24a5-332f-ae53-ef35a4684b8e","dept":"43","reg":"ara"}},{"type":"Feature","geometry":{"type":"Point","coordinates":[4.34119,45.03701]},"properties":{"nom":"Location de VAE","sub":"Rental","cm":"43400#Le Chambon-sur-Lignon","web":"https://www.altesensations.com/","uri":"https://data.datatourisme.fr/13/4655b05c-4dfe-3bc5-bfbe-3c3835540776","dept":"43","reg":"ara"}},{"type":"Feature","geometry":{"type":"Point","coordinates":[4.28871,45.11595]},"properties":{"nom":"Hôtel le Chatiague","sub":"HotelRestaurant","cm":"43190#Tence","web":null,"uri":"https://data.datatourisme.fr/13/6d559911-8cc0-33ef-bb0b-ca0d67991a09","dept":"43","reg":"ara"}},{"type":"Feature","geometry":{"type":"Point","coordinates":[4.19549,45.37131]},"properties":{"nom":"La Teinturerie","sub":"Rental","cm":"43110#Aurec-sur-Loire","web":"http://www.mairie-aurec.fr/","uri":"https://data.datatourisme.fr/13/12ef59b6-7bfa-3cda-912b-827234b13ca0","dept":"43","reg":"ara"}},{"type":"Feature","geometry":{"type":"Point","coordinates":[3.79022,44.8906]},"properties":{"nom":"Easy Rando","sub":"Rental","cm":"43510#Le Bouchet-Saint-Nicolas","web":"http://www.lebouchetsaintnicolas.fr/","uri":"https://data.datatourisme.fr/13/a8e40ce9-af26-33e6-9c81-deafadee76b9","dept":"43","reg":"ara"}},{"type":"Feature","geometry":{"type":"Point","coordinates":[3.87256,45.04153]},"properties":{"nom":"La Colline Aux Cabanes","sub":"CollectiveAccommodation","cm":"43000#Espaly-Saint-Marcel","web":"http://www.lacollineauxcabanes.com/","uri":"https://data.datatourisme.fr/13/af4d0f77-3bbc-372f-8ca9-17483ca4a770","dept":"43","reg":"ara"}},{"type":"Feature","geometry":{"type":"Point","coordinates":[3.48893,44.92004]},"properties":{"nom":"Le Chaudron du Gévaudan","sub":"CollectiveAccommodation","cm":"43170#Grèzes","web":null,"uri":"https://data.datatourisme.fr/13/1ce0e4fc-2ba0-3fe4-9f05-5c2d211eec15","dept":"43","reg":"ara"}},{"type":"Feature","geometry":{"type":"Point","coordinates":[3.38353,45.29317]},"properties":{"nom":"Hôtel du centre","sub":"HotelRestaurant","cm":"43100#Brioude","web":"http://www.hotel-centre.fr/","uri":"https://data.datatourisme.fr/13/550ff6ef-5844-305e-bc71-e2820b980590","dept":"43","reg":"ara"}},{"type":"Feature","geometry":{"type":"Point","coordinates":[4.15733,44.90691]},"properties":{"nom":"Les Chalets du Mézenc","sub":"Hostel","cm":"43150#Les Estables","web":"http://www.chalet-du-mezenc.com/","uri":"https://data.datatourisme.fr/13/85f42b2e-109d-3a18-aa99-b6e4edecd6ea","dept":"43","reg":"ara"}},{"type":"Feature","geometry":{"type":"Point","coordinates":[3.99284,44.9411]},"properties":{"nom":"Gite Stevenson","sub":"CollectiveAccommodation","cm":"43150#Le Monastier-sur-Gazeille","web":"https://gite-monastier.com/","uri":"https://data.datatourisme.fr/13/3e9398a5-20cc-323a-93c3-36ecf7829c92","dept":"43","reg":"ara"}},{"type":"Feature","geometry":{"type":"Point","coordinates":[4.22252,44.9837]},"properties":{"nom":"Camping Municipal « La Ferme de Mathias »","sub":"Camping","cm":"43430#Fay-sur-Lignon","web":"https://www.faysurlignon.fr/","uri":"https://data.datatourisme.fr/13/00860d21-1f55-3860-a66f-58e0062e22d1","dept":"43","reg":"ara"}},{"type":"Feature","geometry":{"type":"Point","coordinates":[3.96106,45.05634]},"properties":{"nom":"Hôtel-Restaurant le Moulin de Barette","sub":"HotelRestaurant","cm":"43700#Blavozy","web":"https://www.lemoulindebarette.com/","uri":"https://data.datatourisme.fr/13/4b35e262-abe7-3f7b-9012-6671d9d4653c","dept":"43","reg":"ara"}},{"type":"Feature","geometry":{"type":"Point","coordinates":[3.98708,45.1634]},"properties":{"nom":"Gîte d'étape de Blanlhac","sub":"CollectiveAccommodation","cm":"43800#Rosières","web":null,"uri":"https://data.datatourisme.fr/13/815adc03-8e8f-36ca-9344-f56ebf5fe1af","dept":"43","reg":"ara"}},{"type":"Feature","geometry":{"type":"Point","coordinates":[3.88486,45.04659]},"properties":{"nom":"Gîte Saint-François","sub":"CollectiveAccommodation","cm":"43000#Le Puy-en-Velay","web":null,"uri":"https://data.datatourisme.fr/13/1c5d56d5-4cb9-314e-a1d0-2bd24900ae18","dept":"43","reg":"ara"}},{"type":"Feature","geometry":{"type":"Point","coordinates":[3.94632,45.12561]},"properties":{"nom":"La Galoche - location VAE","sub":"Rental","cm":"43800#Beaulieu","web":"http://www.restaurant-gites-lagaloche.fr/","uri":"https://data.datatourisme.fr/13/bde3ccfd-dca3-3a92-90fd-9d5757f3a6b7","dept":"43","reg":"ara"}},{"type":"Feature","geometry":{"type":"Point","coordinates":[3.71079,45.19797]},"properties":{"nom":"Les Tilleuls Saint-Martin","sub":"CollectiveAccommodation","cm":"43270#Allègre","web":"https://www.gite-groupe-les-tilleuls.fr/","uri":"https://data.datatourisme.fr/13/98eefba4-3034-3551-b46a-4ff317e8bb11","dept":"43","reg":"ara"}},{"type":"Feature","geometry":{"type":"Point","coordinates":[3.88404,45.04595]},"properties":{"nom":"Centre de Congrès Hôtel Dieu","sub":"Rental","cm":"43000#Le Puy-en-Velay","web":null,"uri":"https://data.datatourisme.fr/13/9d40ebac-df00-3f9e-b25f-e4a93e835e8c","dept":"43","reg":"ara"}},{"type":"Feature","geometry":{"type":"Point","coordinates":[3.8128,45.13328]},"properties":{"nom":"Centre d'Accueil \"Le Ruessio\"","sub":"CollectiveAccommodation","cm":"43350#Saint-Paulien","web":"http://www.saint-paulien.fr/","uri":"https://data.datatourisme.fr/13/a09bbe0f-8578-3358-b9ec-2cc214ec98b5","dept":"43","reg":"ara"}},{"type":"Feature","geometry":{"type":"Point","coordinates":[4.18883,45.36753]},"properties":{"nom":"Gîte des Gorges de la Loire","sub":"Hostel","cm":"43110#Aurec-sur-Loire","web":"https://lesrivesdaurec.fr/hebergements/gite-gorges-de-la-loire/","uri":"https://data.datatourisme.fr/13/98da0de2-d7d8-3f18-ad9a-569ae83d4e12","dept":"43","reg":"ara"}},{"type":"Feature","geometry":{"type":"Point","coordinates":[3.74163,45.00704]},"properties":{"nom":"Gîte du Velay","sub":"CollectiveAccommodation","cm":"43370#Bains","web":"http://www.grand-gite.fr/","uri":"https://data.datatourisme.fr/13/3b5ce05b-22cc-32e9-838b-b5c8986cbe36","dept":"43","reg":"ara"}},{"type":"Feature","geometry":{"type":"Point","coordinates":[3.74393,44.99137]},"properties":{"nom":"L'Escole","sub":"CollectiveAccommodation","cm":"43370#Bains","web":"http://www.lescole.com/","uri":"https://data.datatourisme.fr/13/670d4b6e-5e3a-3fe1-92fa-4047ae81482c","dept":"43","reg":"ara"}},{"type":"Feature","geometry":{"type":"Point","coordinates":[3.84924,45.04985]},"properties":{"nom":"Salle Les Orgues","sub":"Rental","cm":"43000#Espaly-Saint-Marcel","web":null,"uri":"https://data.datatourisme.fr/13/c74d09cf-07a2-3cb5-9228-cd6df66f6416","dept":"43","reg":"ara"}},{"type":"Feature","geometry":{"type":"Point","coordinates":[3.82236,45.04369]},"properties":{"nom":"Domaine de Chadenac","sub":"Hostel","cm":"43000#Ceyssac","web":"https://chadenac.com/","uri":"https://data.datatourisme.fr/13/d5475c58-7e62-3556-a608-123dccb254cc","dept":"43","reg":"ara"}},{"type":"Feature","geometry":{"type":"Point","coordinates":[3.74161,44.9898]},"properties":{"nom":"La Grange","sub":"CollectiveAccommodation","cm":"43370#Bains","web":"http://www.gitelagrangegr65.fr/","uri":"https://data.datatourisme.fr/13/d7270bc8-a30d-343f-a5f6-2ce93885f59f","dept":"43","reg":"ara"}},{"type":"Feature","geometry":{"type":"Point","coordinates":[4.13562,44.98679]},"properties":{"nom":"L'Épi de Blé","sub":"CollectiveAccommodation","cm":"43550#Saint-Front","web":"http://gitelepideble.com/","uri":"https://data.datatourisme.fr/13/904063fc-155b-37e5-8053-49182c61ad24","dept":"43","reg":"ara"}},{"type":"Feature","geometry":{"type":"Point","coordinates":[4.13562,44.98679]},"properties":{"nom":"La Batisse","sub":"CollectiveAccommodation","cm":"43550#Saint-Front","web":"http://www.gitelabatisse.fr/","uri":"https://data.datatourisme.fr/13/9285f34d-ee4e-3ffa-9330-6a82bbc84371","dept":"43","reg":"ara"}},{"type":"Feature","geometry":{"type":"Point","coordinates":[3.88375,45.04631]},"properties":{"nom":"Centre de congrès Hôtel du département","sub":"Rental","cm":"43000#Le Puy-en-Velay","web":null,"uri":"https://data.datatourisme.fr/13/ac4a7a52-ab56-338f-88f6-0a68d98731b6","dept":"43","reg":"ara"}},{"type":"Feature","geometry":{"type":"Point","coordinates":[3.73248,45.33747]},"properties":{"nom":"Gîte \"Le Grenier des Moines\"","sub":"CollectiveAccommodation","cm":"43160#Malvières","web":"http://www.giteschaisedieu.com/","uri":"https://data.datatourisme.fr/13/7b58d069-3320-3021-8146-db267dc99585","dept":"43","reg":"ara"}},{"type":"Feature","geometry":{"type":"Point","coordinates":[3.72351,45.31599]},"properties":{"nom":"Gîte \"Le Champ\"","sub":"CollectiveAccommodation","cm":"43160#Malvières","web":"http://www.giteschaisedieu.com/","uri":"https://data.datatourisme.fr/13/6efa82ae-eb72-3518-b439-87a7b499828c","dept":"43","reg":"ara"}},{"type":"Feature","geometry":{"type":"Point","coordinates":[3.78982,45.30804]},"properties":{"nom":"Camping Municipal","sub":"Camping","cm":"43500#Jullianges","web":null,"uri":"https://data.datatourisme.fr/13/ee258043-edad-342b-906f-8e987f4d7163","dept":"43","reg":"ara"}},{"type":"Feature","geometry":{"type":"Point","coordinates":[3.84835,45.32741]},"properties":{"nom":"Camping Municipal","sub":"Camping","cm":"43500#Craponne-sur-Arzon","web":null,"uri":"https://data.datatourisme.fr/13/f23b94b1-9bec-33a1-b2c9-b845d6c7bf92","dept":"43","reg":"ara"}},{"type":"Feature","geometry":{"type":"Point","coordinates":[3.7199,45.27688]},"properties":{"nom":"Hôtel restaurant \"L'Authentique\"","sub":"HotelRestaurant","cm":"43160#Sembadel","web":"http://www.hotel-restaurant-authentique.com/","uri":"https://data.datatourisme.fr/13/f6a9e0b0-c750-37f3-bd9d-4c5625093b19","dept":"43","reg":"ara"}},{"type":"Feature","geometry":{"type":"Point","coordinates":[4.14308,44.97765]},"properties":{"nom":"Saint Front Escapades","sub":"Rental","cm":"43550#Saint-Front","web":null,"uri":"https://data.datatourisme.fr/13/70836590-92fe-37d5-bb57-48ea4f7469a0","dept":"43","reg":"ara"}},{"type":"Feature","geometry":{"type":"Point","coordinates":[3.88849,45.04066]},"properties":{"nom":"Hôtel Bristol & la Table de Felix","sub":"Rental","cm":"43000#Le Puy-en-Velay","web":null,"uri":"https://data.datatourisme.fr/13/010cfc19-b6f2-30ea-971f-9f0ff7384198","dept":"43","reg":"ara"}},{"type":"Feature","geometry":{"type":"Point","coordinates":[4.28832,45.06652]},"properties":{"nom":"Camp Joubert des UCJG - YMCA","sub":"Hostel","cm":"43400#Le Chambon-sur-Lignon","web":"https://ymcafrance.fr/camp-joubert/","uri":"https://data.datatourisme.fr/13/226e4cf9-e080-3f1d-bdbd-12dbf2106ead","dept":"43","reg":"ara"}},{"type":"Feature","geometry":{"type":"Point","coordinates":[4.04787,45.07368]},"properties":{"nom":"Hôtel le Meygal","sub":"HotelRestaurant","cm":"43260#Saint-Hostien","web":"http://www.hotel-restaurant-lemeygal.fr/","uri":"https://data.datatourisme.fr/13/5f87c17c-268a-3468-a437-3f7e4b03caa5","dept":"43","reg":"ara"}},{"type":"Feature","geometry":{"type":"Point","coordinates":[3.69744,45.32116]},"properties":{"nom":"Auditorium Cziffra","sub":"Rental","cm":"43160#La Chaise-Dieu","web":"https://www.chaisedieu.fr/","uri":"https://data.datatourisme.fr/13/b0d8480a-03f9-30b6-9712-ffad3e9de82b","dept":"43","reg":"ara"}},{"type":"Feature","geometry":{"type":"Point","coordinates":[3.98398,44.93521]},"properties":{"nom":"Le Moulin de Savin","sub":"HotelRestaurant","cm":"43150#Le Monastier-sur-Gazeille","web":null,"uri":"https://data.datatourisme.fr/13/e8d92e6a-52bc-36dd-9a2d-21d7649d1a33","dept":"43","reg":"ara"}},{"type":"Feature","geometry":{"type":"Point","coordinates":[4.12564,45.14145]},"properties":{"nom":"Hôtel le Cygne","sub":"Hotel","cm":"43200#Yssingeaux","web":"https://www.le-cygne.fr/","uri":"https://data.datatourisme.fr/13/fa3b09b6-ead9-3075-8fed-0e024e7032f9","dept":"43","reg":"ara"}},{"type":"Feature","geometry":{"type":"Point","coordinates":[3.64802,44.96927]},"properties":{"nom":"Le Pain de Sucre","sub":"HotelRestaurant","cm":"43580#Monistrol-d'Allier","web":"http://www.hotel-restaurant-monistrol.com/FR/Paindesucre_accueil_02.awp","uri":"https://data.datatourisme.fr/13/17883ce5-aa72-3747-b244-a8ae23b724eb","dept":"43","reg":"ara"}},{"type":"Feature","geometry":{"type":"Point","coordinates":[4.28806,45.2729]},"properties":{"nom":"Gîte de groupe - Le Buisson","sub":"CollectiveAccommodation","cm":"43620#Saint-Pal-de-Mons","web":"https://www.gitedegroupe-auvergne.fr/","uri":"https://data.datatourisme.fr/13/e4834a21-5b7e-3fc9-b6f5-a3fbe8884b69","dept":"43","reg":"ara"}},{"type":"Feature","geometry":{"type":"Point","coordinates":[4.2822,45.10646]},"properties":{"nom":"VVF Villages Tence","sub":"CollectiveAccommodation","cm":"43190#Tence","web":"http://www.vvf-villages.fr/villages-vacances/vacances-tence-vvf-villages.html","uri":"https://data.datatourisme.fr/13/0a2549e6-9665-371c-8572-6eccf89baea8","dept":"43","reg":"ara"}},{"type":"Feature","geometry":{"type":"Point","coordinates":[3.65372,44.96979]},"properties":{"nom":"Le Ricochet","sub":"CollectiveAccommodation","cm":"43580#Monistrol-d'Allier","web":"http://www.gitelericochet.fr/","uri":"https://data.datatourisme.fr/13/824e137a-4690-3866-9268-47966f3ccd5a","dept":"43","reg":"ara"}},{"type":"Feature","geometry":{"type":"Point","coordinates":[3.92273,44.88827]},"properties":{"nom":"Auberge du Pipet","sub":"CollectiveAccommodation","cm":"43150#Goudet","web":null,"uri":"https://data.datatourisme.fr/13/325b9a52-73fa-38af-854d-706eac257258","dept":"43","reg":"ara"}},{"type":"Feature","geometry":{"type":"Point","coordinates":[4.0961,44.9961]},"properties":{"nom":"Auberge L'Herminette","sub":"HotelRestaurant","cm":"43550#Saint-Front","web":"http://www.auberge-lherminette.com/","uri":"https://data.datatourisme.fr/13/3808c109-7b08-399e-ade5-05be0e0ae0ca","dept":"43","reg":"ara"}},{"type":"Feature","geometry":{"type":"Point","coordinates":[4.34067,45.05287]},"properties":{"nom":"Le Domaine du Coteau Fleuri","sub":"CollectiveAccommodation","cm":"43400#Le Chambon-sur-Lignon","web":"http://www.lecoteaufleuri.com/","uri":"https://data.datatourisme.fr/13/398aca7a-b80f-3c87-92f8-8ea2485af83a","dept":"43","reg":"ara"}},{"type":"Feature","geometry":{"type":"Point","coordinates":[3.88705,45.29823]},"properties":{"nom":"Gîte du Bon Accueil","sub":"CollectiveAccommodation","cm":"43500#Saint-Georges-Lagricol","web":"https://www.gitedubonaccueil.fr/","uri":"https://data.datatourisme.fr/13/b7b90b94-0f43-3ffb-95da-42cf42edae8a","dept":"43","reg":"ara"}},{"type":"Feature","geometry":{"type":"Point","coordinates":[4.15881,45.32928]},"properties":{"nom":"Au Champ Bonheur","sub":"CollectiveAccommodation","cm":"43120#La Chapelle-d'Aurec","web":"http://www.auchampbonheur.fr/","uri":"https://data.datatourisme.fr/13/7b09d3f2-2af0-3acd-a3b3-48abd89f610f","dept":"43","reg":"ara"}},{"type":"Feature","geometry":{"type":"Point","coordinates":[4.15907,45.32935]},"properties":{"nom":"Salle au Champ Bonheur","sub":"Rental","cm":"43120#La Chapelle-d'Aurec","web":"http://www.auchampbonheur.fr/","uri":"https://data.datatourisme.fr/13/74a69825-a293-3f85-a2ab-2bf880eea3a1","dept":"43","reg":"ara"}},{"type":"Feature","geometry":{"type":"Point","coordinates":[4.17715,45.29539]},"properties":{"nom":"Centre d'Accueil Espace Beauvoir","sub":"CollectiveAccommodation","cm":"43120#Monistrol-sur-Loire","web":"http://www.espace-beauvoir.com/","uri":"https://data.datatourisme.fr/13/e64200d2-7778-3a10-a023-00b4745a1231","dept":"43","reg":"ara"}},{"type":"Feature","geometry":{"type":"Point","coordinates":[4.43518,45.14219]},"properties":{"nom":"Gite d'étape les Genêts d'Or","sub":"CollectiveAccommodation","cm":"43290#Saint-Bonnet-le-Froid","web":null,"uri":"https://data.datatourisme.fr/13/754a4897-f1ba-340e-b067-1a625fdeab99","dept":"43","reg":"ara"}},{"type":"Feature","geometry":{"type":"Point","coordinates":[4.08789,44.89338]},"properties":{"nom":"Centre d'Accueil du Mont Tourte","sub":"Hostel","cm":"43150#Freycenet-la-Cuche","web":null,"uri":"https://data.datatourisme.fr/13/dd13ec0a-9b23-3213-8dae-e909a4fe7b48","dept":"43","reg":"ara"}},{"type":"Feature","geometry":{"type":"Point","coordinates":[4.21916,45.24592]},"properties":{"nom":"Anim'nature -VTT","sub":"Rental","cm":"43600#Sainte-Sigolène","web":"http://www.anim-nature.com/","uri":"https://data.datatourisme.fr/13/7b3087ae-1c9a-3956-bbdf-6b18c7c05c54","dept":"43","reg":"ara"}},{"type":"Feature","geometry":{"type":"Point","coordinates":[4.04435,45.31179]},"properties":{"nom":"Les Gîtes du Val - Gîte d'étape groupe","sub":"CollectiveAccommodation","cm":"43210#Valprivas","web":"https://www.vacances-gites-auvergne.com/","uri":"https://data.datatourisme.fr/13/7c15ad72-e53a-3594-bbad-b7c4d1cc0a59","dept":"43","reg":"ara"}},{"type":"Feature","geometry":{"type":"Point","coordinates":[4.04435,45.31179]},"properties":{"nom":"Les Gîtes du Val - Gîtes Touristiques","sub":"CollectiveAccommodation","cm":"43210#Valprivas","web":"https://www.vacances-gites-auvergne.com/","uri":"https://data.datatourisme.fr/13/fd82db1a-6184-3db1-8187-cb1ff63533d6","dept":"43","reg":"ara"}},{"type":"Feature","geometry":{"type":"Point","coordinates":[4.31276,45.18437]},"properties":{"nom":"Gîte d'étape communal Saint-Régis","sub":"CollectiveAccommodation","cm":"43290#Montfaucon-en-Velay","web":null,"uri":"https://data.datatourisme.fr/13/7c713443-07fd-35b8-b39a-eca12b255f64","dept":"43","reg":"ara"}},{"type":"Feature","geometry":{"type":"Point","coordinates":[4.43389,45.13861]},"properties":{"nom":"Hôtel Marcon","sub":"HotelRestaurant","cm":"43290#Saint-Bonnet-le-Froid","web":null,"uri":"https://data.datatourisme.fr/13/a4c26b81-ae6d-39f7-b1f6-bf1843aa0afc","dept":"43","reg":"ara"}},{"type":"Feature","geometry":{"type":"Point","coordinates":[4.24263,45.05611]},"properties":{"nom":"La Costette - Centre de vacances et de séjours","sub":"CollectiveAccommodation","cm":"43520#Mazet-Saint-Voy","web":"http://www.costette.com/","uri":"https://data.datatourisme.fr/13/844e71de-5b3c-36c8-b0fd-8ae4877713e8","dept":"43","reg":"ara"}},{"type":"Feature","geometry":{"type":"Point","coordinates":[4.0992,44.95494]},"properties":{"nom":"Gite La Randonnée","sub":"CollectiveAccommodation","cm":"43150#Moudeyres","web":"https://www.hotel-larandonnee.fr/","uri":"https://data.datatourisme.fr/13/027e40f0-55f3-3d50-9e55-d0b67a9fa8aa","dept":"43","reg":"ara"}},{"type":"Feature","geometry":{"type":"Point","coordinates":[3.93517,44.95324]},"properties":{"nom":"Les Bâtisses de Colempce","sub":"Hostel","cm":"43150#Chadron","web":null,"uri":"https://data.datatourisme.fr/13/70ce2793-5c72-37e2-a6ec-2f8bf448c567","dept":"43","reg":"ara"}},{"type":"Feature","geometry":{"type":"Point","coordinates":[4.13926,45.258]},"properties":{"nom":"Gîte de groupe et d'étape Le Sequoia","sub":"CollectiveAccommodation","cm":"43590#Beauzac","web":"http://www.le-sequoia.fr/","uri":"https://data.datatourisme.fr/13/6dc21f31-4e65-3997-a233-252119808d4d","dept":"43","reg":"ara"}},{"type":"Feature","geometry":{"type":"Point","coordinates":[3.99431,44.93978]},"properties":{"nom":"Gîte d'étape et table d'hôtes L'île au Trésor","sub":"CollectiveAccommodation","cm":"43150#Le Monastier-sur-Gazeille","web":"https://www.gite-tresor.fr/","uri":"https://data.datatourisme.fr/13/1c3d2677-c3f5-3049-9a56-28427ed11dda","dept":"43","reg":"ara"}},{"type":"Feature","geometry":{"type":"Point","coordinates":[3.92166,45.12478]},"properties":{"nom":"Camping Les Ombrelles","sub":"Camping","cm":"43800#Lavoûte-sur-Loire","web":"http://www.campinglesombrelles.fr/","uri":"https://data.datatourisme.fr/13/48eb6b83-c4ed-33f3-8315-7c736f9b4c6a","dept":"43","reg":"ara"}},{"type":"Feature","geometry":{"type":"Point","coordinates":[3.67607,44.99026]},"properties":{"nom":"Camping le Marchat","sub":"Camping","cm":"43580#Saint-Privat-d'Allier","web":"http://www.mairie-saintprivatdallier.fr/","uri":"https://data.datatourisme.fr/13/4db9fff5-58b5-362e-aaef-b1e01fcb3f35","dept":"43","reg":"ara"}},{"type":"Feature","geometry":{"type":"Point","coordinates":[3.88691,45.045]},"properties":{"nom":"Centre Pierre Cardinal","sub":"Rental","cm":"43000#Le Puy-en-Velay","web":null,"uri":"https://data.datatourisme.fr/13/5549e0a3-5524-3089-8a6e-d6f49a3d2779","dept":"43","reg":"ara"}},{"type":"Feature","geometry":{"type":"Point","coordinates":[3.69564,45.32002]},"properties":{"nom":"Hôtel restaurant \"Le Lion d'Or\"","sub":"HotelRestaurant","cm":"43160#La Chaise-Dieu","web":"https://hotel-leliondor43.jimdofree.com/","uri":"https://data.datatourisme.fr/13/591be668-0977-3b18-8683-009e2a64e862","dept":"43","reg":"ara"}},{"type":"Feature","geometry":{"type":"Point","coordinates":[4.11343,44.91581]},"properties":{"nom":"Gite des petits bonheurs","sub":"CollectiveAccommodation","cm":"43150#Les Estables","web":"http://www.gitedespetitsbonheurs.fr/","uri":"https://data.datatourisme.fr/13/a3f0eb1e-a13b-3aa9-8e38-fe9b65abd240","dept":"43","reg":"ara"}},{"type":"Feature","geometry":{"type":"Point","coordinates":[4.0817,45.28693]},"properties":{"nom":"Salle - Terrasse Golf Pitch & Putt","sub":"Rental","cm":"43210#Bas-en-Basset","web":null,"uri":"https://data.datatourisme.fr/13/8d02f5d2-29cb-353f-b5ab-a2450d3bf1dc","dept":"43","reg":"ara"}},{"type":"Feature","geometry":{"type":"Point","coordinates":[4.29173,45.05553]},"properties":{"nom":"Résidence Val du Rio","sub":"HolidayResort","cm":"43400#Le Chambon-sur-Lignon","web":"https://www.valdurio.fr/","uri":"https://data.datatourisme.fr/13/2da171ab-4c37-37c2-bafe-4c53cb111a1a","dept":"43","reg":"ara"}},{"type":"Feature","geometry":{"type":"Point","coordinates":[3.18702,45.31247]},"properties":{"nom":"Hôtel Rêve de la vallée","sub":"HotelRestaurant","cm":"43450#Blesle","web":"https://www.revedelavallee.fr/","uri":"https://data.datatourisme.fr/13/271a780c-ac7d-330c-9213-5b52fa239b2e","dept":"43","reg":"ara"}},{"type":"Feature","geometry":{"type":"Point","coordinates":[4.20609,45.04383]},"properties":{"nom":"Les Moulins du Bouchat","sub":"Rental","cm":"43520#Mazet-Saint-Voy","web":null,"uri":"https://data.datatourisme.fr/13/d33d5455-3eff-37ec-a0f6-79132b2b1874","dept":"43","reg":"ara"}},{"type":"Feature","geometry":{"type":"Point","coordinates":[4.14343,44.97642]},"properties":{"nom":"Centre d'Accueil de Saint-Front","sub":"Hostel","cm":"43550#Saint-Front","web":"http://www.cap-st-front.fr/","uri":"https://data.datatourisme.fr/13/cacb8fb4-e776-30f9-bef0-dc289f96e0e5","dept":"43","reg":"ara"}},{"type":"Feature","geometry":{"type":"Point","coordinates":[4.01887,45.05326]},"properties":{"nom":"Gite de la Fontaine","sub":"CollectiveAccommodation","cm":"43260#Saint-Pierre-Eynac","web":"http://www.maisondhoteslafontainestpierre-eynac43.com/","uri":"https://data.datatourisme.fr/13/90837df0-f069-3351-aae6-bc935fde8493","dept":"43","reg":"ara"}},{"type":"Feature","geometry":{"type":"Point","coordinates":[4.06135,44.93742]},"properties":{"nom":"Gîte des Barthes","sub":"CollectiveAccommodation","cm":"43150#Freycenet-la-Tour","web":null,"uri":"https://data.datatourisme.fr/13/9322f0d4-9a29-3027-85c9-0e90fcf585ee","dept":"43","reg":"ara"}},{"type":"Feature","geometry":{"type":"Point","coordinates":[4.31873,45.18693]},"properties":{"nom":"Hôtel les Platanes - Maison Vachon","sub":"HotelRestaurant","cm":"43290#Montfaucon-en-Velay","web":null,"uri":"https://data.datatourisme.fr/13/0e3cf177-5703-3564-9f31-16680a811375","dept":"43","reg":"ara"}},{"type":"Feature","geometry":{"type":"Point","coordinates":[4.40522,45.23222]},"properties":{"nom":"Gîtes de groupe la Forestière","sub":"CollectiveAccommodation","cm":"43220#Riotord","web":"http://gite-laforestiere.fr/","uri":"https://data.datatourisme.fr/13/9592d19e-0ddc-3906-9645-720e924d33d9","dept":"43","reg":"ara"}},{"type":"Feature","geometry":{"type":"Point","coordinates":[4.2537,45.05476]},"properties":{"nom":"Camping de Surnette","sub":"Camping","cm":"43520#Mazet-Saint-Voy","web":"https://campingdesurnette.net/","uri":"https://data.datatourisme.fr/13/55615e8c-a3d3-3978-a245-765dbaefa1ac","dept":"43","reg":"ara"}},{"type":"Feature","geometry":{"type":"Point","coordinates":[4.29843,45.05394]},"properties":{"nom":"Camping les Hirondelles","sub":"Camping","cm":"43400#Le Chambon-sur-Lignon","web":"http://www.campingleshirondelles.fr/","uri":"https://data.datatourisme.fr/13/5651cff6-dc21-3ab9-a4ca-b069a57f6ea5","dept":"43","reg":"ara"}},{"type":"Feature","geometry":{"type":"Point","coordinates":[3.89858,44.97639]},"properties":{"nom":"Domaine de la Planche de Mélussac","sub":"Rental","cm":"43370#Cussac-sur-Loire","web":null,"uri":"https://data.datatourisme.fr/13/7282ba7d-92f7-3fbc-8d9f-9114b6b25081","dept":"43","reg":"ara"}},{"type":"Feature","geometry":{"type":"Point","coordinates":[3.90369,44.99361]},"properties":{"nom":"Camping de Coubon","sub":"Camping","cm":"43700#Coubon","web":"https://www.lacabale.fr/","uri":"https://data.datatourisme.fr/13/741723bf-d133-3255-8773-67c86f41f203","dept":"43","reg":"ara"}},{"type":"Feature","geometry":{"type":"Point","coordinates":[3.88619,45.04581]},"properties":{"nom":"Accueil Saint-Georges- Association Grand Séminaire -","sub":"CollectiveAccommodation","cm":"43000#Le Puy-en-Velay","web":"https://www.cathedraledupuy.org/grand-seminaire-saint-georges-au-coeur-du-puy","uri":"https://data.datatourisme.fr/13/7a19cddd-042f-3b16-9e21-e5b11385d50d","dept":"43","reg":"ara"}},{"type":"Feature","geometry":{"type":"Point","coordinates":[3.90905,45.18662]},"properties":{"nom":"Gite d'Etape Communal","sub":"CollectiveAccommodation","cm":"43800#Vorey","web":"http://www.vorey.fr/","uri":"https://data.datatourisme.fr/13/7a6aa5af-c762-3b65-b77d-c4274a7b489a","dept":"43","reg":"ara"}},{"type":"Feature","geometry":{"type":"Point","coordinates":[4.12527,45.13232]},"properties":{"nom":"Camping municipal de Choumouroux","sub":"Camping","cm":"43200#Yssingeaux","web":null,"uri":"https://data.datatourisme.fr/13/8b808cfc-c047-3784-8f3d-2f8b7689c389","dept":"43","reg":"ara"}},{"type":"Feature","geometry":{"type":"Point","coordinates":[4.40233,45.22869]},"properties":{"nom":"Location VAE: RASL","sub":"Rental","cm":"43220#Riotord","web":null,"uri":"https://data.datatourisme.fr/13/f2576e5c-4300-37fc-a467-94aa295e22ac","dept":"43","reg":"ara"}},{"type":"Feature","geometry":{"type":"Point","coordinates":[3.98204,45.20633]},"properties":{"nom":"Chalet les Pialloux","sub":"HolidayResort","cm":"43810#Roche-en-Régnier","web":"http://chaletlespialloux.free.fr/","uri":"https://data.datatourisme.fr/13/c19ece3f-3f09-3299-ab13-951eb15689f4","dept":"43","reg":"ara"}},{"type":"Feature","geometry":{"type":"Point","coordinates":[3.81974,45.13841]},"properties":{"nom":"Halle d'exposition","sub":"Rental","cm":"43350#Saint-Paulien","web":"http://www.saint-paulien.fr/","uri":"https://data.datatourisme.fr/13/96f21d8d-3b92-3a9f-ab6d-436160f59c77","dept":"43","reg":"ara"}},{"type":"Feature","geometry":{"type":"Point","coordinates":[3.8203,45.13799]},"properties":{"nom":"Salle multi-activités (polyvalente)","sub":"Rental","cm":"43350#Saint-Paulien","web":"http://www.saint-paulien.fr/","uri":"https://data.datatourisme.fr/13/174b4aa7-a3b4-301b-a362-2d513a0dc296","dept":"43","reg":"ara"}},{"type":"Feature","geometry":{"type":"Point","coordinates":[3.70394,45.33335]},"properties":{"nom":"Camping municipal \"les Prades\"","sub":"Camping","cm":"43160#La Chaise-Dieu","web":"https://www.lachaisedieu.fr/camping-municipal","uri":"https://data.datatourisme.fr/13/0dfcc740-c9ea-3a69-9488-b1737e78766b","dept":"43","reg":"ara"}},{"type":"Feature","geometry":{"type":"Point","coordinates":[3.85778,44.99986]},"properties":{"nom":"Gîte de groupe La Chaponie","sub":"CollectiveAccommodation","cm":"43370#Saint-Christophe-sur-Dolaison","web":"http://www.gitelachaponie.com/","uri":"https://data.datatourisme.fr/13/0e89d93d-6b48-3aa7-91e4-b4477cb16b6e","dept":"43","reg":"ara"}},{"type":"Feature","geometry":{"type":"Point","coordinates":[3.88725,45.29795]},"properties":{"nom":"Petit Gite du Bon Accueil","sub":"CollectiveAccommodation","cm":"43500#Saint-Georges-Lagricol","web":"https://www.gitedubonaccueil.fr/","uri":"https://data.datatourisme.fr/13/b0904c33-b2df-3038-a6e1-751de1d216e0","dept":"43","reg":"ara"}},{"type":"Feature","geometry":{"type":"Point","coordinates":[4.11262,45.30549]},"properties":{"nom":"Centre d'Accueil de Vissaguet","sub":"CollectiveAccommodation","cm":"43210#Bas-en-Basset","web":"http://www.basenbasset.fr/fr/mairie/maison-de-vissaguet.html","uri":"https://data.datatourisme.fr/13/5bf01763-5cd3-3273-8393-a0706ed385a9","dept":"43","reg":"ara"}},{"type":"Feature","geometry":{"type":"Point","coordinates":[4.13707,45.25838]},"properties":{"nom":"Hôtel- Restaurant L'Air du Temps","sub":"HotelRestaurant","cm":"43590#Beauzac","web":"http://airdutemps-restaurant.fr/","uri":"https://data.datatourisme.fr/13/80143af6-abf2-3839-8cad-85945ffe7bc7","dept":"43","reg":"ara"}},{"type":"Feature","geometry":{"type":"Point","coordinates":[4.21998,45.15449]},"properties":{"nom":"Location Optimist/Dériveur double - Lavalette","sub":"Rental","cm":"43200#Lapte","web":"https://www.basedeloisirsdelavalette.fr/","uri":"https://data.datatourisme.fr/13/4c118694-3332-37ca-ab36-7fb38d6c952e","dept":"43","reg":"ara"}},{"type":"Feature","geometry":{"type":"Point","coordinates":[4.21998,45.15449]},"properties":{"nom":"Location planche à voile - Lavalette","sub":"Rental","cm":"43200#Lapte","web":"https://www.basedeloisirsdelavalette.fr/","uri":"https://data.datatourisme.fr/13/c7d4cd79-49be-3d2b-be10-c63b1a390e2b","dept":"43","reg":"ara"}},{"type":"Feature","geometry":{"type":"Point","coordinates":[4.21998,45.15449]},"properties":{"nom":"Location Catamaran - Lavalette","sub":"Rental","cm":"43200#Lapte","web":"https://www.basedeloisirsdelavalette.fr/","uri":"https://data.datatourisme.fr/13/97fb0ee5-f74e-379b-8f64-70ca2fdb5f99","dept":"43","reg":"ara"}},{"type":"Feature","geometry":{"type":"Point","coordinates":[4.21998,45.15449]},"properties":{"nom":"Location de pédalos - Lavalette","sub":"Rental","cm":"43200#Lapte","web":"https://www.basedeloisirsdelavalette.fr/","uri":"https://data.datatourisme.fr/13/702ae7d7-5e6c-30f3-9e2c-6ddfcbed37b8","dept":"43","reg":"ara"}},{"type":"Feature","geometry":{"type":"Point","coordinates":[4.21998,45.15449]},"properties":{"nom":"Location de canoë-kayak - Lavalette","sub":"Rental","cm":"43200#Lapte","web":"https://www.basedeloisirsdelavalette.fr/","uri":"https://data.datatourisme.fr/13/13f50221-a08e-3a32-902e-da86c61e33c3","dept":"43","reg":"ara"}},{"type":"Feature","geometry":{"type":"Point","coordinates":[4.21998,45.15449]},"properties":{"nom":"Location de paddles - Lavalette","sub":"Rental","cm":"43200#Lapte","web":"https://www.basedeloisirsdelavalette.fr/","uri":"https://data.datatourisme.fr/13/e461414b-7ca4-3eb2-8f7b-d8ce65fab174","dept":"43","reg":"ara"}},{"type":"Feature","geometry":{"type":"Point","coordinates":[4.21998,45.15449]},"properties":{"nom":"Location bateaux électriques - Lavalette","sub":"Rental","cm":"43200#Lapte","web":"https://www.basedeloisirsdelavalette.fr/","uri":"https://data.datatourisme.fr/13/9df92eb6-b755-3266-8be4-ccb15bced92c","dept":"43","reg":"ara"}},{"type":"Feature","geometry":{"type":"Point","coordinates":[4.09599,44.99567]},"properties":{"nom":"Gite Auberge L'Herminette","sub":"CollectiveAccommodation","cm":"43550#Saint-Front","web":"http://www.auberge-lherminette.com/","uri":"https://data.datatourisme.fr/13/de664767-6f69-3c33-9689-1bd0d0727be7","dept":"43","reg":"ara"}},{"type":"Feature","geometry":{"type":"Point","coordinates":[3.96393,45.35471]},"properties":{"nom":"Hameau des Gîtes de Bel Horizon - Domaine de Chalencon","sub":"CollectiveAccommodation","cm":"43500#Saint-Pal-de-Chalencon","web":"https://www.vacances-chalets-auvergne.com/<>https://www.booking.com/hotel/fr/le-domaine-de-chalencon.fr.html?chal_t=1767865342177&force_referer=https%3A%2F%2Fwww.google.com%2F","uri":"https://data.datatourisme.fr/13/e2a4253c-9cab-328a-b810-a9deae289f39","dept":"43","reg":"ara"}},{"type":"Feature","geometry":{"type":"Point","coordinates":[3.88824,45.04292]},"properties":{"nom":"Ibis Styles","sub":"Rental","cm":"43000#Le Puy-en-Velay","web":null,"uri":"https://data.datatourisme.fr/13/8cc379c0-589f-353b-ae9b-ecf4f04ae4ce","dept":"43","reg":"ara"}},{"type":"Feature","geometry":{"type":"Point","coordinates":[4.15417,44.90429]},"properties":{"nom":"Le Chalet d'Ambre","sub":"CollectiveAccommodation","cm":"43150#Les Estables","web":"http://www.chalet-ambre-estables.com/","uri":"https://data.datatourisme.fr/13/1d2799ae-45cf-3b7b-9f97-7a8c7709c605","dept":"43","reg":"ara"}},{"type":"Feature","geometry":{"type":"Point","coordinates":[4.1224,45.02832]},"properties":{"nom":"Auberge du Meygal","sub":"HotelRestaurant","cm":"43260#Champclause","web":null,"uri":"https://data.datatourisme.fr/13/b497e2b4-3859-3f0a-b681-71d134c7bb03","dept":"43","reg":"ara"}},{"type":"Feature","geometry":{"type":"Point","coordinates":[3.80294,45.16432]},"properties":{"nom":"Gîte La bergerie","sub":"CollectiveAccommodation","cm":"43350#Saint-Geneys-près-Saint-Paulien","web":null,"uri":"https://data.datatourisme.fr/13/bb9cf1ac-0f01-3c10-816c-24f7b39e4641","dept":"43","reg":"ara"}},{"type":"Feature","geometry":{"type":"Point","coordinates":[3.16983,45.31886]},"properties":{"nom":"Gîte d'étape communal","sub":"CollectiveAccommodation","cm":"43450#Blesle","web":"http://www.blesle.fr/","uri":"https://data.datatourisme.fr/13/f5baefee-5422-3a19-b8ce-16d73195c1e6","dept":"43","reg":"ara"}},{"type":"Feature","geometry":{"type":"Point","coordinates":[3.97543,45.32397]},"properties":{"nom":"Hameau des Gîtes l'Orée du Pichier - Domaine de Chalencon","sub":"CollectiveAccommodation","cm":"43500#Boisset","web":"https://www.vacances-chalets-auvergne.com/<>https://www.booking.com/hotel/fr/le-domaine-de-chalencon.fr.html?label=gen173nr-1FCAsoTUIXbGUtZG9tYWluZS1kZS1jaGFsZW5jb25IDVgEaE2IAQGYAQ3CAQNhYm7IAQzYAQHoAQH4AQOSAgF5qAIE;sid=e7eeb1264d9138be96fef806958ae8b3;dist=0&keep_landing=1&sb_price_type=total&type=total&","uri":"https://data.datatourisme.fr/13/771a866f-563f-344e-99ab-7bf48e811b27","dept":"43","reg":"ara"}},{"type":"Feature","geometry":{"type":"Point","coordinates":[4.34982,45.21137]},"properties":{"nom":"Gîte la Loko","sub":"CollectiveAccommodation","cm":"43220#Dunières","web":"https://www.lalokogiteresto.fr/","uri":"https://data.datatourisme.fr/13/f08e2fb6-11b7-3e0b-8905-f9e410d99e5b","dept":"43","reg":"ara"}},{"type":"Feature","geometry":{"type":"Point","coordinates":[4.45495,45.22197]},"properties":{"nom":"Gîte Le Combalou","sub":"CollectiveAccommodation","cm":"43220#Riotord","web":"https://gitecombalou.fr/","uri":"https://data.datatourisme.fr/13/f2b0d1ba-d8a0-394d-a4c9-61bde4ed5965","dept":"43","reg":"ara"}},{"type":"Feature","geometry":{"type":"Point","coordinates":[4.22612,45.08023]},"properties":{"nom":"Location vélos tout terrain à assistance électrique","sub":"Rental","cm":"43200#Saint-Jeures","web":"http://rando-quad3d.com/","uri":"https://data.datatourisme.fr/13/05a4ec31-8073-3617-9708-9df09369625d","dept":"43","reg":"ara"}},{"type":"Feature","geometry":{"type":"Point","coordinates":[3.9131,45.305]},"properties":{"nom":"Gîte Vival","sub":"Hostel","cm":"43500#Saint-Julien-d'Ance","web":"http://vacancesavecvival.free.fr/","uri":"https://data.datatourisme.fr/13/c1afde29-ee68-3708-9bda-53bcdae6e5da","dept":"43","reg":"ara"}},{"type":"Feature","geometry":{"type":"Point","coordinates":[4.06069,45.03642]},"properties":{"nom":"Gite d'Etape Municipal","sub":"CollectiveAccommodation","cm":"43260#Saint-Julien-Chapteuil","web":"https://www.saintjulienchapteuil.fr/","uri":"https://data.datatourisme.fr/13/9c58a99f-cd03-3c79-be8c-7facad5a47cf","dept":"43","reg":"ara"}},{"type":"Feature","geometry":{"type":"Point","coordinates":[3.96938,45.27275]},"properties":{"nom":"Gite relais de la Marianne","sub":"CollectiveAccommodation","cm":"43130#Saint-André-de-Chalencon","web":null,"uri":"https://data.datatourisme.fr/13/50787a62-3302-3eb3-8ab9-fc335e3112ac","dept":"43","reg":"ara"}},{"type":"Feature","geometry":{"type":"Point","coordinates":[4.34322,45.21349]},"properties":{"nom":"Hôtel la Tour","sub":"HotelRestaurant","cm":"43220#Dunières","web":"http://www.hotelrestaurantlatour.com/","uri":"https://data.datatourisme.fr/13/fbe46075-d7b7-342a-91fb-9d22957681d8","dept":"43","reg":"ara"}},{"type":"Feature","geometry":{"type":"Point","coordinates":[3.9085,45.18421]},"properties":{"nom":"Hôtel Restaurant les Voyageurs","sub":"HotelRestaurant","cm":"43800#Vorey","web":null,"uri":"https://data.datatourisme.fr/13/d5d00c89-bf34-3d4e-bece-e6c57d9a4dac","dept":"43","reg":"ara"}},{"type":"Feature","geometry":{"type":"Point","coordinates":[3.79932,45.07402]},"properties":{"nom":"Hôtel L'Estampille","sub":"HotelRestaurant","cm":"43320#Saint-Vidal","web":"https://www.lestampille-saintvidal.fr/","uri":"https://data.datatourisme.fr/13/d65ae4fe-9953-388f-aeac-9675b043dbbb","dept":"43","reg":"ara"}},{"type":"Feature","geometry":{"type":"Point","coordinates":[3.6229,44.91573]},"properties":{"nom":"Gite d'étape communal","sub":"CollectiveAccommodation","cm":"43580#Saint-Préjet-d'Allier","web":"http://www.saintprejetdallier.com/?page_id=22&lang=fr","uri":"https://data.datatourisme.fr/13/d79ae036-2167-3e2c-9c7e-5716577fabfc","dept":"43","reg":"ara"}},{"type":"Feature","geometry":{"type":"Point","coordinates":[3.64332,44.96804]},"properties":{"nom":"La Tsabone","sub":"CollectiveAccommodation","cm":"43580#Monistrol-d'Allier","web":"http://www.latsabone.fr/","uri":"https://data.datatourisme.fr/13/d8384276-f7ce-3a5b-920b-6ca9b5d2892f","dept":"43","reg":"ara"}},{"type":"Feature","geometry":{"type":"Point","coordinates":[4.34161,45.21755]},"properties":{"nom":"Cinéma le Maubourg","sub":"Rental","cm":"43220#Dunières","web":"http://www.allocine.fr/seance/salle_gen_csalle=W0517.html<>https://cinema-le-maubourg.wixsite.com/lesite","uri":"https://data.datatourisme.fr/13/e4ed196f-3357-3a68-9a98-8f15ae549633","dept":"43","reg":"ara"}},{"type":"Feature","geometry":{"type":"Point","coordinates":[4.12358,45.1423]},"properties":{"nom":"Gîte d'étape - Le Patio","sub":"CollectiveAccommodation","cm":"43200#Yssingeaux","web":"http://www.le-patio.fr/","uri":"https://data.datatourisme.fr/13/002be441-df7a-3a75-b865-643016ec5d5f","dept":"43","reg":"ara"}},{"type":"Feature","geometry":{"type":"Point","coordinates":[3.70414,45.33747]},"properties":{"nom":"Village de la Tour","sub":"CollectiveAccommodation","cm":"43160#La Chaise-Dieu","web":"http://www.giteschaisedieu.com/","uri":"https://data.datatourisme.fr/13/fdd0b778-3c29-38ab-a994-79943c39e099","dept":"43","reg":"ara"}},{"type":"Feature","geometry":{"type":"Point","coordinates":[4.1544,45.1378]},"properties":{"nom":"Location Kota Grill du Neyrial","sub":"Rental","cm":"43200#Yssingeaux","web":"http://www.leneyrial.com/","uri":"https://data.datatourisme.fr/13/5d1835a0-9b3f-30ee-8fb3-deda9a08dd8e","dept":"43","reg":"ara"}},{"type":"Feature","geometry":{"type":"Point","coordinates":[4.0393,45.15216]},"properties":{"nom":"Gîte d'étape","sub":"CollectiveAccommodation","cm":"43200#Saint-Julien-du-Pinet","web":null,"uri":"https://data.datatourisme.fr/13/ae91bbb1-7e2f-39c0-9429-619588d25ddb","dept":"43","reg":"ara"}},{"type":"Feature","geometry":{"type":"Point","coordinates":[3.64434,44.96866]},"properties":{"nom":"Le Repos du Pèlerin","sub":"CollectiveAccommodation","cm":"43580#Monistrol-d'Allier","web":"https://lereposdupelerin.com/","uri":"https://data.datatourisme.fr/13/b6f38750-7ad0-3fe7-82e2-ef04f614bca8","dept":"43","reg":"ara"}},{"type":"Feature","geometry":{"type":"Point","coordinates":[3.74529,44.98702]},"properties":{"nom":"Gîte La 1ère Étape","sub":"CollectiveAccommodation","cm":"43370#Bains","web":"http://www.gite-lapremiereetape.com/","uri":"https://data.datatourisme.fr/13/ce2e4dee-7894-3872-89e9-7d53c9ec5119","dept":"43","reg":"ara"}},{"type":"Feature","geometry":{"type":"Point","coordinates":[4.35496,45.28911]},"properties":{"nom":"Gîte Mimi des Chaizes","sub":"CollectiveAccommodation","cm":"43620#Saint-Romain-Lachalm","web":"https://grandgitehauteloire.fr/","uri":"https://data.datatourisme.fr/13/60260814-89f0-3f97-b2d5-da7a45f4f35b","dept":"43","reg":"ara"}},{"type":"Feature","geometry":{"type":"Point","coordinates":[3.8784,45.10474]},"properties":{"nom":"Au bon gré d'Hugoline","sub":"Rental","cm":"43350#Blanzac","web":null,"uri":"https://data.datatourisme.fr/13/6a123001-79af-39b1-aed3-305a297b1686","dept":"43","reg":"ara"}},{"type":"Feature","geometry":{"type":"Point","coordinates":[3.69637,45.31628]},"properties":{"nom":"Hôtel restaurant \"Monastère et Terminus\"","sub":"HotelRestaurant","cm":"43160#La Chaise-Dieu","web":null,"uri":"https://data.datatourisme.fr/13/7067f09b-8f62-32fe-ac42-778546882183","dept":"43","reg":"ara"}},{"type":"Feature","geometry":{"type":"Point","coordinates":[3.81133,44.99438]},"properties":{"nom":"Maison vieille 43","sub":"CollectiveAccommodation","cm":"43370#Saint-Christophe-sur-Dolaison","web":"https://maisonvieille43.com/","uri":"https://data.datatourisme.fr/13/6531a54e-b3fa-3b0f-8364-aaf9a49ed388","dept":"43","reg":"ara"}},{"type":"Feature","geometry":{"type":"Point","coordinates":[3.99373,44.94051]},"properties":{"nom":"Chez la Voisine","sub":"CollectiveAccommodation","cm":"43150#Le Monastier-sur-Gazeille","web":null,"uri":"https://data.datatourisme.fr/13/94c9bf2e-d6a2-3589-9e5c-3f7274c91267","dept":"43","reg":"ara"}},{"type":"Feature","geometry":{"type":"Point","coordinates":[3.87763,45.02966]},"properties":{"nom":"Palais des Congrès et des Spectacles","sub":"Rental","cm":"43750#Vals-près-le-Puy","web":null,"uri":"https://data.datatourisme.fr/13/d4f06c07-0721-340d-8e7a-6c7f6360ccb5","dept":"43","reg":"ara"}},{"type":"Feature","geometry":{"type":"Point","coordinates":[3.71118,45.27435]},"properties":{"nom":"Camping \"La Tanière des Loups\"","sub":"Camping","cm":"43160#Sembadel","web":null,"uri":"https://data.datatourisme.fr/13/eede83c9-4c9f-3030-8a55-e5cf85b6643e","dept":"43","reg":"ara"}},{"type":"Feature","geometry":{"type":"Point","coordinates":[3.73099,45.33727]},"properties":{"nom":"Gîte des 3 étangs","sub":"CollectiveAccommodation","cm":"43160#Malvières","web":"https://www.gitedes3etangs.com/","uri":"https://data.datatourisme.fr/13/c053c8a0-9320-3aae-8d5f-ab27834b2442","dept":"43","reg":"ara"}},{"type":"Feature","geometry":{"type":"Point","coordinates":[4.19314,45.36327]},"properties":{"nom":"Hôtel Les Cèdres Bleus","sub":"HotelRestaurant","cm":"43110#Aurec-sur-Loire","web":"http://www.lescedresbleus.com/","uri":"https://data.datatourisme.fr/13/8c5d569e-caaf-34d5-9b56-85f62af3e847","dept":"43","reg":"ara"}},{"type":"Feature","geometry":{"type":"Point","coordinates":[4.21138,44.98466]},"properties":{"nom":"Gite d'Etape Bien Etre Aux Chenes","sub":"CollectiveAccommodation","cm":"43430#Fay-sur-Lignon","web":"http://www.bienetreauxchenes.com/","uri":"https://data.datatourisme.fr/13/6173aa58-62bd-3576-84d8-f8a5f4f6267d","dept":"43","reg":"ara"}},{"type":"Feature","geometry":{"type":"Point","coordinates":[3.88712,45.04534]},"properties":{"nom":"Auberge de Jeunesse Centre Pierre Cardinal","sub":"Hostel","cm":"43000#Le Puy-en-Velay","web":"http://www.lepuyenvelay.fr/","uri":"https://data.datatourisme.fr/13/d384cb02-2ea7-3165-b3c7-80e2e87a6eeb","dept":"43","reg":"ara"}},{"type":"Feature","geometry":{"type":"Point","coordinates":[4.02286,45.1977]},"properties":{"nom":"Centre du Cros","sub":"Hostel","cm":"43130#Retournac","web":"https://www.djuringa-juniors.fr/centre-du-cros.html","uri":"https://data.datatourisme.fr/13/97325949-281f-37e4-984c-ee34bdf3d6e4","dept":"43","reg":"ara"}},{"type":"Feature","geometry":{"type":"Point","coordinates":[4.29462,45.02034]},"properties":{"nom":"Centre Charles Marchisio","sub":"Hostel","cm":"43400#Le Chambon-sur-Lignon","web":"http://www.centremarchisio.com/","uri":"https://data.datatourisme.fr/13/025d5a26-ba2d-353a-9296-eea932856226","dept":"43","reg":"ara"}},{"type":"Feature","geometry":{"type":"Point","coordinates":[4.31503,45.15348]},"properties":{"nom":"Camping à la ferme \"ferme de Vovady\"","sub":"CampingAndCaravanning","cm":"43290#Montregard","web":"https://www.fermedevovady.fr/","uri":"https://data.datatourisme.fr/13/99763451-5964-3a88-b299-fb09540a1692","dept":"43","reg":"ara"}},{"type":"Feature","geometry":{"type":"Point","coordinates":[3.99753,45.20864]},"properties":{"nom":"Cosycamp'","sub":"HolidayResort","cm":"43800#Chamalières-sur-Loire","web":"http://www.cosycamp.com/","uri":"https://data.datatourisme.fr/13/b5aca4b9-16a2-3346-94b5-4deca80f7d9b","dept":"43","reg":"ara"}},{"type":"Feature","geometry":{"type":"Point","coordinates":[4.29294,45.1145]},"properties":{"nom":"Salle de dégustation","sub":"Rental","cm":"43190#Tence","web":null,"uri":"https://data.datatourisme.fr/13/f1a2d468-4605-355a-81f4-2c053c812293","dept":"43","reg":"ara"}},{"type":"Feature","geometry":{"type":"Point","coordinates":[3.39376,45.29936]},"properties":{"nom":"Cycles Oléon Brico Pro","sub":"Rental","cm":"43100#Brioude","web":"https://www.oleonmotoculture.fr/","uri":"https://data.datatourisme.fr/13/065dabcc-de01-3119-95a3-c0487b096b6e","dept":"43","reg":"ara"}},{"type":"Feature","geometry":{"type":"Point","coordinates":[4.14367,44.97793]},"properties":{"nom":"Gite les Mille Fleurs","sub":"CollectiveAccommodation","cm":"43550#Saint-Front","web":"http://gitelesmillefleurs.com/","uri":"https://data.datatourisme.fr/13/3944f5b1-ca10-3aab-abd5-6e0348a9457a","dept":"43","reg":"ara"}},{"type":"Feature","geometry":{"type":"Point","coordinates":[4.0639,45.03865]},"properties":{"nom":"Camping la Croix Blanche","sub":"Camping","cm":"43260#Saint-Julien-Chapteuil","web":"https://saintjulienchapteuil.fr/camping-municipal-la-croix-blanche-saint-julien-chapteuil/","uri":"https://data.datatourisme.fr/13/c5e0e910-5972-3606-b709-538ce022407b","dept":"43","reg":"ara"}},{"type":"Feature","geometry":{"type":"Point","coordinates":[3.3685,45.327]},"properties":{"nom":"Intersport","sub":"Rental","cm":"43100#Brioude","web":null,"uri":"https://data.datatourisme.fr/13/1bd95bdd-99dd-32be-80ae-4694fa794183","dept":"43","reg":"ara"}},{"type":"Feature","geometry":{"type":"Point","coordinates":[4.21791,45.15259]},"properties":{"nom":"Gîte de Lavalette","sub":"CollectiveAccommodation","cm":"43200#Lapte","web":"https://legitedelavalette.fr/","uri":"https://data.datatourisme.fr/13/08b8476f-ee53-3757-89f6-0e9289564886","dept":"43","reg":"ara"}},{"type":"Feature","geometry":{"type":"Point","coordinates":[4.1711,45.29085]},"properties":{"nom":"Le Corsy","sub":"HotelRestaurant","cm":"43120#Monistrol-sur-Loire","web":null,"uri":"https://data.datatourisme.fr/13/5c0ebd50-4379-30ab-9f33-88facfd72874","dept":"43","reg":"ara"}},{"type":"Feature","geometry":{"type":"Point","coordinates":[3.94641,45.1253]},"properties":{"nom":"la Galoche","sub":"HotelRestaurant","cm":"43800#Beaulieu","web":"http://www.restaurant-gites-lagaloche.fr/","uri":"https://data.datatourisme.fr/13/f974822b-80da-3c10-9b3b-593257782675","dept":"43","reg":"ara"}},{"type":"Feature","geometry":{"type":"Point","coordinates":[3.94641,45.1253]},"properties":{"nom":"Le gîte du pont blanc","sub":"CollectiveAccommodation","cm":"43800#Beaulieu","web":"http://www.restaurant-gites-lagaloche.fr/","uri":"https://data.datatourisme.fr/13/5a37edce-df6f-37e7-9831-0012068e0dd8","dept":"43","reg":"ara"}},{"type":"Feature","geometry":{"type":"Point","coordinates":[3.91625,45.18738]},"properties":{"nom":"Olydea Vorey-sur-Arzon","sub":"CollectiveAccommodation","cm":"43800#Vorey","web":"https://olydeavoreysurarzon.thais-hotel.com/direct-booking/calendar","uri":"https://data.datatourisme.fr/13/337bbdd4-44c3-33c1-980a-2328ea8b4192","dept":"43","reg":"ara"}},{"type":"Feature","geometry":{"type":"Point","coordinates":[3.91451,45.03242]},"properties":{"nom":"Le parc du Château de Mons","sub":"Rental","cm":"43000#Le Puy-en-Velay","web":"http://www.leparcduchateaudemons.com/","uri":"https://data.datatourisme.fr/13/d4833536-3871-3788-8b24-2e0449ab8491","dept":"43","reg":"ara"}},{"type":"Feature","geometry":{"type":"Point","coordinates":[3.93511,45.04423]},"properties":{"nom":"Domaine du Breuil de Doue","sub":"Rental","cm":"43700#Brives-Charensac","web":null,"uri":"https://data.datatourisme.fr/13/c6f608b0-8a97-30f1-b1c8-561177b3b29d","dept":"43","reg":"ara"}},{"type":"Feature","geometry":{"type":"Point","coordinates":[3.88111,45.04518]},"properties":{"nom":"Salle Jeanne d'Arc","sub":"Rental","cm":"43000#Le Puy-en-Velay","web":null,"uri":"https://data.datatourisme.fr/13/370738d8-88e3-372d-bd6f-2d95f6708d28","dept":"43","reg":"ara"}},{"type":"Feature","geometry":{"type":"Point","coordinates":[3.88374,44.88699]},"properties":{"nom":"Gîte le Stevenson à Ussel - Le Brignon","sub":"CollectiveAccommodation","cm":"43370#Le Brignon","web":"http://gite-stevenson.com/","uri":"https://data.datatourisme.fr/13/d38d9299-5e32-3e6e-8be6-7dd49dc7f91b","dept":"43","reg":"ara"}},{"type":"Feature","geometry":{"type":"Point","coordinates":[3.37079,45.31921]},"properties":{"nom":"Locaoutil","sub":"Rental","cm":"43100#Cohade","web":"http://www.locaoutil.fr/","uri":"https://data.datatourisme.fr/13/e6d8ec95-068f-3d60-847f-cff7fa65a202","dept":"43","reg":"ara"}},{"type":"Feature","geometry":{"type":"Point","coordinates":[3.99687,44.93465]},"properties":{"nom":"Les Gens dorment","sub":"CollectiveAccommodation","cm":"43150#Le Monastier-sur-Gazeille","web":"https://www.lesgensdorment.com/","uri":"https://data.datatourisme.fr/13/458b105b-4500-3395-b122-d0e57728277c","dept":"43","reg":"ara"}},{"type":"Feature","geometry":{"type":"Point","coordinates":[4.29688,45.10815]},"properties":{"nom":"Rural Master : location de vélo électrique","sub":"Rental","cm":"43190#Tence","web":"http://www.ruralmaster.fr/tence","uri":"https://data.datatourisme.fr/13/89a52a28-14ad-3d3a-86cc-85af3e9d27af","dept":"43","reg":"ara"}},{"type":"Feature","geometry":{"type":"Point","coordinates":[4.05788,45.09599]},"properties":{"nom":"Alternatif Shop","sub":"Rental","cm":"43200#Le Pertuis","web":"https://alternatifshop.com/index.php","uri":"https://data.datatourisme.fr/13/1e8403f6-b3dc-3c09-8412-527f6784304a","dept":"43","reg":"ara"}},{"type":"Feature","geometry":{"type":"Point","coordinates":[3.37342,45.31369]},"properties":{"nom":"Médic Auvergne","sub":"Rental","cm":"43100#Brioude","web":null,"uri":"https://data.datatourisme.fr/13/bd5084c0-b415-306e-9f81-dc8c8c1bc8a7","dept":"43","reg":"ara"}},{"type":"Feature","geometry":{"type":"Point","coordinates":[3.65578,45.29283]},"properties":{"nom":"Altitude 999: retraites et yoga en pleine nature","sub":"Rental","cm":"43160#Connangles","web":"https://www.altitude999yogaenauvergne.fr/","uri":"https://data.datatourisme.fr/13/5f0bb228-33f8-32ac-8faf-d8d0faa82510","dept":"43","reg":"ara"}},{"type":"Feature","geometry":{"type":"Point","coordinates":[4.35097,45.03957]},"properties":{"nom":"Teen Ranch Hermon","sub":"Hostel","cm":"43400#Le Chambon-sur-Lignon","web":"http://www.teenranch.fr/","uri":"https://data.datatourisme.fr/13/c6119d69-df42-3188-9c42-7a94391ef383","dept":"43","reg":"ara"}},{"type":"Feature","geometry":{"type":"Point","coordinates":[4.4358,45.14234]},"properties":{"nom":"Les Herbes de la Saint-Jean","sub":"CollectiveAccommodation","cm":"43290#Saint-Bonnet-le-Froid","web":"https://lesherbesdelasaintjean.fr/","uri":"https://data.datatourisme.fr/13/c86d8176-5c57-30b9-ba52-f2be18e57876","dept":"43","reg":"ara"}},{"type":"Feature","geometry":{"type":"Point","coordinates":[3.67909,44.99036]},"properties":{"nom":"Un escargot dans sa Coquille","sub":"CollectiveAccommodation","cm":"43580#Saint-Privat-d'Allier","web":"https://www.unescargotdanssacoquille.com/","uri":"https://data.datatourisme.fr/13/f0c5ea0d-3e52-3ded-a198-61f1673dccaa","dept":"43","reg":"ara"}},{"type":"Feature","geometry":{"type":"Point","coordinates":[3.66483,45.34917]},"properties":{"nom":"Les Gîtes du Bois de Chelles","sub":"HolidayResort","cm":"43160#La Chapelle-Geneste","web":"https://www.boisdechelles.com/","uri":"https://data.datatourisme.fr/13/dce5a06a-7488-3aa9-ae15-72baacce240f","dept":"43","reg":"ara"}},{"type":"Feature","geometry":{"type":"Point","coordinates":[3.88217,45.04468]},"properties":{"nom":"Gîte Le Nid du Merle","sub":"CollectiveAccommodation","cm":"43000#Le Puy-en-Velay","web":null,"uri":"https://data.datatourisme.fr/13/42d8acf3-df46-36bf-91cc-b7f667472c81","dept":"43","reg":"ara"}},{"type":"Feature","geometry":{"type":"Point","coordinates":[4.25037,45.18718]},"properties":{"nom":"Gîte L'oeil de Vert","sub":"CollectiveAccommodation","cm":"43200#Lapte","web":"https://www.loeildevert.fr/","uri":"https://data.datatourisme.fr/13/74fc351d-ec46-34cd-8ef2-e178259ba66f","dept":"43","reg":"ara"}},{"type":"Feature","geometry":{"type":"Point","coordinates":[3.38097,45.29505]},"properties":{"nom":"Miléade","sub":"CollectiveAccommodation","cm":"43100#Brioude","web":null,"uri":"https://data.datatourisme.fr/13/a5faa185-02e3-3890-a776-5359847964bb","dept":"43","reg":"ara"}},{"type":"Feature","geometry":{"type":"Point","coordinates":[3.91108,45.18476]},"properties":{"nom":"Location de VTT - Ecole de Pagaie du Velay","sub":"Rental","cm":"43800#Vorey","web":"http://www.velay-eaux-vives.fr/","uri":"https://data.datatourisme.fr/13/5d3ee343-bbc6-3b60-8965-efc89883f217","dept":"43","reg":"ara"}},{"type":"Feature","geometry":{"type":"Point","coordinates":[4.04159,45.19827]},"properties":{"nom":"Camping - Les Ribbes","sub":"Camping","cm":"43130#Retournac","web":null,"uri":"https://data.datatourisme.fr/13/b899bcfd-b5ef-3dbe-84a5-c17e73e04723","dept":"43","reg":"ara"}},{"type":"Feature","geometry":{"type":"Point","coordinates":[3.6713,45.31953]},"properties":{"nom":"Gîte Les Estives","sub":"CollectiveAccommodation","cm":"43160#La Chaise-Dieu","web":"https://www.grandsgites.com/gite-43-des-estives-5365.htm","uri":"https://data.datatourisme.fr/13/786c21fb-4fcf-3e20-916d-d7bca9c41130","dept":"43","reg":"ara"}},{"type":"Feature","geometry":{"type":"Point","coordinates":[4.27196,45.172]},"properties":{"nom":"Les Granges de Melthé","sub":"CollectiveAccommodation","cm":"43290#Raucoules","web":"https://lesgrangesdemelthe.com/","uri":"https://data.datatourisme.fr/13/d708d098-c06c-37ce-9ecc-d5b1a9490c10","dept":"43","reg":"ara"}},{"type":"Feature","geometry":{"type":"Point","coordinates":[3.69566,45.31992]},"properties":{"nom":"Brize-Glace","sub":"Rental","cm":"43160#La Chaise-Dieu","web":"https://www.la-breche.fr/","uri":"https://data.datatourisme.fr/13/9a2830ea-8df2-398b-a000-c5ac6a1af267","dept":"43","reg":"ara"}},{"type":"Feature","geometry":{"type":"Point","coordinates":[4.3019,45.06006]},"properties":{"nom":"Globe Trotters","sub":"Rental","cm":"43400#Le Chambon-sur-Lignon","web":null,"uri":"https://data.datatourisme.fr/13/372a7db1-51a5-314f-b489-72019225e07d","dept":"43","reg":"ara"}},{"type":"Feature","geometry":{"type":"Point","coordinates":[4.3019,45.06006]},"properties":{"nom":"Location de vélo électrique","sub":"Rental","cm":"43400#Le Chambon-sur-Lignon","web":null,"uri":"https://data.datatourisme.fr/13/c1918540-b82d-3218-98a3-ae41c5c5096b","dept":"43","reg":"ara"}},{"type":"Feature","geometry":{"type":"Point","coordinates":[4.19932,45.3683]},"properties":{"nom":"Château d’Aurec","sub":"Rental","cm":"43110#Aurec-sur-Loire","web":"https://lesrivesdaurec.fr/","uri":"https://data.datatourisme.fr/13/1cfaabe6-708e-3fcc-8b72-eab83bd9f17e","dept":"43","reg":"ara"}},{"type":"Feature","geometry":{"type":"Point","coordinates":[4.19932,45.3683]},"properties":{"nom":"Les salons du Château d'Aurec","sub":"Rental","cm":"43110#Aurec-sur-Loire","web":"https://lesrivesdaurec.fr/","uri":"https://data.datatourisme.fr/13/612bfffc-4914-3ce3-a33d-6fe0d28f2783","dept":"43","reg":"ara"}},{"type":"Feature","geometry":{"type":"Point","coordinates":[3.8811,45.04463]},"properties":{"nom":"Gîte La Découverte","sub":"CollectiveAccommodation","cm":"43000#Le Puy-en-Velay","web":"https://www.giteladecouverte.fr/","uri":"https://data.datatourisme.fr/13/f307a9e1-559c-3133-87f4-00c2590860b6","dept":"43","reg":"ara"}},{"type":"Feature","geometry":{"type":"Point","coordinates":[3.58458,45.14401]},"properties":{"nom":"Les Baies Sauvages","sub":"CampingAndCaravanning","cm":"43230#Saint-Georges-d'Aurac","web":null,"uri":"https://data.datatourisme.fr/13/e31a05fa-1165-3d1a-abe6-10a2bbb81264","dept":"43","reg":"ara"}},{"type":"Feature","geometry":{"type":"Point","coordinates":[4.22684,44.98561]},"properties":{"nom":"Gîte La Traverse","sub":"CollectiveAccommodation","cm":"43430#Fay-sur-Lignon","web":"http://www.gitelatraverse.com/","uri":"https://data.datatourisme.fr/13/9d7e097b-2812-33c4-9908-bdd5e103e017","dept":"43","reg":"ara"}},{"type":"Feature","geometry":{"type":"Point","coordinates":[3.65374,44.96974]},"properties":{"nom":"Gîte d'Etape Communal","sub":"CollectiveAccommodation","cm":"43580#Monistrol-d'Allier","web":null,"uri":"https://data.datatourisme.fr/13/509fd61e-7c8c-3dc6-8490-6c1643818694","dept":"43","reg":"ara"}},{"type":"Feature","geometry":{"type":"Point","coordinates":[3.67948,44.98937]},"properties":{"nom":"Gîte Au Bord du Chemin","sub":"CollectiveAccommodation","cm":"43580#Saint-Privat-d'Allier","web":"https://giteaubordduchemin.com/","uri":"https://data.datatourisme.fr/13/9cd5cee8-0580-31eb-a831-21ba17e552ad","dept":"43","reg":"ara"}},{"type":"Feature","geometry":{"type":"Point","coordinates":[4.28377,45.14235]},"properties":{"nom":"Salle de La Brosse","sub":"Rental","cm":"43190#Tence","web":"http://www.cc-hautlignon.fr/communes/tence/<>https://station.illiwap.com/fr/public/43244","uri":"https://data.datatourisme.fr/13/463f2dbd-8c61-38b6-b0ff-0caf693a9294","dept":"43","reg":"ara"}},{"type":"Feature","geometry":{"type":"Point","coordinates":[4.2882,45.06657]},"properties":{"nom":"La Grange de Joubert","sub":"Rental","cm":"43400#Le Chambon-sur-Lignon","web":"https://ymcafrance.fr/camp-joubert/","uri":"https://data.datatourisme.fr/13/94979bbe-c458-319a-8195-ca79a5adec67","dept":"43","reg":"ara"}},{"type":"Feature","geometry":{"type":"Point","coordinates":[4.24263,45.05611]},"properties":{"nom":"Salle du Garay","sub":"Rental","cm":"43520#Mazet-Saint-Voy","web":"http://www.costette.com/","uri":"https://data.datatourisme.fr/13/d2e5043f-8634-392d-bc64-8043a45612ba","dept":"43","reg":"ara"}},{"type":"Feature","geometry":{"type":"Point","coordinates":[4.13359,45.1564]},"properties":{"nom":"Hôtel la Petite Auberge","sub":"HotelRestaurant","cm":"43200#Yssingeaux","web":"http://www.lapetiteaubergeyssingeaux.com/","uri":"https://data.datatourisme.fr/13/5c0d43ec-b34d-317e-a304-95510bb9440f","dept":"43","reg":"ara"}},{"type":"Feature","geometry":{"type":"Point","coordinates":[3.5101,45.1538]},"properties":{"nom":"Gite Le Chassagnon | Velivelo","sub":"Rental","cm":"43300#Mazeyrat-d'Allier","web":null,"uri":"https://data.datatourisme.fr/13/e8d803e3-26d8-3485-9795-559ff07f762a","dept":"43","reg":"ara"}},{"type":"Feature","geometry":{"type":"Point","coordinates":[3.52485,44.8679]},"properties":{"nom":"Gîte de la Margeride | Thoras","sub":"CollectiveAccommodation","cm":"43170#Thoras","web":null,"uri":"https://data.datatourisme.fr/13/2308bfdd-9aed-3d37-9081-21030e8cdbb2","dept":"43","reg":"ara"}},{"type":"Feature","geometry":{"type":"Point","coordinates":[4.12447,45.14092]},"properties":{"nom":"Hôtel du Parc","sub":"HotelRestaurant","cm":"43200#Yssingeaux","web":"https://www.hotelduparc43.fr/","uri":"https://data.datatourisme.fr/13/21c5fea7-90da-3155-98d8-e7fa05460b8a","dept":"43","reg":"ara"}},{"type":"Feature","geometry":{"type":"Point","coordinates":[4.26427,45.09961]},"properties":{"nom":"Domaine du Mont Joyeux MF Organisation","sub":"Hostel","cm":"43190#Tence","web":"https://www.mf-organisation.fr/","uri":"https://data.datatourisme.fr/13/aaa9d843-57d9-3ac1-8fbf-9425428198b7","dept":"43","reg":"ara"}},{"type":"Feature","geometry":{"type":"Point","coordinates":[4.30112,45.03305]},"properties":{"nom":"Location de VTT classiques et électriques","sub":"Rental","cm":"43400#Le Chambon-sur-Lignon","web":"https://www.domainedegory.com/","uri":"https://data.datatourisme.fr/13/c4e8e794-fc3c-3e6d-bfd6-1cd4b54aa02e","dept":"43","reg":"ara"}},{"type":"Feature","geometry":{"type":"Point","coordinates":[3.83064,44.84313]},"properties":{"nom":"Gîte de la Bascule","sub":"CollectiveAccommodation","cm":"43340#Landos","web":null,"uri":"https://data.datatourisme.fr/13/5ea375ef-8c4c-3620-a9b9-e7ecd4f6fa30","dept":"43","reg":"ara"}},{"type":"Feature","geometry":{"type":"Point","coordinates":[3.48846,44.86158]},"properties":{"nom":"Gîte du Pont","sub":"CollectiveAccommodation","cm":"43170#Chanaleilles","web":null,"uri":"https://data.datatourisme.fr/13/51583b9e-6d11-3cfe-91d1-e97cf3801599","dept":"43","reg":"ara"}},{"type":"Feature","geometry":{"type":"Point","coordinates":[4.15719,44.90557]},"properties":{"nom":"Gîte l'Escale des Tribus","sub":"CollectiveAccommodation","cm":"43150#Les Estables","web":"https://escaledestribus.com/","uri":"https://data.datatourisme.fr/13/69e1f128-2bb6-3428-8e5e-9c3a2455fb6c","dept":"43","reg":"ara"}},{"type":"Feature","geometry":{"type":"Point","coordinates":[3.99208,45.30858]},"properties":{"nom":"Salle des fêtes","sub":"Rental","cm":"43130#Tiranges","web":"https://mairietiranges.wixsite.com/monsite","uri":"https://data.datatourisme.fr/13/52631741-26b6-382e-a673-6227a7f68526","dept":"43","reg":"ara"}},{"type":"Feature","geometry":{"type":"Point","coordinates":[3.95657,45.27239]},"properties":{"nom":"Salle Les Champs Vios","sub":"Rental","cm":"43130#Saint-André-de-Chalencon","web":"https://www.saint-andre-de-chalencon.fr/","uri":"https://data.datatourisme.fr/13/b28d1681-a9fa-30f5-b36c-8a07934980c2","dept":"43","reg":"ara"}},{"type":"Feature","geometry":{"type":"Point","coordinates":[4.04732,45.31174]},"properties":{"nom":"Salle Maison de la Prescle","sub":"Rental","cm":"43210#Valprivas","web":"https://www.valprivas.fr/","uri":"https://data.datatourisme.fr/13/38041403-7081-3892-95ff-fa7259478a41","dept":"43","reg":"ara"}},{"type":"Feature","geometry":{"type":"Point","coordinates":[4.15819,45.35355]},"properties":{"nom":"Salle des fêtes","sub":"Rental","cm":"43210#Malvalette","web":"https://www.malvalette.fr/","uri":"https://data.datatourisme.fr/13/9546aa6e-5514-3815-95c3-5472e06bb499","dept":"43","reg":"ara"}},{"type":"Feature","geometry":{"type":"Point","coordinates":[4.10198,45.2614]},"properties":{"nom":"Salle Espace \"La Dorlière\"","sub":"Rental","cm":"43590#Beauzac","web":"https://www.ville-beauzac.fr/","uri":"https://data.datatourisme.fr/13/2a452f90-d2d7-3a00-a8f9-0aa2ceed0ce9","dept":"43","reg":"ara"}},{"type":"Feature","geometry":{"type":"Point","coordinates":[4.14803,45.34195]},"properties":{"nom":"Salle de Bruailles","sub":"Rental","cm":"43210#Malvalette","web":"https://www.malvalette.fr/","uri":"https://data.datatourisme.fr/13/873b5885-bfc6-3a01-92e7-a0e13c890323","dept":"43","reg":"ara"}},{"type":"Feature","geometry":{"type":"Point","coordinates":[4.11799,45.31689]},"properties":{"nom":"Salle des familles","sub":"Rental","cm":"43210#Bas-en-Basset","web":"https://www.basenbasset.fr/","uri":"https://data.datatourisme.fr/13/d6d7e12b-edda-3fbd-aefd-a5d5f2cc0934","dept":"43","reg":"ara"}},{"type":"Feature","geometry":{"type":"Point","coordinates":[4.09918,45.25934]},"properties":{"nom":"Salle Espace des Remparts","sub":"Rental","cm":"43590#Beauzac","web":"https://www.ville-beauzac.fr/","uri":"https://data.datatourisme.fr/13/f86239aa-37fd-3942-a095-6c29b673b073","dept":"43","reg":"ara"}},{"type":"Feature","geometry":{"type":"Point","coordinates":[4.1786,45.23788]},"properties":{"nom":"Salle Polyvalente","sub":"Rental","cm":"43600#Les Villettes","web":"https://www.les-villettes.fr/","uri":"https://data.datatourisme.fr/13/96b65150-1535-3119-a873-80ddaf56e87e","dept":"43","reg":"ara"}},{"type":"Feature","geometry":{"type":"Point","coordinates":[4.27413,45.2448]},"properties":{"nom":"Salle des fêtes","sub":"Rental","cm":"43620#Saint-Pal-de-Mons","web":"https://www.mairie-saintpaldemons.fr/location-des-salles-st-pal-de-mons_fr.html","uri":"https://data.datatourisme.fr/13/bad08ed2-0c34-32ea-b79f-57e852ae639d","dept":"43","reg":"ara"}},{"type":"Feature","geometry":{"type":"Point","coordinates":[3.95525,45.35548]},"properties":{"nom":"Salle d'animation rurale","sub":"Rental","cm":"43500#Saint-Pal-de-Chalencon","web":"https://www.saint-pal-de-chalencon.fr/","uri":"https://data.datatourisme.fr/13/9a5bbbc2-8d79-3988-8f64-575b71f67864","dept":"43","reg":"ara"}},{"type":"Feature","geometry":{"type":"Point","coordinates":[4.2059,45.33539]},"properties":{"nom":"Salle Polyvalente","sub":"Rental","cm":"43120#La Chapelle-d'Aurec","web":"https://www.mairie-lachapelledaurec.fr/","uri":"https://data.datatourisme.fr/13/e1c07185-8f37-39d3-8036-c106e36d8744","dept":"43","reg":"ara"}},{"type":"Feature","geometry":{"type":"Point","coordinates":[4.19215,45.27292]},"properties":{"nom":"Salle co-working le 4puissance3","sub":"Rental","cm":"43120#Monistrol-sur-Loire","web":"https://www.4puissance3.com/","uri":"https://data.datatourisme.fr/13/76f96aac-64a8-3d84-af40-aab76ddc362c","dept":"43","reg":"ara"}},{"type":"Feature","geometry":{"type":"Point","coordinates":[4.20428,45.09645]},"properties":{"nom":"Salle du Bru","sub":"Rental","cm":"43200#Saint-Jeures","web":"https://station.illiwap.com/fr/public/43199","uri":"https://data.datatourisme.fr/13/26a91fe5-0488-34e5-bd8f-2285aba497a6","dept":"43","reg":"ara"}},{"type":"Feature","geometry":{"type":"Point","coordinates":[3.54833,44.95929]},"properties":{"nom":"Gîte - Au bon moment","sub":"CollectiveAccommodation","cm":"43170#Saugues","web":null,"uri":"https://data.datatourisme.fr/13/d82b24a7-6af2-35f7-89aa-e14c991ad25d","dept":"43","reg":"ara"}},{"type":"Feature","geometry":{"type":"Point","coordinates":[3.5862,45.04625]},"properties":{"nom":"Halte Randonneurs | Bouriol Daniel","sub":"CollectiveAccommodation","cm":"43300#Saint-Julien-des-Chazes","web":null,"uri":"https://data.datatourisme.fr/13/c014709a-f754-366d-b13f-7105b5956820","dept":"43","reg":"ara"}},{"type":"Feature","geometry":{"type":"Point","coordinates":[3.58508,45.03622]},"properties":{"nom":"Chalet de la Source","sub":"CollectiveAccommodation","cm":"43300#Prades","web":"https://chalet-source.com/","uri":"https://data.datatourisme.fr/13/0315b0e8-30fb-34e1-98ef-8cf706d5de77","dept":"43","reg":"ara"}},{"type":"Feature","geometry":{"type":"Point","coordinates":[3.49364,44.85656]},"properties":{"nom":"Gîte des Noisetiers","sub":"CollectiveAccommodation","cm":"43170#Chanaleilles","web":null,"uri":"https://data.datatourisme.fr/13/db682dbc-bfa0-31d6-86fe-c659e05f0802","dept":"43","reg":"ara"}},{"type":"Feature","geometry":{"type":"Point","coordinates":[3.4938,44.85661]},"properties":{"nom":"Gîte de la Virlange","sub":"CollectiveAccommodation","cm":"43170#Chanaleilles","web":null,"uri":"https://data.datatourisme.fr/13/b0f13474-8394-39a2-9978-a560fd97102a","dept":"43","reg":"ara"}},{"type":"Feature","geometry":{"type":"Point","coordinates":[4.36079,45.12209]},"properties":{"nom":"Salle Le Belvédère","sub":"Rental","cm":"43190#Le Mas-de-Tence","web":"http://www.lemasdetence.fr/","uri":"https://data.datatourisme.fr/13/ae2f0c7c-d2cf-303e-87a8-4c1c225f15ee","dept":"43","reg":"ara"}},{"type":"Feature","geometry":{"type":"Point","coordinates":[4.13967,45.25805]},"properties":{"nom":"Salle de réception Le Séquoia","sub":"Rental","cm":"43590#Beauzac","web":"https://www.le-sequoia.fr/salle-le-sequoia","uri":"https://data.datatourisme.fr/13/a0e7d66d-ef26-3760-bbf2-7252ca8ca53f","dept":"43","reg":"ara"}},{"type":"Feature","geometry":{"type":"Point","coordinates":[3.88025,45.04167]},"properties":{"nom":"La Brasserie du Digital","sub":"Rental","cm":"43000#Le Puy-en-Velay","web":"http://www.labrasseriedudigital.com/","uri":"https://data.datatourisme.fr/13/822502a1-317d-3178-8b2e-caf705e18e16","dept":"43","reg":"ara"}},{"type":"Feature","geometry":{"type":"Point","coordinates":[4.01893,45.05798]},"properties":{"nom":"Les Jardins d'Espaladous","sub":"CollectiveAccommodation","cm":"43260#Saint-Pierre-Eynac","web":"https://lodge-espaladous.fr/","uri":"https://data.datatourisme.fr/13/d24d5b8b-def1-3f88-88c5-28c0e7c04b47","dept":"43","reg":"ara"}},{"type":"Feature","geometry":{"type":"Point","coordinates":[3.72054,45.27827]},"properties":{"nom":"VTT Air'D","sub":"Rental","cm":"43160#Sembadel","web":"https://www.vttaird.fr/","uri":"https://data.datatourisme.fr/13/9ace1287-71c9-3004-a357-e2b3f1da6ec1","dept":"43","reg":"ara"}},{"type":"Feature","geometry":{"type":"Point","coordinates":[4.16855,45.15901]},"properties":{"nom":"Camping de la Rouveure","sub":"Camping","cm":"43200#Yssingeaux","web":"http://www.domainelarouveure.fr/","uri":"https://data.datatourisme.fr/13/742f6cee-78cd-3117-81a1-44115e1d55ba","dept":"43","reg":"ara"}},{"type":"Feature","geometry":{"type":"Point","coordinates":[3.91591,45.155]},"properties":{"nom":"La passerelle","sub":"CollectiveAccommodation","cm":"43800#Saint-Vincent","web":"https://www.gites.fr/86727","uri":"https://data.datatourisme.fr/13/c65b27ad-31d1-3dc3-a96d-0beed4bef7ee","dept":"43","reg":"ara"}},{"type":"Feature","geometry":{"type":"Point","coordinates":[3.52633,45.05647]},"properties":{"nom":"Hutopik | Cabanes et Yourtes","sub":"CollectiveAccommodation","cm":"43300#Chanteuges","web":null,"uri":"https://data.datatourisme.fr/13/fcdd6694-af40-373b-b5c3-19390b3770c3","dept":"43","reg":"ara"}},{"type":"Feature","geometry":{"type":"Point","coordinates":[3.66879,44.9161]},"properties":{"nom":"NaturCamp' Au Fil de L'Eau | Alleyras","sub":"Camping","cm":"43580#Alleyras","web":"http://camping-municipal.alleyras.fr/","uri":"https://data.datatourisme.fr/13/d24642fb-3f6e-3249-95f5-ad5ef93bd7b6","dept":"43","reg":"ara"}},{"type":"Feature","geometry":{"type":"Point","coordinates":[3.78842,44.89128]},"properties":{"nom":"La Retirade","sub":"CollectiveAccommodation","cm":"43510#Le Bouchet-Saint-Nicolas","web":"https://gitelaretirade.com/","uri":"https://data.datatourisme.fr/13/025828bf-b875-3cf5-a466-c9535d379c1a","dept":"43","reg":"ara"}},{"type":"Feature","geometry":{"type":"Point","coordinates":[3.88523,45.04603]},"properties":{"nom":"Centre Isabelle Romée","sub":"Rental","cm":"43000#Le Puy-en-Velay","web":null,"uri":"https://data.datatourisme.fr/13/7b283c14-76d7-38b1-9dc7-f3938eaef647","dept":"43","reg":"ara"}},{"type":"Feature","geometry":{"type":"Point","coordinates":[3.79269,44.91205]},"properties":{"nom":"Pédal'o Nautic du Bouchet | Paddle | Pédalos","sub":"Rental","cm":"43510#Le Bouchet-Saint-Nicolas","web":null,"uri":"https://data.datatourisme.fr/13/55fecac4-86f3-3033-a055-84dfb2cf90ac","dept":"43","reg":"ara"}},{"type":"Feature","geometry":{"type":"Point","coordinates":[3.75812,44.84688]},"properties":{"nom":"Gîte du Val d'Allier | St Haon","sub":"CollectiveAccommodation","cm":"43340#Saint-Haon","web":"https://www.gitevaldallier.com/","uri":"https://data.datatourisme.fr/13/a9beedbc-9acc-3dc4-88e8-25059285ed4b","dept":"43","reg":"ara"}},{"type":"Feature","geometry":{"type":"Point","coordinates":[3.77392,45.00896]},"properties":{"nom":"Chez Marie","sub":"CollectiveAccommodation","cm":"43370#Bains","web":null,"uri":"https://data.datatourisme.fr/13/92b36b84-3618-333b-bcf8-99b8be4adcff","dept":"43","reg":"ara"}},{"type":"Feature","geometry":{"type":"Point","coordinates":[3.54536,44.95908]},"properties":{"nom":"Gite d'Etape et de Séjour Communal","sub":"CollectiveAccommodation","cm":"43170#Saugues","web":"https://campingsauguesgeva.wixsite.com/gite-etape-saugues","uri":"https://data.datatourisme.fr/13/4752f4cd-e76c-342f-aaac-5bb952734f0a","dept":"43","reg":"ara"}},{"type":"Feature","geometry":{"type":"Point","coordinates":[3.41582,45.05208]},"properties":{"nom":"Camping communal de Pinols","sub":"Camping","cm":"43300#Pinols","web":null,"uri":"https://data.datatourisme.fr/13/4b51f2de-ebec-3a92-84aa-047754ffe740","dept":"43","reg":"ara"}},{"type":"Feature","geometry":{"type":"Point","coordinates":[3.58067,45.15946]},"properties":{"nom":"Gîte d'étape communal","sub":"CollectiveAccommodation","cm":"43230#Chavaniac-Lafayette","web":"https://www.chavaniac-lafayette.fr/","uri":"https://data.datatourisme.fr/13/4dbc9f8a-a54b-3359-a21b-469080b7d504","dept":"43","reg":"ara"}},{"type":"Feature","geometry":{"type":"Point","coordinates":[4.10747,45.0614]},"properties":{"nom":"Gîte d'étape Lou Naïs","sub":"CollectiveAccommodation","cm":"43260#Queyrières","web":"https://lounais.wixsite.com/gite","uri":"https://data.datatourisme.fr/13/e1d1faef-a95b-3016-9828-a1cd57cf1c8d","dept":"43","reg":"ara"}},{"type":"Feature","geometry":{"type":"Point","coordinates":[4.02766,45.20001]},"properties":{"nom":"Location VTT / VTTAE à la Base du Moulin","sub":"Rental","cm":"43130#Retournac","web":"https://www.base-du-moulin.fr/","uri":"https://data.datatourisme.fr/13/4276c197-eee7-33de-91cd-ef90af682e0c","dept":"43","reg":"ara"}},{"type":"Feature","geometry":{"type":"Point","coordinates":[3.49785,45.0957]},"properties":{"nom":"Grand Gîte de l'Ile d'Amour","sub":"CollectiveAccommodation","cm":"43300#Langeac","web":"http://www.gite-du-dolmen.fr/","uri":"https://data.datatourisme.fr/13/2a5bc4c3-f1af-35bd-9ef7-8b0662d58ebb","dept":"43","reg":"ara"}},{"type":"Feature","geometry":{"type":"Point","coordinates":[3.88473,44.76216]},