{"type":"FeatureCollection","features":[{"type":"Feature","geometry":{"type":"Point","coordinates":[-1.37183,47.25121]},"properties":{"nom":"Camping du Chêne - Seasonova ***","sub":"Camping","cm":"44450#Saint-Julien-de-Concelles","web":"https://vacances-seasonova.com/fr/camping/camping-du-chene/","uri":"https://data.datatourisme.fr/49/596eb764-e54c-3037-bfde-691269189d39","dept":"44","reg":"pdl"}},{"type":"Feature","geometry":{"type":"Point","coordinates":[-2.02881,47.08641]},"properties":{"nom":"Le Poteau","sub":"Camping","cm":"44760#La Bernerie-en-Retz","web":"http://www.camping-lepoteau.com/","uri":"https://data.datatourisme.fr/49/29011fb1-0eb4-3321-bc8d-2c0640b99140","dept":"44","reg":"pdl"}},{"type":"Feature","geometry":{"type":"Point","coordinates":[-1.5359,47.4198]},"properties":{"nom":"CHAMBRES ÉCLUSE DE LA TINDIÈRE","sub":"BedAndBreakfast","cm":"44390#Nort-sur-Erdre","web":"https://www.eclusedelatindiere.com/","uri":"https://data.datatourisme.fr/49/294ef9ab-2f49-3724-85db-e763bc98e274","dept":"44","reg":"pdl"}},{"type":"Feature","geometry":{"type":"Point","coordinates":[-1.53592,47.41967]},"properties":{"nom":"GÎTE ETAPE ÉCLUSE DE LA TINDIÈRE","sub":"CollectiveAccommodation","cm":"44390#Nort-sur-Erdre","web":"https://www.etapecanalgiteeclusedelatindiere.com/","uri":"https://data.datatourisme.fr/49/4f8e88bc-eef7-31dc-b47c-55c3ba871e20","dept":"44","reg":"pdl"}},{"type":"Feature","geometry":{"type":"Point","coordinates":[-1.4789,47.05196]},"properties":{"nom":"CAMPING RURAL LE RELAIS DES GARENNES","sub":"Camping","cm":"44140#Montbert","web":"http://www.camping-lerelaisdesgarennes.com/","uri":"https://data.datatourisme.fr/49/64eeab50-2188-3184-948a-d9a29ac25db1","dept":"44","reg":"pdl"}},{"type":"Feature","geometry":{"type":"Point","coordinates":[-1.4056,47.2141]},"properties":{"nom":"AIRE DU CAMPING RURAL \"LE RELAIS DES GARENNES \"","sub":"CampingAndCaravanning","cm":"44140#Montbert","web":"http://www.camping-lerelaisdesgarennes.com/","uri":"https://data.datatourisme.fr/49/354d8de2-f7b7-317e-9e9d-cd327696ad20","dept":"44","reg":"pdl"}},{"type":"Feature","geometry":{"type":"Point","coordinates":[-1.54741,47.2152]},"properties":{"nom":"HÔTEL IBIS NANTES CENTRE GARE SUD","sub":"Hotel","cm":"44000#Nantes","web":"http://www.ibishotel.com/","uri":"https://data.datatourisme.fr/49/773261c1-be11-3040-b952-503fe71b07d7","dept":"44","reg":"pdl"}},{"type":"Feature","geometry":{"type":"Point","coordinates":[-1.56199,47.22327]},"properties":{"nom":"ADAGIO ACCESS NANTES VIARME","sub":"HolidayResort","cm":"44100#Nantes","web":"http://www.adagio-city.com/","uri":"https://data.datatourisme.fr/49/3c351741-c0f7-3389-ad80-4c783a2f62a8","dept":"44","reg":"pdl"}},{"type":"Feature","geometry":{"type":"Point","coordinates":[-2.15833,47.17293]},"properties":{"nom":"Clos Mer et Nature","sub":"Camping","cm":"44730#Saint-Michel-Chef-Chef","web":"http://www.camping-clos-mer-nature.fr/","uri":"https://data.datatourisme.fr/49/181bf527-5030-3fad-9896-4c59c6ae6e7a","dept":"44","reg":"pdl"}},{"type":"Feature","geometry":{"type":"Point","coordinates":[-2.15833,47.17293]},"properties":{"nom":"Clos Mer et Nature","sub":"CampingAndCaravanning","cm":"44730#Saint-Michel-Chef-Chef","web":"http://www.camping-clos-mer-nature.fr/","uri":"https://data.datatourisme.fr/49/8f10b21f-f841-3f20-b4d0-efa5ccd67022","dept":"44","reg":"pdl"}},{"type":"Feature","geometry":{"type":"Point","coordinates":[-2.22751,47.13973]},"properties":{"nom":"Camping L'Albatros","sub":"Camping","cm":"44770#La Plaine-sur-Mer","web":"http://www.albatros-camping.com/","uri":"https://data.datatourisme.fr/49/1e58c878-0e63-38bd-9b77-f77be7a0b5ff","dept":"44","reg":"pdl"}},{"type":"Feature","geometry":{"type":"Point","coordinates":[-2.22751,47.13973]},"properties":{"nom":"Camping L'Albatros","sub":"CampingAndCaravanning","cm":"44770#La Plaine-sur-Mer","web":"http://www.albatros-camping.com/","uri":"https://data.datatourisme.fr/49/1ee2a26f-1b5f-319c-9b7e-9f0e3d5166fe","dept":"44","reg":"pdl"}},{"type":"Feature","geometry":{"type":"Point","coordinates":[-1.5341,47.40147]},"properties":{"nom":"MEUBLÉ LE NID DOUILLET","sub":"LodgingBusiness","cm":"44390#Casson","web":null,"uri":"https://data.datatourisme.fr/49/19ab6852-6fe3-3995-893e-7fd952d196ca","dept":"44","reg":"pdl"}},{"type":"Feature","geometry":{"type":"Point","coordinates":[-2.25307,47.26685]},"properties":{"nom":"B&B HOTEL SAINT-NAZAIRE PORNICHET","sub":"Hotel","cm":"44600#Saint-Nazaire","web":"https://www.hotel-bb.com/fr/hotel/saint-nazaire-pornichet","uri":"https://data.datatourisme.fr/49/1aeb1ae8-8908-34f9-8a7e-9f3b1d777d14","dept":"44","reg":"pdl"}},{"type":"Feature","geometry":{"type":"Point","coordinates":[-1.48521,47.26286]},"properties":{"nom":"HÔTEL IBIS BUDGET NANTES-SAINTE LUCE","sub":"Hotel","cm":"44980#Sainte-Luce-sur-Loire","web":"https://all.accor.com/","uri":"https://data.datatourisme.fr/49/18820242-ca37-390d-89d2-93146d9f8481","dept":"44","reg":"pdl"}},{"type":"Feature","geometry":{"type":"Point","coordinates":[-1.3157,47.35688]},"properties":{"nom":"Chambre d'hôtes La Ramonière","sub":"BedAndBreakfast","cm":"44521#Oudon","web":"https://www.francevelotourisme.com/hebergements/chambres-d-hotes/la-ramoniere","uri":"https://data.datatourisme.fr/49/1cc24f00-ed39-30d9-ad93-6a4965fc78e7","dept":"44","reg":"pdl"}},{"type":"Feature","geometry":{"type":"Point","coordinates":[-1.96605,47.05199]},"properties":{"nom":"Les Chênes Verts","sub":"Camping","cm":"44580#Villeneuve-en-Retz","web":"https://www.leschenesverts.info/","uri":"https://data.datatourisme.fr/49/6fbe054d-212a-3240-b69c-9199ec046fe9","dept":"44","reg":"pdl"}},{"type":"Feature","geometry":{"type":"Point","coordinates":[-1.96605,47.05199]},"properties":{"nom":"Les Chênes Verts","sub":"CampingAndCaravanning","cm":"44580#Villeneuve-en-Retz","web":"https://www.leschenesverts.info/","uri":"https://data.datatourisme.fr/49/21da5f5d-f39e-37bd-accf-33434b943cda","dept":"44","reg":"pdl"}},{"type":"Feature","geometry":{"type":"Point","coordinates":[-1.74429,47.13424]},"properties":{"nom":"Camping de la Morinière","sub":"Camping","cm":"44710#Port-Saint-Père","web":"http://www.port-saint-pere.fr/","uri":"https://data.datatourisme.fr/49/af565604-404d-3b46-b736-dc1fb5d72837","dept":"44","reg":"pdl"}},{"type":"Feature","geometry":{"type":"Point","coordinates":[-1.18721,47.36278]},"properties":{"nom":"Camping de l'île Mouchet","sub":"Camping","cm":"44150#Ancenis-Saint-Géréon","web":"http://www.camping-estivance.com/","uri":"https://data.datatourisme.fr/49/ae5b48c5-e556-388f-99b9-8810fbdc8c01","dept":"44","reg":"pdl"}},{"type":"Feature","geometry":{"type":"Point","coordinates":[-1.54103,47.22004]},"properties":{"nom":"SOZO HOTEL","sub":"Hotel","cm":"44000#Nantes","web":"https://www.bl-hotels.com/<>https://www.sozohotel.fr/","uri":"https://data.datatourisme.fr/49/080b7fc4-c4d8-3568-9e4f-b517580bd62f","dept":"44","reg":"pdl"}},{"type":"Feature","geometry":{"type":"Point","coordinates":[-1.67383,47.14011]},"properties":{"nom":"CHÂTEAU DU BOIS DE LA NOË - CHAMBRES D'HÔTES","sub":"BedAndBreakfast","cm":"44830#Bouaye","web":"http://www.chateau-boisdelanoe.com/","uri":"https://data.datatourisme.fr/49/1bee9ebd-88e4-3113-94b0-0dd0035a9d64","dept":"44","reg":"pdl"}},{"type":"Feature","geometry":{"type":"Point","coordinates":[-1.48526,47.26849]},"properties":{"nom":"THE ORIGINALS CITY NOVELLA PREMIUM NANTES EST CARQUEFOU","sub":"Hotel","cm":"44470#Carquefou","web":"http://www.novella-nantes.com/","uri":"https://data.datatourisme.fr/49/c88be20d-20f8-3b3e-aeaf-945015844217","dept":"44","reg":"pdl"}},{"type":"Feature","geometry":{"type":"Point","coordinates":[-1.18702,47.36172]},"properties":{"nom":"Campétoiles - Camping de l'île Mouchet","sub":"LodgingBusiness","cm":"44150#Ancenis-Saint-Géréon","web":"https://www.camping-estivance.com/","uri":"https://data.datatourisme.fr/49/b842b3a3-4a45-3d0b-8e6d-6948d3b291e7","dept":"44","reg":"pdl"}},{"type":"Feature","geometry":{"type":"Point","coordinates":[-1.18833,47.36144]},"properties":{"nom":"Hello Cabane - Camping de l'île Mouchet","sub":"LodgingBusiness","cm":"44150#Ancenis-Saint-Géréon","web":"https://www.camping-estivance.com/","uri":"https://data.datatourisme.fr/49/dea8f968-97f5-3908-b142-279ed6fe7587","dept":"44","reg":"pdl"}},{"type":"Feature","geometry":{"type":"Point","coordinates":[-1.15055,47.37869]},"properties":{"nom":"Hôtel-Restaurant de la Loire","sub":"HotelTrade","cm":"44150#Vair-sur-Loire","web":"http://www.hotel-loire.net/","uri":"https://data.datatourisme.fr/49/c7321141-95bb-3adc-ad0c-b897acd0e7d2","dept":"44","reg":"pdl"}},{"type":"Feature","geometry":{"type":"Point","coordinates":[-1.35212,47.23818]},"properties":{"nom":"Gîte \"Il était une fois chez moi\" La Maison de Tante Marie","sub":"LodgingBusiness","cm":"44430#Le Loroux-Bottereau","web":"http://www.iletaitunefoischezmoi.fr/","uri":"https://data.datatourisme.fr/49/433a289e-40b7-3bcf-ac45-dedf31065dd0","dept":"44","reg":"pdl"}},{"type":"Feature","geometry":{"type":"Point","coordinates":[-1.35165,47.23844]},"properties":{"nom":"Gîte \"Il était une fois chez mois\" La Maison d'Eugénie","sub":"LodgingBusiness","cm":"44430#Le Loroux-Bottereau","web":"http://www.iletaitunefoischezmoi.fr/","uri":"https://data.datatourisme.fr/49/1ed4bd53-21d9-3a01-b9d7-2e90c1b89ab4","dept":"44","reg":"pdl"}},{"type":"Feature","geometry":{"type":"Point","coordinates":[-1.35296,47.23831]},"properties":{"nom":"Maison d'hôtes \"Il était une fois chez moi\"","sub":"BedAndBreakfast","cm":"44430#Le Loroux-Bottereau","web":"http://www.iletaitunefoischezmoi.fr/","uri":"https://data.datatourisme.fr/49/3ea84f3a-40ae-3e0e-99eb-7354b13b1655","dept":"44","reg":"pdl"}},{"type":"Feature","geometry":{"type":"Point","coordinates":[-1.27117,47.15862]},"properties":{"nom":"Hôtel le Don Quichotte","sub":"Hotel","cm":"44330#Vallet","web":"https://www.le-don-quichotte.fr/soiree-etape-vallet-clisson/","uri":"https://data.datatourisme.fr/49/719f9a46-4156-3018-ae24-68bdb08cafc9","dept":"44","reg":"pdl"}},{"type":"Feature","geometry":{"type":"Point","coordinates":[-1.47562,47.29926]},"properties":{"nom":"GITE DE LA CHARMELIERE - LE CHARME CHIC ET TENDANCE","sub":"LodgingBusiness","cm":"44470#Carquefou","web":"http://www.gites-charmeliere-44.fr/","uri":"https://data.datatourisme.fr/49/95c2885a-a349-3681-8e66-c8350b906ebd","dept":"44","reg":"pdl"}},{"type":"Feature","geometry":{"type":"Point","coordinates":[-1.47584,47.29808]},"properties":{"nom":"GITE DE LA CHARMELIERE - LE GARDENIA - COTTAGE SYMPA","sub":"LodgingBusiness","cm":"44470#Carquefou","web":"http://www.gites-charmeliere-44.fr/","uri":"https://data.datatourisme.fr/49/014f52b8-dac7-3875-af80-01a6b319e364","dept":"44","reg":"pdl"}},{"type":"Feature","geometry":{"type":"Point","coordinates":[-1.47562,47.29926]},"properties":{"nom":"GITE DE LA CHARMELIERE - LE CÔTÉ JARDIN - ZEN ET CHAMPETRE","sub":"LodgingBusiness","cm":"44470#Carquefou","web":"http://www.gites-charmeliere-44.fr/","uri":"https://data.datatourisme.fr/49/2f246843-2438-3e17-b5fc-cb8b3514bed5","dept":"44","reg":"pdl"}},{"type":"Feature","geometry":{"type":"Point","coordinates":[-1.39188,47.70443]},"properties":{"nom":"HOTEL INN DESIGN**","sub":"HotelTrade","cm":"44110#Châteaubriant","web":"https://hotel-inn-chateaubriant.fr/<>https://www.openrunner.com/route-details/19956504","uri":"https://data.datatourisme.fr/49/9a7e9df8-24bc-3b25-95cc-10874a6dc00a","dept":"44","reg":"pdl"}},{"type":"Feature","geometry":{"type":"Point","coordinates":[-1.29177,47.34209]},"properties":{"nom":"Découverte de la Loire en vélo et canoë-kayak -  L.A. Kayak","sub":"Rental","cm":"44521#Oudon","web":"http://www.locationkayak-loire.com/","uri":"https://data.datatourisme.fr/49/b562274e-a23c-300a-afcb-cd1751d773f3","dept":"44","reg":"pdl"}},{"type":"Feature","geometry":{"type":"Point","coordinates":[-2.26634,47.32052]},"properties":{"nom":"LA CHAUMIÈRE DU CHAMP D'OR","sub":"LodgingBusiness","cm":"44117#Saint-André-des-Eaux","web":"http://www.lechamp-dor.fr/la_chaumiere.html","uri":"https://data.datatourisme.fr/49/2a31fa34-a8a8-306f-8d1b-5f1aa39fff7b","dept":"44","reg":"pdl"}},{"type":"Feature","geometry":{"type":"Point","coordinates":[-2.24267,47.13484]},"properties":{"nom":"VILLAGE VACANCES LE SOLEIL DE JADE","sub":"CollectiveAccommodation","cm":"44770#Préfailles","web":"http://www.soleildejade.com/","uri":"https://data.datatourisme.fr/49/3f8a09e1-7488-30ef-bf11-2bb4dfbd2aec","dept":"44","reg":"pdl"}},{"type":"Feature","geometry":{"type":"Point","coordinates":[-2.24193,47.13469]},"properties":{"nom":"Gîte d'étape au Soleil de Jade","sub":"CollectiveAccommodation","cm":"44770#Préfailles","web":"http://www.soleildejade.com/","uri":"https://data.datatourisme.fr/49/b269f325-9f71-3597-8e16-fe479db8a20d","dept":"44","reg":"pdl"}},{"type":"Feature","geometry":{"type":"Point","coordinates":[-1.24026,47.15443]},"properties":{"nom":"Gîte Jardin Cléray","sub":"LodgingBusiness","cm":"44330#Vallet","web":"http://www.jardincleray.fr/","uri":"https://data.datatourisme.fr/49/2ba0d80a-6c6f-31e0-b10b-e0d9bce126af","dept":"44","reg":"pdl"}},{"type":"Feature","geometry":{"type":"Point","coordinates":[-1.49759,47.42835]},"properties":{"nom":"CAMPING DU PORT MULON ***","sub":"Camping","cm":"44390#Nort-sur-Erdre","web":"https://www.night-and-day.fr/camping/35-camping-du-port-mulon","uri":"https://data.datatourisme.fr/49/20be9aba-39d6-3002-b393-659899e7c86d","dept":"44","reg":"pdl"}},{"type":"Feature","geometry":{"type":"Point","coordinates":[-1.65256,47.41479]},"properties":{"nom":"CAMPING LA PINDIERE ***","sub":"Camping","cm":"44810#Héric","web":"http://www.camping-la-pindiere.com/","uri":"https://data.datatourisme.fr/49/214edc1f-64a0-3ff7-93df-b4cb15410abb","dept":"44","reg":"pdl"}},{"type":"Feature","geometry":{"type":"Point","coordinates":[-1.45378,47.25165]},"properties":{"nom":"CAMPING PAUSE LOIRE (BELLE RIVIÈRE)","sub":"Camping","cm":"44980#Sainte-Luce-sur-Loire","web":"http://www.camping-belleriviere.com/","uri":"https://data.datatourisme.fr/49/1fc1c7b1-8b05-307d-bcaa-7065261b7627","dept":"44","reg":"pdl"}},{"type":"Feature","geometry":{"type":"Point","coordinates":[-1.53969,47.20775]},"properties":{"nom":"SEVEN URBAN SUITES NANTES CENTRE","sub":"HolidayResort","cm":"44200#Nantes","web":"https://www.7urbansuites.fr/","uri":"https://data.datatourisme.fr/49/2f95685f-f500-376a-a6a2-5820825c8103","dept":"44","reg":"pdl"}},{"type":"Feature","geometry":{"type":"Point","coordinates":[-1.98447,47.0367]},"properties":{"nom":"CAMPING LE DOMAINE DU COLLET - ROULOTTES","sub":"LodgingBusiness","cm":"44760#Les Moutiers-en-Retz","web":"http://www.domaine-du-collet.com/","uri":"https://data.datatourisme.fr/49/1f827e6e-293c-3bc4-967b-2ab065def035","dept":"44","reg":"pdl"}},{"type":"Feature","geometry":{"type":"Point","coordinates":[-1.98453,47.03573]},"properties":{"nom":"Camping Le Domaine du Collet","sub":"Camping","cm":"44760#Les Moutiers-en-Retz","web":"http://www.domaine-du-collet.com/","uri":"https://data.datatourisme.fr/49/54923ee0-7aec-3705-bc3f-cf1526051acc","dept":"44","reg":"pdl"}},{"type":"Feature","geometry":{"type":"Point","coordinates":[-2.2674,47.24142]},"properties":{"nom":"LE CLO JANO","sub":"LodgingBusiness","cm":"44600#Saint-Nazaire","web":null,"uri":"https://data.datatourisme.fr/49/20a1893a-1a4e-3965-9985-ecd54872eb1a","dept":"44","reg":"pdl"}},{"type":"Feature","geometry":{"type":"Point","coordinates":[-1.54538,47.21753]},"properties":{"nom":"OLDEGAR Hôtel-Bar-Musique","sub":"Hotel","cm":"44000#Nantes","web":"https://www.oldegar-nantes.com/","uri":"https://data.datatourisme.fr/49/2d8cdf85-f6af-3ffd-9c76-f40108765bf9","dept":"44","reg":"pdl"}},{"type":"Feature","geometry":{"type":"Point","coordinates":[-1.5573,47.21429]},"properties":{"nom":"HÔTEL IBIS STYLES NANTES CENTRE PLACE ROYALE","sub":"Hotel","cm":"44000#Nantes","web":"https://all.accor.com/","uri":"https://data.datatourisme.fr/49/00dc7eed-9d81-36c6-b2d9-cd96f3f42f5c","dept":"44","reg":"pdl"}},{"type":"Feature","geometry":{"type":"Point","coordinates":[-1.5629,47.21406]},"properties":{"nom":"HOTEL AMIRAL","sub":"Hotel","cm":"44000#Nantes","web":"http://www.hotel-nantes.fr/","uri":"https://data.datatourisme.fr/49/01f70554-f96e-3920-937d-a58cbd34119e","dept":"44","reg":"pdl"}},{"type":"Feature","geometry":{"type":"Point","coordinates":[-1.40598,47.60173]},"properties":{"nom":"Les Ruchettes","sub":"LodgingBusiness","cm":"44520#Moisdon-la-Rivière","web":"https://www.gites-de-france-loire-atlantique.com/fr/location/locations-gites-moisdon-la-riviere-les-ruchettes-h44g012096","uri":"https://data.datatourisme.fr/49/68b6e0af-ffb4-3919-968e-05ba284c934d","dept":"44","reg":"pdl"}},{"type":"Feature","geometry":{"type":"Point","coordinates":[-2.03739,47.08438]},"properties":{"nom":"Camping Chadotel Les Ecureuils","sub":"Camping","cm":"44760#La Bernerie-en-Retz","web":"https://www.chadotel.com/camping-les-ecureuils-la-bernerie-en-retz/","uri":"https://data.datatourisme.fr/49/ab6c2c70-c037-38cf-93b4-266babe98820","dept":"44","reg":"pdl"}},{"type":"Feature","geometry":{"type":"Point","coordinates":[-1.57873,47.19208]},"properties":{"nom":"HÔTEL CAMPANILE REZÉ","sub":"Hotel","cm":"44400#Rezé","web":"http://www.campanile-nantes-sud-reze-aeroport.fr/fr","uri":"https://data.datatourisme.fr/49/ae64807a-1763-3ed2-9913-a6ec6ae848b9","dept":"44","reg":"pdl"}},{"type":"Feature","geometry":{"type":"Point","coordinates":[-1.64825,47.23397]},"properties":{"nom":"HÔTEL B&B NANTES ATLANTIS LE ZENITH","sub":"Hotel","cm":"44821#Saint-Herblain","web":"http://www.hotel-bb.com/","uri":"https://data.datatourisme.fr/49/78f81fb1-ec95-325a-8383-14022221aef1","dept":"44","reg":"pdl"}},{"type":"Feature","geometry":{"type":"Point","coordinates":[-1.55671,47.21725]},"properties":{"nom":"HÔTEL LA PÉROUSE","sub":"Hotel","cm":"44000#Nantes","web":"http://www.hotel-laperouse.fr/","uri":"https://data.datatourisme.fr/49/a13f989c-8fa5-3b17-a21a-e27e51cb7185","dept":"44","reg":"pdl"}},{"type":"Feature","geometry":{"type":"Point","coordinates":[-1.64119,47.04216]},"properties":{"nom":"VILLAGE NATURE INSOLITE  \"LES RIVES DE GRAND LIEU\"","sub":"Camping","cm":"44310#Saint-Philbert-de-Grand-Lieu","web":"http://www.lesrivesdegrandlieu.com/","uri":"https://data.datatourisme.fr/49/313c5c94-f700-3013-8ff5-789eaf5c6de6","dept":"44","reg":"pdl"}},{"type":"Feature","geometry":{"type":"Point","coordinates":[-1.64068,47.04202]},"properties":{"nom":"AIRE DU VILLAGE DES RIVES DE GRAND LIEU","sub":"CampingAndCaravanning","cm":"44310#Saint-Philbert-de-Grand-Lieu","web":null,"uri":"https://data.datatourisme.fr/49/4575e7c8-a235-34dd-b28c-afe7de903440","dept":"44","reg":"pdl"}},{"type":"Feature","geometry":{"type":"Point","coordinates":[-1.62705,47.26537]},"properties":{"nom":"HÔTEL DU PARC","sub":"Hotel","cm":"44700#Orvault","web":"http://www.hotel-du-parc-nantes.com/","uri":"https://data.datatourisme.fr/49/c89dbd94-0336-3a04-b52d-2e9edffea4e8","dept":"44","reg":"pdl"}},{"type":"Feature","geometry":{"type":"Point","coordinates":[-1.61947,47.24841]},"properties":{"nom":"HÔTEL IBIS BUDGET NANTES NORD SAINT HERBLAIN","sub":"Hotel","cm":"44800#Saint-Herblain","web":"https://all.accor.com/","uri":"https://data.datatourisme.fr/49/cc2bd274-0743-328a-a487-f54d9764d15a","dept":"44","reg":"pdl"}},{"type":"Feature","geometry":{"type":"Point","coordinates":[-1.50179,47.24644]},"properties":{"nom":"HÔTEL F1 - NANTES EST - PORTE DE SAINTE LUCE","sub":"Hotel","cm":"44300#Nantes","web":"https://all.accor.com/","uri":"https://data.datatourisme.fr/49/6df0795c-11c5-3182-9350-96a84a9e2a03","dept":"44","reg":"pdl"}},{"type":"Feature","geometry":{"type":"Point","coordinates":[-1.33348,47.13665]},"properties":{"nom":"Gîte la Brilletterie dans le Vignoble Nantais à LE PALLET - 4 personnes","sub":"LodgingBusiness","cm":"44330#Le Pallet","web":null,"uri":"https://data.datatourisme.fr/49/ca9acc00-881c-3447-87fb-7f908b53160d","dept":"44","reg":"pdl"}},{"type":"Feature","geometry":{"type":"Point","coordinates":[-2.16814,47.15995]},"properties":{"nom":"Camping Le Soleya","sub":"Camping","cm":"44730#Saint-Michel-Chef-Chef","web":"http://www.campinglesoleya.com/","uri":"https://data.datatourisme.fr/49/0f8e70c9-2711-3b53-8765-4decdcb042fe","dept":"44","reg":"pdl"}},{"type":"Feature","geometry":{"type":"Point","coordinates":[-2.16814,47.15995]},"properties":{"nom":"Camping Le Soleya","sub":"CampingAndCaravanning","cm":"44730#Saint-Michel-Chef-Chef","web":"http://www.campinglesoleya.com/","uri":"https://data.datatourisme.fr/49/242a6e02-90f9-381f-9748-4c7a67d7852b","dept":"44","reg":"pdl"}},{"type":"Feature","geometry":{"type":"Point","coordinates":[-2.01364,47.06515]},"properties":{"nom":"L'Hermitage des Dunes","sub":"Camping","cm":"44760#Les Moutiers-en-Retz","web":"http://www.hermitagedesdunes.com/","uri":"https://data.datatourisme.fr/49/17a4e4cb-7fd7-3ea8-ac2b-43a192e50245","dept":"44","reg":"pdl"}},{"type":"Feature","geometry":{"type":"Point","coordinates":[-1.94553,47.39168]},"properties":{"nom":"LA GAUBRETIÈRE","sub":"LodgingBusiness","cm":"44750#Campbon","web":null,"uri":"https://data.datatourisme.fr/49/12ff7d89-b36d-3b29-907a-092d6a3c8060","dept":"44","reg":"pdl"}},{"type":"Feature","geometry":{"type":"Point","coordinates":[-1.94756,47.39341]},"properties":{"nom":"BELLE MAISON À CAMPBON","sub":"LodgingBusiness","cm":"44750#Campbon","web":null,"uri":"https://data.datatourisme.fr/49/0795e37c-1235-39cd-9520-0cc7a5cf4d34","dept":"44","reg":"pdl"}},{"type":"Feature","geometry":{"type":"Point","coordinates":[-2.15102,47.2051]},"properties":{"nom":"SIBLU LES PIERRES COUCHÉES","sub":"Camping","cm":"44250#Saint-Brevin-les-Pins","web":"https://siblu.fr/camping/france/cote-atlantique-nord/pays-de-la-loire/les-pierres-couchees","uri":"https://data.datatourisme.fr/49/fd605f5a-28d4-3dee-992f-595272325c45","dept":"44","reg":"pdl"}},{"type":"Feature","geometry":{"type":"Point","coordinates":[-2.11207,47.22359]},"properties":{"nom":"LES PEUPLIERS","sub":"Camping","cm":"44320#Saint-Père-en-Retz","web":null,"uri":"https://data.datatourisme.fr/49/14f6f6e1-f143-3c6a-998c-5e9c2ab92b45","dept":"44","reg":"pdl"}},{"type":"Feature","geometry":{"type":"Point","coordinates":[-1.53867,47.39716]},"properties":{"nom":"LA GRANGE","sub":"LodgingBusiness","cm":"44390#Casson","web":null,"uri":"https://data.datatourisme.fr/49/e3d62b84-862a-37c3-a8b7-4c42965f74bf","dept":"44","reg":"pdl"}},{"type":"Feature","geometry":{"type":"Point","coordinates":[-1.53867,47.39716]},"properties":{"nom":"L'ATELIER","sub":"LodgingBusiness","cm":"44390#Casson","web":null,"uri":"https://data.datatourisme.fr/49/bd1509f3-5b82-3ebb-872d-304db5b830ba","dept":"44","reg":"pdl"}},{"type":"Feature","geometry":{"type":"Point","coordinates":[-2.21067,47.27943]},"properties":{"nom":"LA BELLE ETOILE","sub":"Hotel","cm":"44600#Saint-Nazaire","web":"http://www.hotellabelleetoile44.fr/","uri":"https://data.datatourisme.fr/49/5223f771-ec08-32be-a857-bcdd922e0e8e","dept":"44","reg":"pdl"}},{"type":"Feature","geometry":{"type":"Point","coordinates":[-2.20904,47.29534]},"properties":{"nom":"PREMIERE CLASSE SAINT-NAZAIRE-TRIGNAC","sub":"Hotel","cm":"44570#Trignac","web":"http://www.premiere-classe-saint-nazaire-trignac.fr/","uri":"https://data.datatourisme.fr/49/595ca8ad-9dc4-3305-9e4a-cf04695e1dfe","dept":"44","reg":"pdl"}},{"type":"Feature","geometry":{"type":"Point","coordinates":[-2.26195,47.25635]},"properties":{"nom":"APPART'CITY SAINT-NAZAIRE OCEAN","sub":"HolidayResort","cm":"44600#Saint-Nazaire","web":"https://www.appartcity.com/fr/destinations/pays-de-la-loire/saint-nazaire/saint-nazaire-ocean.html","uri":"https://data.datatourisme.fr/49/8d1937d9-95d6-3b0c-9465-059d2d34b1f1","dept":"44","reg":"pdl"}},{"type":"Feature","geometry":{"type":"Point","coordinates":[-1.63389,47.22948]},"properties":{"nom":"SURE HOTEL BY BEST WESTERN NANTES SAINT-HERBLAIN","sub":"Hotel","cm":"44800#Saint-Herblain","web":"https://www.surehotel-saintherblain.com/","uri":"https://data.datatourisme.fr/49/56cd05ab-2d64-32a3-91f1-39e8609a6884","dept":"44","reg":"pdl"}},{"type":"Feature","geometry":{"type":"Point","coordinates":[-1.61139,47.23167]},"properties":{"nom":"HÔTEL DE LA MARINE","sub":"Hotel","cm":"44800#Saint-Herblain","web":"http://www.hotel-marine.fr/","uri":"https://data.datatourisme.fr/49/b49dc229-e755-3722-9ed6-710fded54b8a","dept":"44","reg":"pdl"}},{"type":"Feature","geometry":{"type":"Point","coordinates":[-1.56092,47.21182]},"properties":{"nom":"HÔTEL KYRIAD NANTES CENTRE GRASLIN","sub":"Hotel","cm":"44000#Nantes","web":"http://www.kyriad-nantes-graslin.fr/","uri":"https://data.datatourisme.fr/49/b5eaf3fb-4d48-3aeb-a586-44c83dc74bc9","dept":"44","reg":"pdl"}},{"type":"Feature","geometry":{"type":"Point","coordinates":[-1.54847,47.22173]},"properties":{"nom":"HÔTEL ABAT JOUR","sub":"Hotel","cm":"44000#Nantes","web":"http://www.hotelabatjournantes.fr/","uri":"https://data.datatourisme.fr/49/bb7e38cc-9cad-3668-a936-724a303b0c2d","dept":"44","reg":"pdl"}},{"type":"Feature","geometry":{"type":"Point","coordinates":[-1.55503,47.22135]},"properties":{"nom":"LOGIS HÔTEL CHATEAUBRIAND","sub":"Hotel","cm":"44000#Nantes","web":"http://www.hotel-chateaubriand-nantes.fr/","uri":"https://data.datatourisme.fr/49/e5113e04-8004-3ab2-8c09-d2308bb737a3","dept":"44","reg":"pdl"}},{"type":"Feature","geometry":{"type":"Point","coordinates":[-1.37708,47.72052]},"properties":{"nom":"LE CHÂTEAUBRIANT***","sub":"HotelTrade","cm":"44110#Châteaubriant","web":"http://www.hotellechateaubriant.fr/<>https://www.facebook.com/hotellechateaubriant/<>https://www.brasserielenewtown.fr/","uri":"https://data.datatourisme.fr/49/52b487fa-6d53-30b5-97ce-22cad7d21a65","dept":"44","reg":"pdl"}},{"type":"Feature","geometry":{"type":"Point","coordinates":[-2.15567,47.11581]},"properties":{"nom":"Camping La Madrague","sub":"Camping","cm":"44210#Pornic","web":"https://www.capfun.com/camping-france-pays_de_la_loire-madrague-FR.html","uri":"https://data.datatourisme.fr/49/59d645f7-42ad-3fb1-8cfd-3c4365460579","dept":"44","reg":"pdl"}},{"type":"Feature","geometry":{"type":"Point","coordinates":[-2.27433,47.26015]},"properties":{"nom":"ADAGIO ACCESS SAINT-NAZAIRE","sub":"HolidayResort","cm":"44600#Saint-Nazaire","web":"http://www.adagio-city.com/","uri":"https://data.datatourisme.fr/49/c7289fae-26fb-3ff0-926d-84a33e1a1e36","dept":"44","reg":"pdl"}},{"type":"Feature","geometry":{"type":"Point","coordinates":[-1.22622,47.49511]},"properties":{"nom":"Gîte de la Bourdinière","sub":"LodgingBusiness","cm":"44440#Pannecé","web":"https://www.facebook.com/pages/G%C3%AEte-de-La-Bourdini%C3%A8re/1579463582306825","uri":"https://data.datatourisme.fr/49/ba8a872e-ff2d-34f6-9208-975c8e8d5818","dept":"44","reg":"pdl"}},{"type":"Feature","geometry":{"type":"Point","coordinates":[-1.5607,47.21895]},"properties":{"nom":"HÔTEL IBIS NANTES CENTRE TOUR BRETAGNE","sub":"Hotel","cm":"44000#Nantes","web":"https://all.accor.com/hotel/1394/index.fr.shtml","uri":"https://data.datatourisme.fr/49/0f03f1e5-283a-33ff-b995-31db7a4c1285","dept":"44","reg":"pdl"}},{"type":"Feature","geometry":{"type":"Point","coordinates":[-2.21085,47.28514]},"properties":{"nom":"LE BERRY","sub":"Hotel","cm":"44600#Saint-Nazaire","web":"http://www.hotelleberry.com/","uri":"https://data.datatourisme.fr/49/b45349e4-9a7c-322d-8d1a-8c3d2e6b3bab","dept":"44","reg":"pdl"}},{"type":"Feature","geometry":{"type":"Point","coordinates":[-1.63724,47.22635]},"properties":{"nom":"HÔTEL IBIS NANTES ST HERBLAIN","sub":"Hotel","cm":"44800#Saint-Herblain","web":"http://www.hotel-saintherblain.com/","uri":"https://data.datatourisme.fr/49/00c5e492-a0b4-399f-8801-a781a0295f94","dept":"44","reg":"pdl"}},{"type":"Feature","geometry":{"type":"Point","coordinates":[-1.54657,47.21733]},"properties":{"nom":"THE ORIGINALS NOVELLA NANTES CENTRE-GARE","sub":"Hotel","cm":"44000#Nantes","web":"https://www.novella-nantes-centre.com/","uri":"https://data.datatourisme.fr/49/03652b80-1a8f-3dfb-8cc5-77b3d52c7e1a","dept":"44","reg":"pdl"}},{"type":"Feature","geometry":{"type":"Point","coordinates":[-1.54322,47.21615]},"properties":{"nom":"HÔTEL MERCURE NANTES CENTRE GARE","sub":"HotelTrade","cm":"44000#Nantes","web":"http://www.mercure.com/fr/hotel-3448-hotel-mercure-nantes-centre-gare/index.shtml","uri":"https://data.datatourisme.fr/49/b1d89af5-6f78-3939-8cab-4914e0853779","dept":"44","reg":"pdl"}},{"type":"Feature","geometry":{"type":"Point","coordinates":[-1.381,47.69779]},"properties":{"nom":"DOMAINE DE LA FERRIERE***","sub":"HotelTrade","cm":"44110#Châteaubriant","web":"http://www.facebook.com/laferrierechateaubriant.fr<>http://www.hotellaferriere.com/","uri":"https://data.datatourisme.fr/49/cc5e888c-abbb-3120-b6ec-a7f17de4ca5d","dept":"44","reg":"pdl"}},{"type":"Feature","geometry":{"type":"Point","coordinates":[-1.2614,47.19477]},"properties":{"nom":"Gîte de l'Aufrère","sub":"LodgingBusiness","cm":"44330#Vallet","web":"https://www.accueil-paysan.com/fr/catalog/n/structure/419/?embeded=true","uri":"https://data.datatourisme.fr/49/a884de2e-424b-374e-ab02-dd1b82f33c61","dept":"44","reg":"pdl"}},{"type":"Feature","geometry":{"type":"Point","coordinates":[-1.42276,47.28118]},"properties":{"nom":"Nuit en tonneau au Vignoble Marchais","sub":"LodgingBusiness","cm":"44470#Thouaré-sur-Loire","web":"http://www.vignoblemarchais.fr/","uri":"https://data.datatourisme.fr/49/ad30f460-7e21-37df-8324-694e4e9e776f","dept":"44","reg":"pdl"}},{"type":"Feature","geometry":{"type":"Point","coordinates":[-1.38224,47.14259]},"properties":{"nom":"Chambre insolite Tonneau Domaine des 3 Versants","sub":"LodgingBusiness","cm":"44690#Maisdon-sur-Sèvre","web":"http://www.domaine3versants.fr/","uri":"https://data.datatourisme.fr/49/cd6c0e8e-65ec-3f52-b27e-45fd6be5bd9e","dept":"44","reg":"pdl"}},{"type":"Feature","geometry":{"type":"Point","coordinates":[-1.53867,47.39713]},"properties":{"nom":"CHAMBRE \"LA SOUE\"","sub":"BedAndBreakfast","cm":"44390#Casson","web":"https://www.domaine-du-belair.fr/","uri":"https://data.datatourisme.fr/49/fe38f333-6a2c-32eb-9790-50caa7f61e55","dept":"44","reg":"pdl"}},{"type":"Feature","geometry":{"type":"Point","coordinates":[-1.7272,47.33132]},"properties":{"nom":"Les Grands Bois 2","sub":"LodgingBusiness","cm":"44360#Vigneux-de-Bretagne","web":null,"uri":"https://data.datatourisme.fr/49/182d77cd-d6cd-3f16-8ba2-53838c545a72","dept":"44","reg":"pdl"}},{"type":"Feature","geometry":{"type":"Point","coordinates":[-1.45026,47.37505]},"properties":{"nom":"GITE DE GROUPES \" FERME DU MARAIS DE MAZEROLLES\"","sub":"CollectiveAccommodation","cm":"44850#Saint-Mars-du-Désert","web":"https://www.mazerolles.com/","uri":"https://data.datatourisme.fr/49/fee8aa99-0859-353f-8680-746a0cc5452e","dept":"44","reg":"pdl"}},{"type":"Feature","geometry":{"type":"Point","coordinates":[-1.45276,47.3747]},"properties":{"nom":"LE CAMPING DE MAZEROLLES","sub":"Camping","cm":"44850#Saint-Mars-du-Désert","web":"https://www.mazerolles.com/camping","uri":"https://data.datatourisme.fr/49/75e404f2-d7de-3b40-84bc-d7bc05fbe41d","dept":"44","reg":"pdl"}},{"type":"Feature","geometry":{"type":"Point","coordinates":[-2.20535,47.27747]},"properties":{"nom":"SUITE-HOME APPARTEMENT D'EXCEPTION 4*","sub":"LodgingBusiness","cm":"44600#Saint-Nazaire","web":null,"uri":"https://data.datatourisme.fr/49/6e2e9da3-bd2e-3448-a60b-27d7282eb988","dept":"44","reg":"pdl"}},{"type":"Feature","geometry":{"type":"Point","coordinates":[-2.28065,47.23826]},"properties":{"nom":"Studio face mer","sub":"LodgingBusiness","cm":"44600#Saint-Nazaire","web":null,"uri":"https://data.datatourisme.fr/49/04068474-90fe-3e65-8161-cae1e01a9eac","dept":"44","reg":"pdl"}},{"type":"Feature","geometry":{"type":"Point","coordinates":[-2.26757,47.24162]},"properties":{"nom":"CAMPING CAPFUN L'EVE","sub":"Camping","cm":"44600#Saint-Nazaire","web":"https://www.capfun.com/camping-france-pays_de_la_loire-l_eve-FR.html?referer=622016","uri":"https://data.datatourisme.fr/49/cae0ce31-19ab-3988-8466-ab9f45d40b95","dept":"44","reg":"pdl"}},{"type":"Feature","geometry":{"type":"Point","coordinates":[-1.86146,47.46835]},"properties":{"nom":"Le Nid d'Omer","sub":"BedAndBreakfast","cm":"44130#Blain","web":null,"uri":"https://data.datatourisme.fr/49/0ef57ff6-2741-3ac8-a804-3aa87c869c07","dept":"44","reg":"pdl"}},{"type":"Feature","geometry":{"type":"Point","coordinates":[-1.76751,47.526]},"properties":{"nom":"AUBERGE DE LA FORÊT","sub":"HotelTrade","cm":"44130#Le Gâvre","web":"http://www.auberge-delaforet.fr/","uri":"https://data.datatourisme.fr/49/01e7ceff-7f7d-3904-8414-a09acc7d372a","dept":"44","reg":"pdl"}},{"type":"Feature","geometry":{"type":"Point","coordinates":[-1.76733,47.52582]},"properties":{"nom":"RESTAURANT DE L'AUBERGE DE LA FORET","sub":"HotelRestaurant","cm":"44130#Le Gâvre","web":"http://www.auberge-delaforet.fr/","uri":"https://data.datatourisme.fr/49/e4c3f54d-7b8d-3c97-b84a-69f5a578c4b3","dept":"44","reg":"pdl"}},{"type":"Feature","geometry":{"type":"Point","coordinates":[-1.76738,47.52583]},"properties":{"nom":"VILLAGE BY LOGIS DE LA MAILLARDAIS - AUBERGE DE LA FORÊT","sub":"LodgingBusiness","cm":"44130#Le Gâvre","web":"http://www.auberge-delaforet.fr/","uri":"https://data.datatourisme.fr/49/31e70e75-7ed3-3f17-85d9-c3aa932ac1c4","dept":"44","reg":"pdl"}},{"type":"Feature","geometry":{"type":"Point","coordinates":[-1.66292,47.14294]},"properties":{"nom":"HÔTEL-RESTAURANT KYRIAD LES CHAMPS D'AVAUX","sub":"Hotel","cm":"44830#Bouaye","web":"https://www.champsdavaux.com/","uri":"https://data.datatourisme.fr/49/caf916d0-b946-3a5a-a017-bb7d665b4fda","dept":"44","reg":"pdl"}},{"type":"Feature","geometry":{"type":"Point","coordinates":[-1.66292,47.14294]},"properties":{"nom":"RESTAURANT LES CHAMPS D'AVAUX","sub":"HotelRestaurant","cm":"44830#Bouaye","web":"https://www.champsdavaux.com/","uri":"https://data.datatourisme.fr/49/ec1ab244-99c8-3d04-8353-4f58d0fb75da","dept":"44","reg":"pdl"}},{"type":"Feature","geometry":{"type":"Point","coordinates":[-1.54351,47.21361]},"properties":{"nom":"HÔTEL NOVOTEL NANTES CENTRE GARE","sub":"Hotel","cm":"44000#Nantes","web":"https://all.accor.com/","uri":"https://data.datatourisme.fr/49/fe68f06b-2b03-39bc-9aa8-e3b7f8cfe24c","dept":"44","reg":"pdl"}},{"type":"Feature","geometry":{"type":"Point","coordinates":[-1.59701,47.15818]},"properties":{"nom":"HÔTEL OCEANIA NANTES AÉROPORT","sub":"Hotel","cm":"44340#Bouguenais","web":"http://www.oceaniahotels.com/","uri":"https://data.datatourisme.fr/49/ff1bc38c-e2f4-326f-ad4c-4053fd04de12","dept":"44","reg":"pdl"}},{"type":"Feature","geometry":{"type":"Point","coordinates":[-1.59716,47.15824]},"properties":{"nom":"HÔTEL ESCALE OCEANIA","sub":"Hotel","cm":"44340#Bouguenais","web":"https://www.oceaniahotels.com/","uri":"https://data.datatourisme.fr/49/5e11073c-5a7c-32b7-8c80-645935f782ed","dept":"44","reg":"pdl"}},{"type":"Feature","geometry":{"type":"Point","coordinates":[-1.8818,47.28716]},"properties":{"nom":"Camping de la Loire","sub":"Camping","cm":"44360#Cordemais","web":"https://www.campingdelaloire.com/","uri":"https://data.datatourisme.fr/49/1ba90830-af1d-337c-8a6c-f030e688cd63","dept":"44","reg":"pdl"}},{"type":"Feature","geometry":{"type":"Point","coordinates":[-1.30001,47.34543]},"properties":{"nom":"Le Petit Buron","sub":"LodgingBusiness","cm":"44521#Oudon","web":"https://www.gites-de-france-loire-atlantique.com/fr/location/locations-gites-oudon-le-petit-buron-h44g012116","uri":"https://data.datatourisme.fr/49/015af12a-9d57-3b85-bf2e-94cc99d4eeb0","dept":"44","reg":"pdl"}},{"type":"Feature","geometry":{"type":"Point","coordinates":[-1.80758,47.63798]},"properties":{"nom":"L'Arbre émaillé","sub":"BedAndBreakfast","cm":"44290#Guémené-Penfao","web":"http://www.larbreemaille.com/","uri":"https://data.datatourisme.fr/49/01ea409d-fbe4-3669-b656-ab81c3d8ba00","dept":"44","reg":"pdl"}},{"type":"Feature","geometry":{"type":"Point","coordinates":[-1.80758,47.63798]},"properties":{"nom":"La P'tite Maison de L'arbre émaillé","sub":"LodgingBusiness","cm":"44290#Guémené-Penfao","web":"http://www.larbreemaille.com/","uri":"https://data.datatourisme.fr/49/2938475b-015a-38bf-93ed-7b30f844cefb","dept":"44","reg":"pdl"}},{"type":"Feature","geometry":{"type":"Point","coordinates":[-1.27284,47.15428]},"properties":{"nom":"Gîte du Champs Cartier","sub":"LodgingBusiness","cm":"44330#Vallet","web":"https://www.gites-de-france-loire-atlantique.com/fr/location/locations-gites-vallet-44g106961-h44g011735","uri":"https://data.datatourisme.fr/49/3e693d4a-1180-30a0-9ab5-5d726186f7bb","dept":"44","reg":"pdl"}},{"type":"Feature","geometry":{"type":"Point","coordinates":[-2.20432,47.28229]},"properties":{"nom":"Maison 6 personnes à Saint-Nazaire :  \"Une ville à la mer\"","sub":"LodgingBusiness","cm":"44600#Saint-Nazaire","web":null,"uri":"https://data.datatourisme.fr/49/13ac0410-8619-3c44-85d6-b31738a4fd71","dept":"44","reg":"pdl"}},{"type":"Feature","geometry":{"type":"Point","coordinates":[-1.74262,47.13127]},"properties":{"nom":"Best Western Hôtel Nuit de Retz","sub":"HotelTrade","cm":"44710#Port-Saint-Père","web":"http://www.auberge-pays-retz.fr/","uri":"https://data.datatourisme.fr/49/2b07f831-6ed7-33a9-8f5c-4e393b235e07","dept":"44","reg":"pdl"}},{"type":"Feature","geometry":{"type":"Point","coordinates":[-2.07742,47.27726]},"properties":{"nom":"RANDORTOIR MANOIR DE L'ESPERANCE","sub":"LodgingBusiness","cm":"44560#Corsept","web":"http://www.manoirdelesperance.fr/","uri":"https://data.datatourisme.fr/49/8eb4afa3-0d85-3ba7-874d-45178c6096d0","dept":"44","reg":"pdl"}},{"type":"Feature","geometry":{"type":"Point","coordinates":[-2.07742,47.27726]},"properties":{"nom":"PÊCHERIE PERCHÉE MANOIR DE L'ESPERANCE","sub":"LodgingBusiness","cm":"44560#Corsept","web":"http://www.manoirdelesperance.fr/","uri":"https://data.datatourisme.fr/49/318d2335-bcb2-3a5e-8cec-76b02df952ee","dept":"44","reg":"pdl"}},{"type":"Feature","geometry":{"type":"Point","coordinates":[-2.07751,47.27733]},"properties":{"nom":"CAMPING DU MANOIR DE L'ESPÉRANCE","sub":"Camping","cm":"44560#Corsept","web":"http://www.manoirdelesperance.fr/","uri":"https://data.datatourisme.fr/49/2b675ebe-bd9e-3868-a4af-bfec4b3fb2e1","dept":"44","reg":"pdl"}},{"type":"Feature","geometry":{"type":"Point","coordinates":[-2.07751,47.27736]},"properties":{"nom":"MANOIR DE L'ESPÉRANCE","sub":"BedAndBreakfast","cm":"44560#Corsept","web":"https://manoirdelesperance.fr/","uri":"https://data.datatourisme.fr/49/c61c5e69-54e5-3c7a-a9ae-85d3793bcf70","dept":"44","reg":"pdl"}},{"type":"Feature","geometry":{"type":"Point","coordinates":[-2.07749,47.27731]},"properties":{"nom":"GÎTE DE GROUPE - MANOIR DE L'ESPÉRANCE","sub":"CollectiveAccommodation","cm":"44560#Corsept","web":"http://www.manoirdelesperance.fr/","uri":"https://data.datatourisme.fr/49/0a5a67c3-db02-324a-b00e-a7549f1155cc","dept":"44","reg":"pdl"}},{"type":"Feature","geometry":{"type":"Point","coordinates":[-1.59679,47.15809]},"properties":{"nom":"HÔTEL B&B NANTES AÉROPORT","sub":"Hotel","cm":"44340#Bouguenais","web":"http://www.hotel-bb.com/fr/hotels/nantes-aeroport.htm","uri":"https://data.datatourisme.fr/49/2b18dd5e-e4e6-39fc-8749-02ea3a20649f","dept":"44","reg":"pdl"}},{"type":"Feature","geometry":{"type":"Point","coordinates":[-1.29573,47.58534]},"properties":{"nom":"La Coutancière","sub":"LodgingBusiness","cm":"44520#Grand-Auverné","web":"https://www.gites-de-france-loire-atlantique.com/fr/location/locations-gites-grand-auverne-44g606411-h44g012082","uri":"https://data.datatourisme.fr/49/33799d2f-3815-3009-b22c-b0090a7595c2","dept":"44","reg":"pdl"}},{"type":"Feature","geometry":{"type":"Point","coordinates":[-1.27839,47.08687]},"properties":{"nom":"Hôtel & Spa Best Western Plus Villa Saint Antoine","sub":"Hotel","cm":"44190#Clisson","web":"https://www.hotel-villa-saint-antoine.com/","uri":"https://data.datatourisme.fr/49/c0201c4f-056a-3b60-9850-270af2b40e5a","dept":"44","reg":"pdl"}},{"type":"Feature","geometry":{"type":"Point","coordinates":[-1.29208,47.34217]},"properties":{"nom":"Location de vélos en bord de Loire - L.A. Kayak","sub":"Rental","cm":"44521#Oudon","web":"http://www.locationkayak-loire.com/","uri":"https://data.datatourisme.fr/49/da0701c2-14fb-3929-a1b6-439307abd304","dept":"44","reg":"pdl"}},{"type":"Feature","geometry":{"type":"Point","coordinates":[-1.29177,47.34209]},"properties":{"nom":"L.A.Kayak - Loire Bike & Paddle Camp","sub":"Rental","cm":"44521#Oudon","web":"http://www.locationkayak-loire.com/","uri":"https://data.datatourisme.fr/49/f570635c-70be-3f07-a419-24e95e1a40b4","dept":"44","reg":"pdl"}},{"type":"Feature","geometry":{"type":"Point","coordinates":[-1.49393,47.43879]},"properties":{"nom":"AIRE DE STATIONNEMENT","sub":"CampingAndCaravanning","cm":"44390#Nort-sur-Erdre","web":null,"uri":"https://data.datatourisme.fr/49/cc1b7422-ca63-33c1-9d49-9ddc34983cfb","dept":"44","reg":"pdl"}},{"type":"Feature","geometry":{"type":"Point","coordinates":[-2.26841,47.25792]},"properties":{"nom":"AQUILON","sub":"HotelRestaurant","cm":"44600#Saint-Nazaire","web":"http://www.hotelaquilon.com/","uri":"https://data.datatourisme.fr/49/0673d2a5-43fc-396f-980e-0208ac458a8b","dept":"44","reg":"pdl"}},{"type":"Feature","geometry":{"type":"Point","coordinates":[-1.84065,47.05934]},"properties":{"nom":"CABANES PERCHEES LE REPAIRE DU HIBOU","sub":"LodgingBusiness","cm":"44680#Sainte-Pazanne","web":"http://www.le-repaire-du-hibou.fr/","uri":"https://data.datatourisme.fr/49/7617f927-9150-3bf0-abe5-e2001477a030","dept":"44","reg":"pdl"}},{"type":"Feature","geometry":{"type":"Point","coordinates":[-1.84074,47.05999]},"properties":{"nom":"LE REPAIRE DU HIBOU","sub":"BedAndBreakfast","cm":"44680#Sainte-Pazanne","web":"http://www.le-repaire-du-hibou.fr/","uri":"https://data.datatourisme.fr/49/32650c51-dbeb-3677-9e08-8728ced3d260","dept":"44","reg":"pdl"}},{"type":"Feature","geometry":{"type":"Point","coordinates":[-1.56315,47.21748]},"properties":{"nom":"RADISSON BLU","sub":"HotelTrade","cm":"44000#Nantes","web":"https://www.radissonhotels.com/fr-fr/hotels/radisson-blu-nantes","uri":"https://data.datatourisme.fr/49/07693b44-bca6-35ca-86bb-e1e44b79d510","dept":"44","reg":"pdl"}},{"type":"Feature","geometry":{"type":"Point","coordinates":[-1.48504,47.26908]},"properties":{"nom":"APPART'CITY NANTES CARQUEFOU","sub":"HolidayResort","cm":"44470#Carquefou","web":"http://www.appartcity.com/fr/appart-hotel/nantes-carquefou-a-carquefou.html","uri":"https://data.datatourisme.fr/49/15fdbae4-2ea9-32b3-a47a-e333c941fea1","dept":"44","reg":"pdl"}},{"type":"Feature","geometry":{"type":"Point","coordinates":[-1.25442,47.13048]},"properties":{"nom":"Domaine de la Grange","sub":"LodgingBusiness","cm":"44330#Mouzillon","web":"https://www.gites-de-france-loire-atlantique.com/fr/location/locations-gites-mouzillon-domaine-de-la-grange-h44g011732","uri":"https://data.datatourisme.fr/49/0881b06d-50ae-3fe9-bd0d-9409d5166172","dept":"44","reg":"pdl"}},{"type":"Feature","geometry":{"type":"Point","coordinates":[-1.27857,47.08701]},"properties":{"nom":"Restaurant Best Western Plus Villa Saint Antoine","sub":"HotelRestaurant","cm":"44190#Clisson","web":"https://www.hotel-villa-saint-antoine.com/restaurant-clisson/","uri":"https://data.datatourisme.fr/49/e7e71e2b-b805-341a-b330-e0559e5ba7a1","dept":"44","reg":"pdl"}},{"type":"Feature","geometry":{"type":"Point","coordinates":[-2.21492,47.27766]},"properties":{"nom":"LA COLONIALE","sub":"LodgingBusiness","cm":"44600#Saint-Nazaire","web":null,"uri":"https://data.datatourisme.fr/49/3a6df9fd-f44e-39e2-80ec-50ae84b3373e","dept":"44","reg":"pdl"}},{"type":"Feature","geometry":{"type":"Point","coordinates":[-1.4044,47.17012]},"properties":{"nom":"Gite Nature au sein des Logis du Hallay à la haie fouassière (44)","sub":"LodgingBusiness","cm":"44690#La Haie-Fouassière","web":null,"uri":"https://data.datatourisme.fr/49/c20ba067-7c0e-35ce-a3db-d09b02a01520","dept":"44","reg":"pdl"}},{"type":"Feature","geometry":{"type":"Point","coordinates":[-1.4044,47.17012]},"properties":{"nom":"Gite du parc","sub":"LodgingBusiness","cm":"44690#La Haie-Fouassière","web":null,"uri":"https://data.datatourisme.fr/49/1726c84d-ffad-39ff-9f9e-5e736cf61d6b","dept":"44","reg":"pdl"}},{"type":"Feature","geometry":{"type":"Point","coordinates":[-2.29942,47.32451]},"properties":{"nom":"gite 90m2 avec piscine dans parc de Brière","sub":"LodgingBusiness","cm":"44117#Saint-André-des-Eaux","web":null,"uri":"https://data.datatourisme.fr/49/94ca3d64-1f6a-398c-83e8-3e0e6ba8b1ef","dept":"44","reg":"pdl"}},{"type":"Feature","geometry":{"type":"Point","coordinates":[-2.1306,47.14034]},"properties":{"nom":"Camping Les Bleuets","sub":"Camping","cm":"44210#Pornic","web":"http://www.campinglesbleuets.com/","uri":"https://data.datatourisme.fr/49/9518b35c-5a8c-3abe-9efd-9c545631e930","dept":"44","reg":"pdl"}},{"type":"Feature","geometry":{"type":"Point","coordinates":[-1.29905,47.51272]},"properties":{"nom":"La Petite Buchetière","sub":"BedAndBreakfast","cm":"44440#Riaillé","web":"http://www.lapetitebuchetiere.com/","uri":"https://data.datatourisme.fr/49/d1cfb45c-3b9c-38d4-b82d-104d5244a58b","dept":"44","reg":"pdl"}},{"type":"Feature","geometry":{"type":"Point","coordinates":[-1.34918,47.31687]},"properties":{"nom":"Le Clos St Martin","sub":"LodgingBusiness","cm":"44850#Le Cellier","web":"https://www.gite-leclossaintmartin.fr/","uri":"https://data.datatourisme.fr/49/95dac23b-801a-3740-8fbe-7611282ef44d","dept":"44","reg":"pdl"}},{"type":"Feature","geometry":{"type":"Point","coordinates":[-1.1576,47.57514]},"properties":{"nom":"Maison d'hôtes Terre des Landes","sub":"BedAndBreakfast","cm":"44540#Le Pin","web":"http://www.terredeslandes.fr/","uri":"https://data.datatourisme.fr/49/d5b19b91-9a09-3525-837a-64a8d87ee713","dept":"44","reg":"pdl"}},{"type":"Feature","geometry":{"type":"Point","coordinates":[-1.29581,47.38974]},"properties":{"nom":"Auberge du Tire Bouchon","sub":"HotelRestaurant","cm":"44521#Couffé","web":"http://www.aubergedutirebouchon.com/","uri":"https://data.datatourisme.fr/49/27f6320a-9d57-3339-bad7-48d12bb4a2a0","dept":"44","reg":"pdl"}},{"type":"Feature","geometry":{"type":"Point","coordinates":[-1.37094,47.5922]},"properties":{"nom":"Gîte de la Ferronnais","sub":"LodgingBusiness","cm":"44520#Moisdon-la-Rivière","web":"https://www.gites-de-france-loire-atlantique.com/fr/location/locations-gites-moisdon-la-riviere-gite-de-la-ferronnais-h44g012083","uri":"https://data.datatourisme.fr/49/9e828428-e129-3b87-8883-4c4389bf3a44","dept":"44","reg":"pdl"}},{"type":"Feature","geometry":{"type":"Point","coordinates":[-1.30654,47.12186]},"properties":{"nom":"La Villa Blues Landes","sub":"LodgingBusiness","cm":"44330#Mouzillon","web":"https://www.la-maison-des-landes.fr/","uri":"https://data.datatourisme.fr/49/a0bc5c0a-5419-338f-a05d-88eabbd5a616","dept":"44","reg":"pdl"}},{"type":"Feature","geometry":{"type":"Point","coordinates":[-2.06986,47.10305]},"properties":{"nom":"Hôtel Eco-Domaine la Fontaine","sub":"HotelTrade","cm":"44210#Pornic","web":"http://www.ecodomaine-la-fontaine.fr/","uri":"https://data.datatourisme.fr/49/8c738bd0-c838-3617-8c6d-3e5a242d50be","dept":"44","reg":"pdl"}},{"type":"Feature","geometry":{"type":"Point","coordinates":[-2.06986,47.10305]},"properties":{"nom":"Résidence Eco-Domaine la Fontaine","sub":"HolidayResort","cm":"44210#Pornic","web":"http://www.ecodomaine-la-fontaine.fr/","uri":"https://data.datatourisme.fr/49/eacadab4-990e-303a-8235-ea005cef8ddb","dept":"44","reg":"pdl"}},{"type":"Feature","geometry":{"type":"Point","coordinates":[-2.0144,47.06942]},"properties":{"nom":"Camping de la Plage","sub":"Camping","cm":"44760#Les Moutiers-en-Retz","web":"https://www.camping-la-plage-des-oliviers.com/","uri":"https://data.datatourisme.fr/49/026b0784-9769-3112-8ac8-7e5018a442a9","dept":"44","reg":"pdl"}},{"type":"Feature","geometry":{"type":"Point","coordinates":[-2.1528,47.14087]},"properties":{"nom":"Camping Slow Village Pornic","sub":"Camping","cm":"44770#La Plaine-sur-Mer","web":"https://www.slow-village.com/destinations/pays-de-la-loire/pornic/","uri":"https://data.datatourisme.fr/49/ae423a15-a080-3173-844c-684a61bfb4a9","dept":"44","reg":"pdl"}},{"type":"Feature","geometry":{"type":"Point","coordinates":[-2.1528,47.14087]},"properties":{"nom":"Camping Slow Village Pornic","sub":"CampingAndCaravanning","cm":"44770#La Plaine-sur-Mer","web":"https://www.slow-village.com/destinations/pays-de-la-loire/pornic/","uri":"https://data.datatourisme.fr/49/ffaf1226-5c90-3d80-a0de-6adaecb0ad96","dept":"44","reg":"pdl"}},{"type":"Feature","geometry":{"type":"Point","coordinates":[-2.08021,47.10843]},"properties":{"nom":"Authentique Pornic","sub":"BedAndBreakfast","cm":"44210#Pornic","web":"https://authentique-pornic.fr/","uri":"https://data.datatourisme.fr/49/5b5ffd20-9bb2-3fb9-b2a6-1d6b5e5526a1","dept":"44","reg":"pdl"}},{"type":"Feature","geometry":{"type":"Point","coordinates":[-2.33323,47.30983]},"properties":{"nom":"RESIDENCE ST DENAC","sub":"LodgingBusiness","cm":"44117#Saint-André-des-Eaux","web":null,"uri":"https://data.datatourisme.fr/49/877edc18-8773-35e1-afff-3835456f00df","dept":"44","reg":"pdl"}},{"type":"Feature","geometry":{"type":"Point","coordinates":[-2.21243,47.28588]},"properties":{"nom":"BRIT HOTEL SAINT-NAZAIRE CENTRE","sub":"Hotel","cm":"44600#Saint-Nazaire","web":"https://hotel-saint-nazaire-korali.brithotel.fr/","uri":"https://data.datatourisme.fr/49/9679ce18-0af5-3993-bb2a-6157d938574c","dept":"44","reg":"pdl"}},{"type":"Feature","geometry":{"type":"Point","coordinates":[-1.73502,47.46191]},"properties":{"nom":"Chambre brest -","sub":"BedAndBreakfast","cm":"44130#Blain","web":null,"uri":"https://data.datatourisme.fr/49/6f60733a-aa36-38b4-b45b-ef49cfa0feff","dept":"44","reg":"pdl"}},{"type":"Feature","geometry":{"type":"Point","coordinates":[-1.73502,47.46191]},"properties":{"nom":"Chambre \"nantes\" -","sub":"BedAndBreakfast","cm":"44130#Blain","web":null,"uri":"https://data.datatourisme.fr/49/ce137795-2c5d-317a-b8b1-f2f0e96963c5","dept":"44","reg":"pdl"}},{"type":"Feature","geometry":{"type":"Point","coordinates":[-1.68692,47.14412]},"properties":{"nom":"CHATEAU DU BOIS DE LA NOE","sub":"BedAndBreakfast","cm":"44830#Bouaye","web":null,"uri":"https://data.datatourisme.fr/49/32816507-b818-30da-ab6e-4e8c089ed2ab","dept":"44","reg":"pdl"}},{"type":"Feature","geometry":{"type":"Point","coordinates":[-1.6572,47.06022]},"properties":{"nom":"Gîte st joseph","sub":"LodgingBusiness","cm":"44310#Saint-Philbert-de-Grand-Lieu","web":null,"uri":"https://data.datatourisme.fr/49/67395401-8138-3350-ae82-864a8f7c1de8","dept":"44","reg":"pdl"}},{"type":"Feature","geometry":{"type":"Point","coordinates":[-1.76777,47.46787]},"properties":{"nom":"LOCATIFS CAMPING DU CANAL","sub":"LodgingBusiness","cm":"44130#Blain","web":"https://campingducanal.fr/","uri":"https://data.datatourisme.fr/49/547dbfea-ab09-3d92-9c20-8d731d6926f8","dept":"44","reg":"pdl"}},{"type":"Feature","geometry":{"type":"Point","coordinates":[-1.5102,47.1204]},"properties":{"nom":"GITE LE BOUCHON ROUGE","sub":"CollectiveAccommodation","cm":"44140#Le Bignon","web":"http://www.bouchonrouge-gites.fr/fr/logement","uri":"https://data.datatourisme.fr/49/4385ad96-d32c-3c2b-803e-d91b436302a5","dept":"44","reg":"pdl"}},{"type":"Feature","geometry":{"type":"Point","coordinates":[-2.22827,47.14379]},"properties":{"nom":"Camping de la Prée","sub":"Camping","cm":"44770#Préfailles","web":"http://www.camping-prefailles.fr/index.php/fr/","uri":"https://data.datatourisme.fr/49/ee726d74-a475-31a0-887a-e814fd9c45e4","dept":"44","reg":"pdl"}},{"type":"Feature","geometry":{"type":"Point","coordinates":[-2.16152,47.18202]},"properties":{"nom":"Camping du Bord de Mer","sub":"Camping","cm":"44730#Saint-Michel-Chef-Chef","web":"http://www.borddemer-camping.com/","uri":"https://data.datatourisme.fr/49/ef017a18-f47a-3120-bbff-b8f57db0a8ae","dept":"44","reg":"pdl"}},{"type":"Feature","geometry":{"type":"Point","coordinates":[-2.20339,47.12547]},"properties":{"nom":"Camping le Port Meleu","sub":"Camping","cm":"44770#Préfailles","web":"https://meleucamp.com/","uri":"https://data.datatourisme.fr/49/3fff85b7-eabb-38f8-bed8-73dddc6eaeaf","dept":"44","reg":"pdl"}},{"type":"Feature","geometry":{"type":"Point","coordinates":[-1.99735,47.06384]},"properties":{"nom":"Le village de la Mer","sub":"Camping","cm":"44760#Les Moutiers-en-Retz","web":"http://www.village-mer.fr/","uri":"https://data.datatourisme.fr/49/362ca504-04fa-3606-a5c0-5b9ff8a9739e","dept":"44","reg":"pdl"}},{"type":"Feature","geometry":{"type":"Point","coordinates":[-2.03484,47.0868]},"properties":{"nom":"Domaine de la Gressière","sub":"HotelTrade","cm":"44760#La Bernerie-en-Retz","web":"http://www.lagressiere.com/","uri":"https://data.datatourisme.fr/49/cfbf4f45-2bc3-34d5-b611-22e69a37dd34","dept":"44","reg":"pdl"}},{"type":"Feature","geometry":{"type":"Point","coordinates":[-1.96277,47.05614]},"properties":{"nom":"Camping Domaine de la Baie Dorée","sub":"Camping","cm":"44580#Villeneuve-en-Retz","web":"https://www.camping-baie-doree.fr/","uri":"https://data.datatourisme.fr/49/34f95e76-ddee-3087-867b-05367720585e","dept":"44","reg":"pdl"}},{"type":"Feature","geometry":{"type":"Point","coordinates":[-1.74064,46.99271]},"properties":{"nom":"GITE LA COURTOISE - CHEZ MARCEL***","sub":"LodgingBusiness","cm":"44270#La Marne","web":"http://www.la-courtoise.fr/","uri":"https://data.datatourisme.fr/49/7438c37e-252d-3fd6-91d7-bb7de5cadeac","dept":"44","reg":"pdl"}},{"type":"Feature","geometry":{"type":"Point","coordinates":[-1.78359,47.01659]},"properties":{"nom":"Gîte le Genêt Jahan","sub":"LodgingBusiness","cm":"44270#Machecoul-Saint-Même","web":null,"uri":"https://data.datatourisme.fr/49/fa7feaf1-85a5-3aae-bc36-73afb9875cd1","dept":"44","reg":"pdl"}},{"type":"Feature","geometry":{"type":"Point","coordinates":[-1.52954,47.25745]},"properties":{"nom":"BEAUJOIRE HÔTEL","sub":"HotelTrade","cm":"44300#Nantes","web":"http://www.beaujoire-hotel.com/","uri":"https://data.datatourisme.fr/49/3fb0e86d-8bcf-3936-bcdd-24b327f8e7d9","dept":"44","reg":"pdl"}},{"type":"Feature","geometry":{"type":"Point","coordinates":[-1.51373,47.2537]},"properties":{"nom":"HÔTEL B&B NANTES LA BEAUJOIRE","sub":"Hotel","cm":"44300#Nantes","web":"http://www.hotel-bb.com/","uri":"https://data.datatourisme.fr/49/1cf04d39-5dd8-34b2-8226-ecd41823f9e5","dept":"44","reg":"pdl"}},{"type":"Feature","geometry":{"type":"Point","coordinates":[-1.48466,47.16314]},"properties":{"nom":"La Sansonnette","sub":"LodgingBusiness","cm":"44120#Vertou","web":null,"uri":"https://data.datatourisme.fr/49/69d5ed43-5a44-3f85-bd42-cf40df600837","dept":"44","reg":"pdl"}},{"type":"Feature","geometry":{"type":"Point","coordinates":[-1.28416,47.09356]},"properties":{"nom":"Hôtel Restaurant La Cascade","sub":"Hotel","cm":"44190#Clisson","web":"http://www.la-cascade.net/","uri":"https://data.datatourisme.fr/49/d314a9a1-7c88-318f-a278-96538978bf3c","dept":"44","reg":"pdl"}},{"type":"Feature","geometry":{"type":"Point","coordinates":[-1.1913,47.04203]},"properties":{"nom":"Sirocco","sub":"LodgingBusiness","cm":"44190#Boussay","web":"http://www.gite-et-nature.com/","uri":"https://data.datatourisme.fr/49/6b89e643-e336-3b39-a4d8-02dd7b99dfb1","dept":"44","reg":"pdl"}},{"type":"Feature","geometry":{"type":"Point","coordinates":[-1.1913,47.04203]},"properties":{"nom":"Gîte et Nature","sub":"CollectiveAccommodation","cm":"44190#Boussay","web":null,"uri":"https://data.datatourisme.fr/49/e3286c68-62cd-3288-96b2-a2a09bac3670","dept":"44","reg":"pdl"}},{"type":"Feature","geometry":{"type":"Point","coordinates":[-2.04094,47.28924]},"properties":{"nom":"LE CABALLON DE M. PLOCQ","sub":"BedAndBreakfast","cm":"44560#Paimbœuf","web":"https://www.campinglestuaire.fr/locations/insolite-caballon-2-pers.html","uri":"https://data.datatourisme.fr/49/26e3ef6b-90bc-36b0-971b-7442aab4a9e8","dept":"44","reg":"pdl"}},{"type":"Feature","geometry":{"type":"Point","coordinates":[-2.17254,47.23298]},"properties":{"nom":"LE DOMAINE DE L'OCÉAN - ODALYS VACANCES","sub":"HolidayResort","cm":"44250#Saint-Brevin-les-Pins","web":"http://www.odalys-vacances.com/","uri":"https://data.datatourisme.fr/49/42ceb47d-cd93-392a-9d23-27ecc856147a","dept":"44","reg":"pdl"}},{"type":"Feature","geometry":{"type":"Point","coordinates":[-1.64861,47.22665]},"properties":{"nom":"APPART'CITY NANTES SAINT HERBLAIN","sub":"HolidayResort","cm":"44800#Saint-Herblain","web":"http://www.appartcity.com/fr/appart-hotel/nantes-saint-herblain-a-saint-herblain.html","uri":"https://data.datatourisme.fr/49/47ac51da-6164-3c5e-a4c4-5dfd00be829b","dept":"44","reg":"pdl"}},{"type":"Feature","geometry":{"type":"Point","coordinates":[-1.53915,47.21238]},"properties":{"nom":"RÉSIDHOME LES BERGES DE LA LOIRE","sub":"HolidayResort","cm":"44000#Nantes","web":"http://www.residhome.com/","uri":"https://data.datatourisme.fr/49/bfa459dc-3936-3bad-9d35-8e65cdf57467","dept":"44","reg":"pdl"}},{"type":"Feature","geometry":{"type":"Point","coordinates":[-1.52847,47.25359]},"properties":{"nom":"CERISE NANTES LA BEAUJOIRE","sub":"HolidayResort","cm":"44300#Nantes","web":"http://www.cerise-hotels-resorts.com/fr/cerise-nantes-labeaujoire-presentation.html","uri":"https://data.datatourisme.fr/49/f5d9ced5-ae10-38b5-a159-01ce3a4f6b44","dept":"44","reg":"pdl"}},{"type":"Feature","geometry":{"type":"Point","coordinates":[-1.82091,47.62635]},"properties":{"nom":"Camping de l'Hermitage","sub":"Camping","cm":"44290#Guémené-Penfao","web":"http://www.campinglhermitage.com/","uri":"https://data.datatourisme.fr/49/f49a661d-7b02-300e-aa8a-d35695404dc4","dept":"44","reg":"pdl"}},{"type":"Feature","geometry":{"type":"Point","coordinates":[-1.81941,47.62598]},"properties":{"nom":"L'Hermitage","sub":"CollectiveAccommodation","cm":"44290#Guémené-Penfao","web":"http://www.campinglhermitage.com/","uri":"https://data.datatourisme.fr/49/6e8f7435-7bc6-3649-a1e4-5b5c2f9fc3b1","dept":"44","reg":"pdl"}},{"type":"Feature","geometry":{"type":"Point","coordinates":[-1.26147,47.07967]},"properties":{"nom":"Village de gîtes du Moulin Neuf","sub":"CollectiveAccommodation","cm":"44190#Gétigné","web":"https://www.gites-moulinneuf-44.fr/","uri":"https://data.datatourisme.fr/49/c3c41fc5-0358-31df-8533-90fc59e33918","dept":"44","reg":"pdl"}},{"type":"Feature","geometry":{"type":"Point","coordinates":[-1.26157,47.07993]},"properties":{"nom":"Village de gîtes du Moulin Neuf","sub":"LodgingBusiness","cm":"44190#Gétigné","web":"http://www.gites-moulinneuf-44.fr/","uri":"https://data.datatourisme.fr/49/265ff579-dae6-3bdb-9cfd-226894109c31","dept":"44","reg":"pdl"}},{"type":"Feature","geometry":{"type":"Point","coordinates":[-1.48508,47.44863]},"properties":{"nom":"Le gîte du val d'erdre à l'onglée,nort sur erdre","sub":"LodgingBusiness","cm":"44390#Nort-sur-Erdre","web":null,"uri":"https://data.datatourisme.fr/49/0065383d-4013-332a-b6c4-89004424b669","dept":"44","reg":"pdl"}},{"type":"Feature","geometry":{"type":"Point","coordinates":[-1.37835,47.71798]},"properties":{"nom":"L'AUBERGE BRETONNE***","sub":"HotelTrade","cm":"44110#Châteaubriant","web":"http://www.aubergebretonne.com/","uri":"https://data.datatourisme.fr/49/c3de8f1d-99d9-34bf-9430-25568e393af3","dept":"44","reg":"pdl"}},{"type":"Feature","geometry":{"type":"Point","coordinates":[-2.21044,47.28274]},"properties":{"nom":"COMFORT APARTHOTEL LES PORTES DE L'OCEAN","sub":"HolidayResort","cm":"44600#Saint-Nazaire","web":"https://www.zenitude-hotel-residences.com/fr_FR/residence/saint-nazaire/123","uri":"https://data.datatourisme.fr/49/db81a789-2975-3f8b-ab84-736e6ba6b82c","dept":"44","reg":"pdl"}},{"type":"Feature","geometry":{"type":"Point","coordinates":[-1.54974,47.21383]},"properties":{"nom":"APPART'CITY NANTES CITÉ DES CONGRÈS","sub":"HolidayResort","cm":"44100#Nantes","web":"http://www.appartcity.com/fr/appart-hotel/nantes-cite-des-congres-a-nantes.html","uri":"https://data.datatourisme.fr/49/c555eb64-89c7-379e-b365-5d5bfcaa314c","dept":"44","reg":"pdl"}},{"type":"Feature","geometry":{"type":"Point","coordinates":[-1.55225,47.21509]},"properties":{"nom":"APPART'CITY CONFORT NANTES CENTRE","sub":"HolidayResort","cm":"44000#Nantes","web":"http://www.appartcity.com/fr/appart-hotel/nantes-centre-a-nantes-et-region.html","uri":"https://data.datatourisme.fr/49/d52f1947-2150-3c08-a841-298413fcd84d","dept":"44","reg":"pdl"}},{"type":"Feature","geometry":{"type":"Point","coordinates":[-2.03816,47.07908]},"properties":{"nom":"Hôtel Le Grand Large","sub":"HotelTrade","cm":"44760#La Bernerie-en-Retz","web":"https://www.hotel-legrandlarge.com/fr","uri":"https://data.datatourisme.fr/49/27c08bc4-9f91-3570-9c94-53c65c8a5325","dept":"44","reg":"pdl"}},{"type":"Feature","geometry":{"type":"Point","coordinates":[-2.03816,47.07908]},"properties":{"nom":"restaurant Le Grand Large","sub":"HotelRestaurant","cm":"44760#La Bernerie-en-Retz","web":"https://www.hotel-legrandlarge.com/fr","uri":"https://data.datatourisme.fr/49/a830932e-3afd-3068-9edc-6842aedce4c9","dept":"44","reg":"pdl"}},{"type":"Feature","geometry":{"type":"Point","coordinates":[-2.19568,47.12458]},"properties":{"nom":"Les Amis de la Nature","sub":"Camping","cm":"44770#Préfailles","web":"http://www.utannantes.wordpress.com/","uri":"https://data.datatourisme.fr/49/0ab3312a-b8a3-3968-b907-cdb452ba4363","dept":"44","reg":"pdl"}},{"type":"Feature","geometry":{"type":"Point","coordinates":[-1.36408,47.70713]},"properties":{"nom":"CHAMBRES D'HOTES LES BASSINS DE LAUNAY","sub":"BedAndBreakfast","cm":"44110#Châteaubriant","web":null,"uri":"https://data.datatourisme.fr/49/3eb4e1c9-a25a-394e-a977-4a94637eb200","dept":"44","reg":"pdl"}},{"type":"Feature","geometry":{"type":"Point","coordinates":[-1.36397,47.70706]},"properties":{"nom":"AIRE DE CAMPING-CARS LES BASSINS DE LAUNAY","sub":"CampingAndCaravanning","cm":"44110#Châteaubriant","web":null,"uri":"https://data.datatourisme.fr/49/fc9ba93a-b730-3609-acbc-90105056adca","dept":"44","reg":"pdl"}},{"type":"Feature","geometry":{"type":"Point","coordinates":[-2.21016,47.29186]},"properties":{"nom":"B&B HOTEL SAINT-NAZAIRE TRIGNAC","sub":"Hotel","cm":"44570#Trignac","web":"https://www.hotel-bb.com/fr/hotel/saint-nazaire-la-baule","uri":"https://data.datatourisme.fr/49/41afc754-df75-36b2-989d-40c437fdca40","dept":"44","reg":"pdl"}},{"type":"Feature","geometry":{"type":"Point","coordinates":[-2.21044,47.30045]},"properties":{"nom":"GREET HOTEL","sub":"HotelTrade","cm":"44570#Trignac","web":"http://all.accor.com/","uri":"https://data.datatourisme.fr/49/450346ab-e467-3832-b25f-4f521cb351ea","dept":"44","reg":"pdl"}},{"type":"Feature","geometry":{"type":"Point","coordinates":[-1.5607,47.21518]},"properties":{"nom":"HÔTEL MERCURE NANTES CENTRE PASSAGE POMMERAYE","sub":"Hotel","cm":"44000#Nantes","web":"https://all.accor.com/","uri":"https://data.datatourisme.fr/49/37a4bcdc-d1ca-3de5-9822-7ad1e566ba26","dept":"44","reg":"pdl"}},{"type":"Feature","geometry":{"type":"Point","coordinates":[-1.39939,47.7323]},"properties":{"nom":"GÎTE LA ROUSSELIÈRE","sub":"CollectiveAccommodation","cm":"44110#Châteaubriant","web":"http://www.gite-larousseliere.com/","uri":"https://data.datatourisme.fr/49/3881cd34-838a-3079-9ca4-7fab49df594d","dept":"44","reg":"pdl"}},{"type":"Feature","geometry":{"type":"Point","coordinates":[-1.63655,47.66224]},"properties":{"nom":"GITES LA GARLAIS - GRAND GITE","sub":"CollectiveAccommodation","cm":"44590#Derval","web":"http://www.lagarlais.com/","uri":"https://data.datatourisme.fr/49/4bb82f91-fac7-323e-b291-4318def940c6","dept":"44","reg":"pdl"}},{"type":"Feature","geometry":{"type":"Point","coordinates":[-1.61342,47.1317]},"properties":{"nom":"CHÂTEAU DE LA PLINGUETIÈRE","sub":"CollectiveAccommodation","cm":"44860#Saint-Aignan-Grandlieu","web":"http://www.plinguetiere.fr/","uri":"https://data.datatourisme.fr/49/0de8647b-ceaf-3e5c-83f9-d592c7dfc784","dept":"44","reg":"pdl"}},{"type":"Feature","geometry":{"type":"Point","coordinates":[-1.38114,47.51519]},"properties":{"nom":"Écogîte Le Moulin de Bel-Air","sub":"LodgingBusiness","cm":"44440#Joué-sur-Erdre","web":"http://www.lemoulindebelair.com/<>https://www.airbnb.fr/rooms/45889813","uri":"https://data.datatourisme.fr/49/3f876f88-1e40-3ca4-8458-881292fd81d3","dept":"44","reg":"pdl"}},{"type":"Feature","geometry":{"type":"Point","coordinates":[-1.38114,47.51519]},"properties":{"nom":"Chambres d'hôtes au Moulin de Bel-Air","sub":"BedAndBreakfast","cm":"44440#Joué-sur-Erdre","web":"http://www.lemoulindebelair.com/","uri":"https://data.datatourisme.fr/49/8c2292c9-a965-32d4-8679-a276362018a0","dept":"44","reg":"pdl"}},{"type":"Feature","geometry":{"type":"Point","coordinates":[-1.51176,47.47891]},"properties":{"nom":"AIRE DE STATIONNEMENT \"FRANCE PASSION\"","sub":"CampingAndCaravanning","cm":"44390#Nort-sur-Erdre","web":"https://lafermedubiauchemindeslandes-30.webself.net/visites-accueil-pedagogique","uri":"https://data.datatourisme.fr/49/176b1c34-eb31-3632-a33c-6b410589af27","dept":"44","reg":"pdl"}},{"type":"Feature","geometry":{"type":"Point","coordinates":[-2.37337,47.31599]},"properties":{"nom":"Ferme Lait Prés Verts - Chambres d'hôtes","sub":"BedAndBreakfast","cm":"44350#Guérande","web":"https://fermelaitpresverts.fr/","uri":"https://data.datatourisme.fr/49/d1b0dbd0-0492-37db-983c-09741b7c094d","dept":"44","reg":"pdl"}},{"type":"Feature","geometry":{"type":"Point","coordinates":[-2.21329,47.15479]},"properties":{"nom":"Anne de Bretagne","sub":"HotelTrade","cm":"44770#La Plaine-sur-Mer","web":"http://www.annedebretagne.com/","uri":"https://data.datatourisme.fr/49/68dbbbc8-4bdc-3981-a853-e7fee7bafd96","dept":"44","reg":"pdl"}},{"type":"Feature","geometry":{"type":"Point","coordinates":[-2.21346,47.15498]},"properties":{"nom":"Anne de Bretagne","sub":"HotelRestaurant","cm":"44770#La Plaine-sur-Mer","web":"https://annedebretagne.com/","uri":"https://data.datatourisme.fr/49/c9af4769-3fe4-30a9-89b7-4680e0658386","dept":"44","reg":"pdl"}},{"type":"Feature","geometry":{"type":"Point","coordinates":[-2.00709,47.07491]},"properties":{"nom":"Camping Cybèle Vacances Les Brillas","sub":"Camping","cm":"44760#Les Moutiers-en-Retz","web":"https://www.campinglesbrillas.com/accueil.html","uri":"https://data.datatourisme.fr/49/6aa5d415-e3d8-39b7-87d6-5aadd6e09719","dept":"44","reg":"pdl"}},{"type":"Feature","geometry":{"type":"Point","coordinates":[-2.01222,47.07489]},"properties":{"nom":"Le Bois des Tréans - Le 2","sub":"LodgingBusiness","cm":"44760#Les Moutiers-en-Retz","web":"http://le-bois-des-treans.fr/","uri":"https://data.datatourisme.fr/49/00dff135-eb26-3fb0-8ee9-5e6b62c12ded","dept":"44","reg":"pdl"}},{"type":"Feature","geometry":{"type":"Point","coordinates":[-2.01222,47.07489]},"properties":{"nom":"Le Bois des Tréans - Le 15","sub":"LodgingBusiness","cm":"44760#Les Moutiers-en-Retz","web":null,"uri":"https://data.datatourisme.fr/49/131781f5-2c56-30a7-9731-ed34f8a697b6","dept":"44","reg":"pdl"}},{"type":"Feature","geometry":{"type":"Point","coordinates":[-2.01222,47.07489]},"properties":{"nom":"Le Bois des Tréans - Le 8","sub":"LodgingBusiness","cm":"44760#Les Moutiers-en-Retz","web":null,"uri":"https://data.datatourisme.fr/49/d1bc79b1-4eca-3308-bcce-8adecf6d1350","dept":"44","reg":"pdl"}},{"type":"Feature","geometry":{"type":"Point","coordinates":[-2.13535,47.17065]},"properties":{"nom":"Camping insolite Le Haut Village","sub":"Camping","cm":"44730#Saint-Michel-Chef-Chef","web":"http://www.camping-hautvillage.fr/","uri":"https://data.datatourisme.fr/49/9e77deb3-7005-348e-b6f8-dc30805f4f8c","dept":"44","reg":"pdl"}},{"type":"Feature","geometry":{"type":"Point","coordinates":[-2.16289,47.15979]},"properties":{"nom":"Camping du Vieux Château","sub":"Camping","cm":"44730#Saint-Michel-Chef-Chef","web":"http://www.camping-duvieuxchateau.com/","uri":"https://data.datatourisme.fr/49/b0cd39a4-ae5e-3563-a433-a370cae4657e","dept":"44","reg":"pdl"}},{"type":"Feature","geometry":{"type":"Point","coordinates":[-1.48128,47.43594]},"properties":{"nom":"HOTEL LE RELAIS DE LA GRANGE ***","sub":"Hotel","cm":"44390#Nort-sur-Erdre","web":"http://www.logishotels.com/fr/hotel-Hotel-Le-Relais-De-La-Grange-11893.html<>http://www.relaislagrange.com/","uri":"https://data.datatourisme.fr/49/66563c89-05de-362c-9b0c-de680f11c9af","dept":"44","reg":"pdl"}},{"type":"Feature","geometry":{"type":"Point","coordinates":[-1.64149,47.03929]},"properties":{"nom":"HOTEL LA BOSSELLE","sub":"Hotel","cm":"44310#Saint-Philbert-de-Grand-Lieu","web":"https://www.labosselle.com/","uri":"https://data.datatourisme.fr/49/9c01ef49-8d6f-3e0d-acb2-6e012e9a61ef","dept":"44","reg":"pdl"}},{"type":"Feature","geometry":{"type":"Point","coordinates":[-1.71093,47.05972]},"properties":{"nom":"GITE DE GRAND LIEU","sub":"CollectiveAccommodation","cm":"44310#Saint-Lumine-de-Coutais","web":"http://www.gite-de-grand-lieu.com/","uri":"https://data.datatourisme.fr/49/9c0664d3-c33e-3bad-be18-9b6efa1b5c42","dept":"44","reg":"pdl"}},{"type":"Feature","geometry":{"type":"Point","coordinates":[-1.9364,47.37384]},"properties":{"nom":"B&B NANTES SAVENAY","sub":"Hotel","cm":"44260#Savenay","web":"http://www.hotel-bb.com/","uri":"https://data.datatourisme.fr/49/f6ba3d70-ab3b-39cc-8fc4-01e08805b695","dept":"44","reg":"pdl"}},{"type":"Feature","geometry":{"type":"Point","coordinates":[-1.75052,47.51989]},"properties":{"nom":"CAMPING DE LA FORET **","sub":"Camping","cm":"44130#Le Gâvre","web":"http://campinglegavre.fr/","uri":"https://data.datatourisme.fr/49/f7ef409e-1af2-381c-8390-133933683293","dept":"44","reg":"pdl"}},{"type":"Feature","geometry":{"type":"Point","coordinates":[-1.54338,47.21778]},"properties":{"nom":"HÔTEL LE TERMINUS","sub":"Hotel","cm":"44000#Nantes","web":"http://www.hotel-terminus-nantes.com/","uri":"https://data.datatourisme.fr/49/64973bf7-d790-35d9-9326-c6610844cd4b","dept":"44","reg":"pdl"}},{"type":"Feature","geometry":{"type":"Point","coordinates":[-1.51015,47.25136]},"properties":{"nom":"SURE HOTEL BY BEST WESTERN NANTES BEAUJOIRE","sub":"Hotel","cm":"44300#Nantes","web":"http://www.nantesbeaujoire.com/","uri":"https://data.datatourisme.fr/49/66b0daff-e4cb-3ec9-bf75-ca2fdfd65f11","dept":"44","reg":"pdl"}},{"type":"Feature","geometry":{"type":"Point","coordinates":[-1.55873,47.24101]},"properties":{"nom":"LE LOV(T)","sub":"LodgingBusiness","cm":"44300#Nantes","web":"http://www.lelovt.com/","uri":"https://data.datatourisme.fr/49/68a2a3e6-e34a-37f6-8b0b-80bf97d6ce39","dept":"44","reg":"pdl"}},{"type":"Feature","geometry":{"type":"Point","coordinates":[-1.55704,47.21405]},"properties":{"nom":"HÔTEL MERCURE NANTES CENTRE GRAND HÔTEL","sub":"Hotel","cm":"44000#Nantes","web":"https://mercure.accor.com/fr/france/index.shtml","uri":"https://data.datatourisme.fr/49/f92d6213-7a91-32c1-868e-c6f1d28e76d0","dept":"44","reg":"pdl"}},{"type":"Feature","geometry":{"type":"Point","coordinates":[-1.54759,47.22165]},"properties":{"nom":"THE ORIGINALS CITY HÔTEL DU GRAND MONARQUE","sub":"Hotel","cm":"44000#Nantes","web":"http://www.theoriginalshotels.com/","uri":"https://data.datatourisme.fr/49/f993a7ab-0e4f-35d7-8063-60ebb83cdcd4","dept":"44","reg":"pdl"}},{"type":"Feature","geometry":{"type":"Point","coordinates":[-1.54757,47.2175]},"properties":{"nom":"L'HÔTEL","sub":"Hotel","cm":"44000#Nantes","web":"http://www.nanteshotel.com/","uri":"https://data.datatourisme.fr/49/9a472e18-a179-3283-9e5f-dc5a2afee86f","dept":"44","reg":"pdl"}},{"type":"Feature","geometry":{"type":"Point","coordinates":[-1.52634,47.2936]},"properties":{"nom":"HÔTEL BEST WESTERN PLUS HÔTEL DE LA RÉGATE","sub":"Hotel","cm":"44300#Nantes","web":"https://www.hotel-nantes-laregate.com/","uri":"https://data.datatourisme.fr/49/9af21ab4-d598-3e9f-8f64-97c080864ed5","dept":"44","reg":"pdl"}},{"type":"Feature","geometry":{"type":"Point","coordinates":[-1.44224,47.18496]},"properties":{"nom":"Hôtel de la Louée","sub":"HotelTrade","cm":"44115#Haute-Goulaine","web":"https://www.hoteldelalouee.fr/?utm_source=gmb","uri":"https://data.datatourisme.fr/49/aeb3eed8-9db2-387d-b4f7-3b98f023ae80","dept":"44","reg":"pdl"}},{"type":"Feature","geometry":{"type":"Point","coordinates":[-2.20488,47.27536]},"properties":{"nom":"HOLIDAY INN EXPRESS","sub":"Hotel","cm":"44600#Saint-Nazaire","web":"https://www.ihg.com/holidayinnexpress/hotels/fr/fr/saint-nazaire/ntesn/hoteldetail","uri":"https://data.datatourisme.fr/49/f343f5a4-d1f8-351a-b93d-b8d54dd8f242","dept":"44","reg":"pdl"}},{"type":"Feature","geometry":{"type":"Point","coordinates":[-2.30827,47.32159]},"properties":{"nom":"CAMPING LES CHALANDS FLEURIS","sub":"Camping","cm":"44117#Saint-André-des-Eaux","web":"https://www.olela.fr/camping-les-chalands-fleuris","uri":"https://data.datatourisme.fr/49/a5e3c830-c359-3668-81dd-08a52965e499","dept":"44","reg":"pdl"}},{"type":"Feature","geometry":{"type":"Point","coordinates":[-2.28968,47.23779]},"properties":{"nom":"VILLA PLAISANCE","sub":"LodgingBusiness","cm":"44600#Saint-Nazaire","web":null,"uri":"https://data.datatourisme.fr/49/df138a8e-fe3c-3a55-903f-22b4d902bdd3","dept":"44","reg":"pdl"}},{"type":"Feature","geometry":{"type":"Point","coordinates":[-1.61613,47.25252]},"properties":{"nom":"AUBERGE DU FORUM","sub":"HotelTrade","cm":"44700#Orvault","web":"http://aubergeduforum.fr/","uri":"https://data.datatourisme.fr/49/df0a3012-1522-3a3b-b925-9c8555f44f73","dept":"44","reg":"pdl"}},{"type":"Feature","geometry":{"type":"Point","coordinates":[-1.67365,47.20268]},"properties":{"nom":"LA MAISON LORRAGNE","sub":"BedAndBreakfast","cm":"44610#Indre","web":"http://maison-lorragne.monsite-orange.fr/","uri":"https://data.datatourisme.fr/49/7422d1ae-f69d-3f94-a0c0-09357d98cf30","dept":"44","reg":"pdl"}},{"type":"Feature","geometry":{"type":"Point","coordinates":[-1.41979,47.12465]},"properties":{"nom":"Le Gîte du Pot Gris","sub":"LodgingBusiness","cm":"44690#Château-Thébaud","web":"https://legitedupotgris.jimdofree.com/","uri":"https://data.datatourisme.fr/49/dfe8884f-0e8c-3510-918d-23d76e85d760","dept":"44","reg":"pdl"}},{"type":"Feature","geometry":{"type":"Point","coordinates":[-1.75062,47.55339]},"properties":{"nom":"Gîte le grenouillet","sub":"LodgingBusiness","cm":"44130#Le Gâvre","web":null,"uri":"https://data.datatourisme.fr/49/4fb6466e-5478-3bc3-b447-e536e6390af6","dept":"44","reg":"pdl"}},{"type":"Feature","geometry":{"type":"Point","coordinates":[-2.13753,47.21919]},"properties":{"nom":"LES MOUETTES","sub":"Camping","cm":"44320#Saint-Père-en-Retz","web":null,"uri":"https://data.datatourisme.fr/49/5038c05b-43dd-3040-a580-d7366fde9c94","dept":"44","reg":"pdl"}},{"type":"Feature","geometry":{"type":"Point","coordinates":[-2.13989,47.22017]},"properties":{"nom":"LA TANSORAIS","sub":"Camping","cm":"44320#Saint-Père-en-Retz","web":null,"uri":"https://data.datatourisme.fr/49/2e1c02cf-3c9b-3ce9-88d4-00b4cbf58b78","dept":"44","reg":"pdl"}},{"type":"Feature","geometry":{"type":"Point","coordinates":[-2.13753,47.21919]},"properties":{"nom":"LES MOUETTES","sub":"CampingAndCaravanning","cm":"44320#Saint-Père-en-Retz","web":null,"uri":"https://data.datatourisme.fr/49/fc3c1fd3-f796-3d66-8ceb-5d678b95c1c8","dept":"44","reg":"pdl"}},{"type":"Feature","geometry":{"type":"Point","coordinates":[-1.73797,46.99294]},"properties":{"nom":"La courtoise chez gustine","sub":"LodgingBusiness","cm":"44270#La Marne","web":null,"uri":"https://data.datatourisme.fr/49/036043a3-a30e-3dac-928e-f7c8afb638ae","dept":"44","reg":"pdl"}},{"type":"Feature","geometry":{"type":"Point","coordinates":[-1.17834,47.36429]},"properties":{"nom":"Loire Escale","sub":"LodgingBusiness","cm":"44150#Ancenis-Saint-Géréon","web":"http://www.loire-escale.com/","uri":"https://data.datatourisme.fr/49/4e6ccd12-09d5-3233-811a-6aba5da49479","dept":"44","reg":"pdl"}},{"type":"Feature","geometry":{"type":"Point","coordinates":[-1.4328,47.13055]},"properties":{"nom":"La Cave","sub":"LodgingBusiness","cm":"44690#Château-Thébaud","web":"http://www.auberge-la-gaillotiere.fr/","uri":"https://data.datatourisme.fr/49/510becbb-9bbc-3806-abc7-20c546a7f887","dept":"44","reg":"pdl"}},{"type":"Feature","geometry":{"type":"Point","coordinates":[-2.20804,47.15251]},"properties":{"nom":"Flower Camping La Guichardière","sub":"Camping","cm":"44770#La Plaine-sur-Mer","web":"http://www.camping-laguichardiere.net/","uri":"https://data.datatourisme.fr/49/86709055-c90f-31f8-a247-384c0777a237","dept":"44","reg":"pdl"}},{"type":"Feature","geometry":{"type":"Point","coordinates":[-2.20804,47.15251]},"properties":{"nom":"Flower Camping La Guichardière","sub":"CampingAndCaravanning","cm":"44770#La Plaine-sur-Mer","web":"http://www.camping-laguichardiere.net/","uri":"https://data.datatourisme.fr/49/d2b67cf5-83bf-3911-8a0c-2d52b9345136","dept":"44","reg":"pdl"}},{"type":"Feature","geometry":{"type":"Point","coordinates":[-2.20806,47.15248]},"properties":{"nom":"Aire d'accueil camping-car de la Guichardière","sub":"CampingAndCaravanning","cm":"44770#La Plaine-sur-Mer","web":"http://www.camping-laguichardiere.net/","uri":"https://data.datatourisme.fr/49/43ab3897-c3e7-391e-afbc-0e0519810f49","dept":"44","reg":"pdl"}},{"type":"Feature","geometry":{"type":"Point","coordinates":[-1.49759,47.42842]},"properties":{"nom":"LOCATIFS CAMPING PORT MULON  ***","sub":"LodgingBusiness","cm":"44390#Nort-sur-Erdre","web":null,"uri":"https://data.datatourisme.fr/49/da20a7c7-cd94-38ca-a01f-3b6a666ac2b0","dept":"44","reg":"pdl"}},{"type":"Feature","geometry":{"type":"Point","coordinates":[-1.49719,47.42881]},"properties":{"nom":"AIRE AU CAMPING PORT MULON","sub":"CampingAndCaravanning","cm":"44390#Nort-sur-Erdre","web":"https://www.night-and-day.fr/camping/35-camping-du-port-mulon","uri":"https://data.datatourisme.fr/49/64682539-2adf-34a2-a7ba-fc573efeb316","dept":"44","reg":"pdl"}},{"type":"Feature","geometry":{"type":"Point","coordinates":[-1.56173,47.22066]},"properties":{"nom":"HÔTEL B&B NANTES CENTRE","sub":"Hotel","cm":"44000#Nantes","web":"http://www.hotel-bb.com/","uri":"https://data.datatourisme.fr/49/da855cd6-ea08-3a49-b4a5-255bfdc6c405","dept":"44","reg":"pdl"}},{"type":"Feature","geometry":{"type":"Point","coordinates":[-1.48523,47.26904]},"properties":{"nom":"HÔTEL INN DESIGN CARQUEFOU","sub":"HotelTrade","cm":"44470#Carquefou","web":"https://hotel-inn-carquefou.fr/","uri":"https://data.datatourisme.fr/49/401012fd-81e6-33d9-a778-1351e15cb529","dept":"44","reg":"pdl"}},{"type":"Feature","geometry":{"type":"Point","coordinates":[-1.64934,47.22717]},"properties":{"nom":"CERISE NANTES ATLANTIS","sub":"HolidayResort","cm":"44800#Saint-Herblain","web":"https://www.cerise-hotels-residences.com/fr/hotels-et-residences/details/nantes-atlantis","uri":"https://data.datatourisme.fr/49/01227b70-e9de-32e7-b38c-6033faf26755","dept":"44","reg":"pdl"}},{"type":"Feature","geometry":{"type":"Point","coordinates":[-1.49816,47.2601]},"properties":{"nom":"Comfort Aparthotel Nantes – La Beaujoire","sub":"HolidayResort","cm":"44300#Nantes","web":null,"uri":"https://data.datatourisme.fr/49/0914b0d2-1f64-30c2-a98e-c0ec7163bca8","dept":"44","reg":"pdl"}},{"type":"Feature","geometry":{"type":"Point","coordinates":[-1.52457,47.13585]},"properties":{"nom":"HÔTEL ABBAYE DE VILLENEUVE","sub":"Hotel","cm":"44840#Les Sorinières","web":"http://www.abbayedevilleneuve.com/","uri":"https://data.datatourisme.fr/49/2f4bd315-6654-3e6e-9d94-3b3d10978c93","dept":"44","reg":"pdl"}},{"type":"Feature","geometry":{"type":"Point","coordinates":[-1.5567,47.21857]},"properties":{"nom":"LOGIS HÔTEL DUQUESNE","sub":"Hotel","cm":"44000#Nantes","web":"http://www.hotel-duquesne-nantes.com/","uri":"https://data.datatourisme.fr/49/31330f19-94b2-366c-a960-81439757403d","dept":"44","reg":"pdl"}},{"type":"Feature","geometry":{"type":"Point","coordinates":[-1.48573,47.21042]},"properties":{"nom":"HÔTEL B&B SAINT SÉBASTIEN","sub":"Hotel","cm":"44230#Saint-Sébastien-sur-Loire","web":"http://www.hotel-a-nantes.net/","uri":"https://data.datatourisme.fr/49/7923592a-f1da-3c49-a79f-15ab9165e4f9","dept":"44","reg":"pdl"}},{"type":"Feature","geometry":{"type":"Point","coordinates":[-1.28139,47.08416]},"properties":{"nom":"Le Voyage dans la Chambre Jaune","sub":"LodgingBusiness","cm":"44190#Clisson","web":null,"uri":"https://data.datatourisme.fr/49/bf774442-c4b1-3b3e-977a-3fb805d8e2bb","dept":"44","reg":"pdl"}},{"type":"Feature","geometry":{"type":"Point","coordinates":[-1.94338,47.35912]},"properties":{"nom":"HÔTEL LE CHENE VERT","sub":"HotelTrade","cm":"44260#Savenay","web":"http://www.hotel-lechenevert.fr/","uri":"https://data.datatourisme.fr/49/0ca37a08-f984-364b-b338-d2d1f87566e1","dept":"44","reg":"pdl"}},{"type":"Feature","geometry":{"type":"Point","coordinates":[-2.20979,47.29464]},"properties":{"nom":"HOTEL F1 SAINT-NAZAIRE","sub":"Hotel","cm":"44570#Trignac","web":"https://all.accor.com/hotel/2223/index.fr.shtml?dateIn=&nights=&compositions=1&stayplus=false#origin=accor","uri":"https://data.datatourisme.fr/49/805ac3cf-f55b-378a-8c2a-eed65e2b11ca","dept":"44","reg":"pdl"}},{"type":"Feature","geometry":{"type":"Point","coordinates":[-1.55405,47.21489]},"properties":{"nom":"HÔTEL SAINT DANIEL","sub":"Hotel","cm":"44000#Nantes","web":"http://www.hotel-saintdaniel.fr/","uri":"https://data.datatourisme.fr/49/81c8ce4a-a759-3d3e-b419-e5f19cf95202","dept":"44","reg":"pdl"}},{"type":"Feature","geometry":{"type":"Point","coordinates":[-1.53148,47.19648]},"properties":{"nom":"HÔTEL CAMPANILE NANTES CENTRE ST JACQUES","sub":"Hotel","cm":"44200#Nantes","web":"http://www.campanile-nantes-centre-saint-jacques.fr/fr","uri":"https://data.datatourisme.fr/49/8e54028e-26e4-3880-8fde-89716fc2f0df","dept":"44","reg":"pdl"}},{"type":"Feature","geometry":{"type":"Point","coordinates":[-1.37121,47.06249]},"properties":{"nom":"Camping Rural Coin De Ciel","sub":"Camping","cm":"44190#Saint-Lumine-de-Clisson","web":"http://camping-nantes-atlantique-clisson.fr/","uri":"https://data.datatourisme.fr/49/813493c1-a396-36b7-bec0-6c9f8ef56083","dept":"44","reg":"pdl"}},{"type":"Feature","geometry":{"type":"Point","coordinates":[-1.42524,46.9531]},"properties":{"nom":"Domaine de l'Ecorce - Maison d'hôtes - Suites","sub":"LodgingBusiness","cm":"44116#Vieillevigne","web":"http://www.domainedelecorce.com/","uri":"https://data.datatourisme.fr/49/8551dd2c-6725-3074-8991-d9221410cc1d","dept":"44","reg":"pdl"}},{"type":"Feature","geometry":{"type":"Point","coordinates":[-2.1539,47.21432]},"properties":{"nom":"LES ROCHELETS","sub":"Camping","cm":"44250#Saint-Brevin-les-Pins","web":"http://www.rochelets.com/","uri":"https://data.datatourisme.fr/49/594be079-55d7-3988-92fc-c3881dbe5109","dept":"44","reg":"pdl"}},{"type":"Feature","geometry":{"type":"Point","coordinates":[-2.1539,47.21432]},"properties":{"nom":"LES ROCHELETS","sub":"CampingAndCaravanning","cm":"44250#Saint-Brevin-les-Pins","web":"http://www.rochelets.com/","uri":"https://data.datatourisme.fr/49/5f80723e-52f6-38fc-81ee-fc7b83274a21","dept":"44","reg":"pdl"}},{"type":"Feature","geometry":{"type":"Point","coordinates":[-1.55997,47.21498]},"properties":{"nom":"HÔTEL IBIS STYLES NANTES CENTRE PLACE GRASLIN","sub":"Hotel","cm":"44000#Nantes","web":"https://all.accor.com/hotel/8464/index.fr.shtml","uri":"https://data.datatourisme.fr/49/5b3d505b-cdd4-355c-a248-702ccfeab398","dept":"44","reg":"pdl"}},{"type":"Feature","geometry":{"type":"Point","coordinates":[-1.56938,47.19062]},"properties":{"nom":"HÔTEL PREMIÈRE CLASSE REZÉ","sub":"Hotel","cm":"44400#Rezé","web":"https://nantes-sud-reze-aeroport.premiere-classe.com/","uri":"https://data.datatourisme.fr/49/d8770648-859b-3462-b3cf-84a1ecd8872b","dept":"44","reg":"pdl"}},{"type":"Feature","geometry":{"type":"Point","coordinates":[-1.43072,47.24875]},"properties":{"nom":"Gîte des Castors de Loire","sub":"LodgingBusiness","cm":"44450#Saint-Julien-de-Concelles","web":null,"uri":"https://data.datatourisme.fr/49/2c396694-84c0-3571-b4c2-b72e8ca2a206","dept":"44","reg":"pdl"}},{"type":"Feature","geometry":{"type":"Point","coordinates":[-2.21027,47.28543]},"properties":{"nom":"IBIS BUDGET SAINT-NAZAIRE CENTRE GARE","sub":"Hotel","cm":"44600#Saint-Nazaire","web":"https://www.dusk-saint-nazaire.com/hotel-ibis-budget-saint-nazaire/","uri":"https://data.datatourisme.fr/49/1939521a-25dc-3b1c-bf76-31ede2a542c4","dept":"44","reg":"pdl"}},{"type":"Feature","geometry":{"type":"Point","coordinates":[-2.21027,47.28543]},"properties":{"nom":"IBIS STYLES SAINT-NAZAIRE CENTRE GARE","sub":"Hotel","cm":"44600#Saint-Nazaire","web":"https://www.dusk-saint-nazaire.com/chambres-hotel-ibis-styles-saint-nazaire/","uri":"https://data.datatourisme.fr/49/37ef99b3-176c-302d-9996-7332a2c37ca5","dept":"44","reg":"pdl"}},{"type":"Feature","geometry":{"type":"Point","coordinates":[-1.7608,47.46307]},"properties":{"nom":"GÎTE DES BOIS","sub":"LodgingBusiness","cm":"44130#Blain","web":"https://gitedesbois44.fr/","uri":"https://data.datatourisme.fr/49/a447e191-0c98-3efd-b1ed-8463f2878d38","dept":"44","reg":"pdl"}},{"type":"Feature","geometry":{"type":"Point","coordinates":[-2.15894,47.18191]},"properties":{"nom":"LA BRISE DE MER- LA GRANDE MAISON","sub":"CollectiveAccommodation","cm":"44730#Saint-Michel-Chef-Chef","web":"http://www.labrisedemer.com/","uri":"https://data.datatourisme.fr/49/e6c80dbf-1d93-3b00-a9d2-0ce92c900cde","dept":"44","reg":"pdl"}},{"type":"Feature","geometry":{"type":"Point","coordinates":[-2.15842,47.1816]},"properties":{"nom":"LA BRISE DE MER","sub":"LodgingBusiness","cm":"44730#Saint-Michel-Chef-Chef","web":"http://www.labrisedemer.com/","uri":"https://data.datatourisme.fr/49/67371e3e-3ff5-3cb2-b01c-2af1d8a5e95c","dept":"44","reg":"pdl"}},{"type":"Feature","geometry":{"type":"Point","coordinates":[-2.15894,47.18191]},"properties":{"nom":"La Brise de Mer - Gîtes et Maison de vacances","sub":"CollectiveAccommodation","cm":"44730#Saint-Michel-Chef-Chef","web":"http://www.labrisedemer.com/","uri":"https://data.datatourisme.fr/49/1994d7ad-a07c-39a2-b292-647b3a5da8a3","dept":"44","reg":"pdl"}},{"type":"Feature","geometry":{"type":"Point","coordinates":[-2.1585,47.18185]},"properties":{"nom":"L'Etoile de mer","sub":"LodgingBusiness","cm":"44730#Saint-Michel-Chef-Chef","web":"http://www.labrisedemer.com/","uri":"https://data.datatourisme.fr/49/88f8e868-c655-3538-aa35-46ab307d228b","dept":"44","reg":"pdl"}},{"type":"Feature","geometry":{"type":"Point","coordinates":[-2.1585,47.18185]},"properties":{"nom":"L'Ecume de Mer","sub":"LodgingBusiness","cm":"44730#Saint-Michel-Chef-Chef","web":"http://www.labrisedemer.com/","uri":"https://data.datatourisme.fr/49/8ab2094f-3760-3014-af2e-c08e086c5cf9","dept":"44","reg":"pdl"}},{"type":"Feature","geometry":{"type":"Point","coordinates":[-1.59641,47.27884]},"properties":{"nom":"HOTEL IBIS NANTES TREILLIERES ***","sub":"HotelTrade","cm":"44119#Treillières","web":"https://www.hotel-ibis-nantes-treillieres.com/","uri":"https://data.datatourisme.fr/49/83358439-783f-38e7-8940-548bb4c8b0ba","dept":"44","reg":"pdl"}},{"type":"Feature","geometry":{"type":"Point","coordinates":[-2.2937,47.23582]},"properties":{"nom":"LA CANA CASA","sub":"LodgingBusiness","cm":"44600#Saint-Nazaire","web":"http://www.lacana.casa/","uri":"https://data.datatourisme.fr/49/8312c1bb-44b9-3b69-9d46-b337c48f7383","dept":"44","reg":"pdl"}},{"type":"Feature","geometry":{"type":"Point","coordinates":[-2.28583,47.24404]},"properties":{"nom":"LA DUNE VERTE","sub":"LodgingBusiness","cm":"44600#Saint-Nazaire","web":null,"uri":"https://data.datatourisme.fr/49/bfa57d85-a8bb-342c-8ba8-04cbcdaad7da","dept":"44","reg":"pdl"}},{"type":"Feature","geometry":{"type":"Point","coordinates":[-1.61661,47.1282]},"properties":{"nom":"CHÂTEAU DE LA PLINGUETIÈRE","sub":"CollectiveAccommodation","cm":"44860#Saint-Aignan-Grandlieu","web":"http://www.plinguetiere.fr/","uri":"https://data.datatourisme.fr/49/53052bee-a923-37e0-a057-3f94c499a991","dept":"44","reg":"pdl"}},{"type":"Feature","geometry":{"type":"Point","coordinates":[-2.12987,47.11883]},"properties":{"nom":"Camping du Golf","sub":"Camping","cm":"44210#Pornic","web":"http://www.campingdugolf.fr/","uri":"https://data.datatourisme.fr/49/7e3150d1-aaca-3a16-b1bb-90563ab1b092","dept":"44","reg":"pdl"}},{"type":"Feature","geometry":{"type":"Point","coordinates":[-2.15433,47.17471]},"properties":{"nom":"Camping le Bel Essor","sub":"Camping","cm":"44730#Saint-Michel-Chef-Chef","web":"http://www.campingbelessor.com/","uri":"https://data.datatourisme.fr/49/944b635f-1ef2-3681-b512-a378eb3a905a","dept":"44","reg":"pdl"}},{"type":"Feature","geometry":{"type":"Point","coordinates":[-1.27972,47.08424]},"properties":{"nom":"L'Escapade Clisson","sub":"LodgingBusiness","cm":"44190#Clisson","web":"https://lescapadeclisson.com/","uri":"https://data.datatourisme.fr/49/9d968268-377f-383c-81f9-81c95546c745","dept":"44","reg":"pdl"}},{"type":"Feature","geometry":{"type":"Point","coordinates":[-1.58053,47.39882]},"properties":{"nom":"GITE AU PARADIS DES 4 SAISONS","sub":"LodgingBusiness","cm":"44810#Héric","web":"https://www.auparadisdes4saisons.fr/","uri":"https://data.datatourisme.fr/49/a00f25a4-1ffa-3768-8105-693b4b9d0efd","dept":"44","reg":"pdl"}},{"type":"Feature","geometry":{"type":"Point","coordinates":[-1.41121,47.15285]},"properties":{"nom":"Cabane des Ecureuils à Saint-Fiacre-sur-Maine","sub":"LodgingBusiness","cm":"44690#Saint-Fiacre-sur-Maine","web":"https://www.randocabane.fr/","uri":"https://data.datatourisme.fr/49/6f750795-605d-344b-8f18-17354135934d","dept":"44","reg":"pdl"}},{"type":"Feature","geometry":{"type":"Point","coordinates":[-1.41121,47.15285]},"properties":{"nom":"Cabane des Courtils à Saint-Fiacre-sur-Maine","sub":"LodgingBusiness","cm":"44690#Saint-Fiacre-sur-Maine","web":"https://www.randocabane.fr/","uri":"https://data.datatourisme.fr/49/ab4f9677-a48a-376c-8c4d-4cd2b1207dfb","dept":"44","reg":"pdl"}},{"type":"Feature","geometry":{"type":"Point","coordinates":[-1.42524,46.9531]},"properties":{"nom":"Domaine de l'Ecorce - Hébergement de Groupe","sub":"CollectiveAccommodation","cm":"44116#Vieillevigne","web":"http://www.domainedelecorce.com/","uri":"https://data.datatourisme.fr/49/4c1934fc-2ce0-3587-822f-63a939dd0be1","dept":"44","reg":"pdl"}},{"type":"Feature","geometry":{"type":"Point","coordinates":[-1.42511,46.95324]},"properties":{"nom":"Domaine de L'Ecorce - Gîte de la Bergerie","sub":"LodgingBusiness","cm":"44116#Vieillevigne","web":"http://www.domainedelecorce.com/","uri":"https://data.datatourisme.fr/49/c3b83265-de76-3721-be6e-665c9fb6639a","dept":"44","reg":"pdl"}},{"type":"Feature","geometry":{"type":"Point","coordinates":[-1.88905,47.565]},"properties":{"nom":"Le chêne Blanc","sub":"LodgingBusiness","cm":"44630#Plessé","web":"http://www.gite-du-chene-blanc.fr/","uri":"https://data.datatourisme.fr/49/089a2b1e-863f-3a1b-a586-53fccede4490","dept":"44","reg":"pdl"}},{"type":"Feature","geometry":{"type":"Point","coordinates":[-1.28286,47.09805]},"properties":{"nom":"Camping du Moulin Onlycamp","sub":"Camping","cm":"44190#Clisson","web":"https://camping-clisson.com/","uri":"https://data.datatourisme.fr/49/09aeacfb-675f-3be9-9cde-cb7d4c3880a4","dept":"44","reg":"pdl"}},{"type":"Feature","geometry":{"type":"Point","coordinates":[-1.28029,47.08498]},"properties":{"nom":"Gîte l'Éperon 2 - Petite maison de vacances à Clisson face au château","sub":"LodgingBusiness","cm":"44190#Clisson","web":null,"uri":"https://data.datatourisme.fr/49/da79ef5b-007d-344a-a811-58db261dad79","dept":"44","reg":"pdl"}},{"type":"Feature","geometry":{"type":"Point","coordinates":[-1.55454,47.19264]},"properties":{"nom":"HÔTEL IBIS STYLES NANTES REZÉ AEROPORT","sub":"Hotel","cm":"44400#Rezé","web":"https://all.accor.com/","uri":"https://data.datatourisme.fr/49/239e8558-6c7f-3017-8f96-2623030980c8","dept":"44","reg":"pdl"}},{"type":"Feature","geometry":{"type":"Point","coordinates":[-1.55461,47.1926]},"properties":{"nom":"HÔTEL IBIS BUDGET NANTES REZÉ AEROPORT","sub":"Hotel","cm":"44400#Rezé","web":"https://all.accor.com/","uri":"https://data.datatourisme.fr/49/ac46d28c-b79a-3e33-a1e7-83dade11ac2d","dept":"44","reg":"pdl"}},{"type":"Feature","geometry":{"type":"Point","coordinates":[-1.45429,47.28332]},"properties":{"nom":"HÔTEL NOVOTEL NANTES CARQUEFOU","sub":"Hotel","cm":"44470#Carquefou","web":"https://all.accor.com/","uri":"https://data.datatourisme.fr/49/2561c4f4-2d24-374f-9e71-ef2d826fe36c","dept":"44","reg":"pdl"}},{"type":"Feature","geometry":{"type":"Point","coordinates":[-2.21363,47.37283]},"properties":{"nom":"LA MARE AUX OISEAUX – RESTAURANT ÉTOILÉ","sub":"HotelRestaurant","cm":"44720#Saint-Joachim","web":"http://www.mareauxoiseaux.fr/","uri":"https://data.datatourisme.fr/49/8345e21f-1f5f-30d1-84c9-4536043994b5","dept":"44","reg":"pdl"}},{"type":"Feature","geometry":{"type":"Point","coordinates":[-1.35871,47.79324]},"properties":{"nom":"GÎTE DE LA BARRE","sub":"CollectiveAccommodation","cm":"44660#Fercé","web":"https://gites-de-la-barre-brideul.fr/","uri":"https://data.datatourisme.fr/49/23e5db8f-279d-3fb2-8e79-452fd1aca580","dept":"44","reg":"pdl"}},{"type":"Feature","geometry":{"type":"Point","coordinates":[-1.27452,47.16163]},"properties":{"nom":"Hôtel Clair de Lie","sub":"HotelTrade","cm":"44330#Vallet","web":"http://www.clairdelie.fr/","uri":"https://data.datatourisme.fr/49/24395799-7ef9-3c79-9c38-4ec7494e9f6c","dept":"44","reg":"pdl"}},{"type":"Feature","geometry":{"type":"Point","coordinates":[-1.50946,47.36303]},"properties":{"nom":"AIRE DE BIVOUAC","sub":"Camping","cm":"44240#Sucé-sur-Erdre","web":null,"uri":"https://data.datatourisme.fr/49/61521deb-9e86-38c9-97f2-3ad2962ed3b6","dept":"44","reg":"pdl"}},{"type":"Feature","geometry":{"type":"Point","coordinates":[-1.41121,47.15285]},"properties":{"nom":"Cabane des Rochers à Saint-Fiacre-sur-Maine","sub":"LodgingBusiness","cm":"44690#Saint-Fiacre-sur-Maine","web":"https://www.randocabane.fr/","uri":"https://data.datatourisme.fr/49/73d39a5e-74e4-3a34-9777-1f35bdde73f9","dept":"44","reg":"pdl"}},{"type":"Feature","geometry":{"type":"Point","coordinates":[-1.46545,47.57989]},"properties":{"nom":"GÎTE DE LA TRAHÉNIÈRE","sub":"LodgingBusiness","cm":"44170#Abbaretz","web":null,"uri":"https://data.datatourisme.fr/49/d8f38fc2-0d84-3a85-b033-f829f16b264c","dept":"44","reg":"pdl"}},{"type":"Feature","geometry":{"type":"Point","coordinates":[-1.46545,47.57989]},"properties":{"nom":"LE HAMEAU DE LA TRAHÉNIÈRE - Chambres et table d'hôtes","sub":"BedAndBreakfast","cm":"44170#Abbaretz","web":null,"uri":"https://data.datatourisme.fr/49/aca06411-dcdc-3068-998a-1b91c4b21581","dept":"44","reg":"pdl"}},{"type":"Feature","geometry":{"type":"Point","coordinates":[-1.54546,47.21709]},"properties":{"nom":"HÔTEL DE LA GARE NANTES","sub":"Hotel","cm":"44000#Nantes","web":"http://www.hotel-gare-nantes.com/","uri":"https://data.datatourisme.fr/49/315241fb-0d67-3c34-bf16-8827a721c131","dept":"44","reg":"pdl"}},{"type":"Feature","geometry":{"type":"Point","coordinates":[-1.54775,47.20625]},"properties":{"nom":"HÔTEL NOVOTEL NANTES CENTRE BORD DE LOIRE","sub":"Hotel","cm":"44470#Nantes","web":"https://novotel.accor.com/a/fr/france.html","uri":"https://data.datatourisme.fr/49/ce33ec1e-9cbf-39a8-9739-56568321410e","dept":"44","reg":"pdl"}},{"type":"Feature","geometry":{"type":"Point","coordinates":[-1.54847,47.27649]},"properties":{"nom":"HÔTEL B&B NANTES PARC EXPO LA CHAPELLE","sub":"Hotel","cm":"44240#La Chapelle-sur-Erdre","web":"http://www.hotel-bb.com/","uri":"https://data.datatourisme.fr/49/7f9248d0-31ed-35cf-894d-c400e6c2dc0a","dept":"44","reg":"pdl"}},{"type":"Feature","geometry":{"type":"Point","coordinates":[-1.48569,47.26857]},"properties":{"nom":"THE ORIGINALS NOVELLA CONFORT NANTES EST CARQUEFOU","sub":"Hotel","cm":"44470#Carquefou","web":"http://www.novella.nantes.com/","uri":"https://data.datatourisme.fr/49/a3985264-ff9d-395a-a2bf-8e08f45a79be","dept":"44","reg":"pdl"}},{"type":"Feature","geometry":{"type":"Point","coordinates":[-2.24511,47.13563]},"properties":{"nom":"Hôtel le Calluna","sub":"HotelTrade","cm":"44770#Préfailles","web":"http://www.lecalluna.com/","uri":"https://data.datatourisme.fr/49/81f9270b-1ac4-30fa-8c07-74ea4250e832","dept":"44","reg":"pdl"}},{"type":"Feature","geometry":{"type":"Point","coordinates":[-2.23195,47.1324]},"properties":{"nom":"Camping Éléovic à Préfailles","sub":"Camping","cm":"44770#Préfailles","web":"http://www.camping-eleovic.com/","uri":"https://data.datatourisme.fr/49/87427663-8ab7-376d-ac65-e1c18564f399","dept":"44","reg":"pdl"}},{"type":"Feature","geometry":{"type":"Point","coordinates":[-1.56444,47.21196]},"properties":{"nom":"HÔTEL VOLTAIRE OPÉRA NANTES CENTRE","sub":"Hotel","cm":"44000#Nantes","web":"http://www.hotelvoltaireoperanantes.com/","uri":"https://data.datatourisme.fr/49/4786e789-2d54-389b-b309-8fa08d61749e","dept":"44","reg":"pdl"}},{"type":"Feature","geometry":{"type":"Point","coordinates":[-1.55696,47.21501]},"properties":{"nom":"HÔTEL SAINT PATRICK","sub":"Hotel","cm":"44000#Nantes","web":"http://www.hotel-saintpatrick.com/","uri":"https://data.datatourisme.fr/49/226766a9-c7db-3a8e-9018-625540fc383a","dept":"44","reg":"pdl"}},{"type":"Feature","geometry":{"type":"Point","coordinates":[-1.76475,47.46934]},"properties":{"nom":"LA TOUE DE BLAIN","sub":"LodgingBusiness","cm":"44130#Blain","web":"https://www.latouedeblain.fr/","uri":"https://data.datatourisme.fr/49/fd3106d2-191a-3a00-83d6-00ede0d9aac9","dept":"44","reg":"pdl"}},{"type":"Feature","geometry":{"type":"Point","coordinates":[-2.27973,47.23814]},"properties":{"nom":"BEST WESTERN HOTEL DE LA PLAGE","sub":"HotelTrade","cm":"44600#Saint-Nazaire","web":"http://www.hotel-delaplage.fr/","uri":"https://data.datatourisme.fr/49/fce8cede-613e-3551-8e64-969f14cff86e","dept":"44","reg":"pdl"}},{"type":"Feature","geometry":{"type":"Point","coordinates":[-2.16498,47.15449]},"properties":{"nom":"Yelloh Village Le Ranch","sub":"Camping","cm":"44770#La Plaine-sur-Mer","web":"https://www.camping-le-ranch.com/","uri":"https://data.datatourisme.fr/49/1267c42e-7939-36c0-b98e-9be5050a450b","dept":"44","reg":"pdl"}},{"type":"Feature","geometry":{"type":"Point","coordinates":[-2.16498,47.15449]},"properties":{"nom":"Yelloh Village Le Ranch","sub":"CampingAndCaravanning","cm":"44770#La Plaine-sur-Mer","web":"https://www.camping-le-ranch.com/","uri":"https://data.datatourisme.fr/49/0cdb761f-e94b-38fb-b844-bac7b077cc3e","dept":"44","reg":"pdl"}},{"type":"Feature","geometry":{"type":"Point","coordinates":[-1.43577,47.28776]},"properties":{"nom":"LA CLOSERIE HÔTEL NANTES","sub":"Hotel","cm":"44470#Thouaré-sur-Loire","web":"http://www.hotel-lacloserie.com/","uri":"https://data.datatourisme.fr/49/e3c8c812-d40a-3d67-bb4b-c62a1f421b6e","dept":"44","reg":"pdl"}},{"type":"Feature","geometry":{"type":"Point","coordinates":[-1.54437,47.22492]},"properties":{"nom":"HÔTEL SAINT YVES","sub":"Hotel","cm":"44000#Nantes","web":"http://www.hotel-saintyves.fr/","uri":"https://data.datatourisme.fr/49/f58a205f-d58a-3a08-9c54-1e3f3e22d298","dept":"44","reg":"pdl"}},{"type":"Feature","geometry":{"type":"Point","coordinates":[-1.55672,47.21727]},"properties":{"nom":"HÔTEL LE PETIT DUQUESNE","sub":"Hotel","cm":"44000#Nantes","web":"http://www.hotelpetitduquesne.com/","uri":"https://data.datatourisme.fr/49/983d679a-0361-3aad-baac-fecf6b4365de","dept":"44","reg":"pdl"}},{"type":"Feature","geometry":{"type":"Point","coordinates":[-1.34772,47.60542]},"properties":{"nom":"Le Martin Pêcheur","sub":"LodgingBusiness","cm":"44520#Moisdon-la-Rivière","web":"https://www.gites-de-france-loire-atlantique.com/fr/location/locations-gites-moisdon-la-riviere-le-martin-pecheur-h44g012101","uri":"https://data.datatourisme.fr/49/f4fd43db-8ca9-3b8c-96f7-5d6857f96615","dept":"44","reg":"pdl"}},{"type":"Feature","geometry":{"type":"Point","coordinates":[-1.92153,47.35608]},"properties":{"nom":"Camping du Lac","sub":"Camping","cm":"44260#Savenay","web":"http://www.camping-lac-savenay.fr/","uri":"https://data.datatourisme.fr/49/9913615a-cf6f-357e-8dfe-99b65b328b7e","dept":"44","reg":"pdl"}},{"type":"Feature","geometry":{"type":"Point","coordinates":[-1.9201,47.35739]},"properties":{"nom":"CÔTÉ LAC","sub":"HotelTrade","cm":"44260#Savenay","web":"http://www.savenaycotelac.fr/","uri":"https://data.datatourisme.fr/49/e1ccfbbe-f93c-38c9-8900-fef577aff9e0","dept":"44","reg":"pdl"}},{"type":"Feature","geometry":{"type":"Point","coordinates":[-1.92121,47.35612]},