{"type":"FeatureCollection","features":[{"type":"Feature","geometry":{"type":"Point","coordinates":[0.30185,44.2581]},"properties":{"nom":"Cycles Sud-Ouest","sub":"Rental","cm":"47160#Buzet-sur-Baïse","web":"http://www.cyclessudouest.com/<>https://cycles-sud-ouest.lokki.rent/","uri":"https://data.datatourisme.fr/23/3a5a1b19-cff5-3d17-97b4-0c320fe368d4","dept":"47","reg":"naq"}},{"type":"Feature","geometry":{"type":"Point","coordinates":[0.28841,44.62768]},"properties":{"nom":"L'Etape Gasconne","sub":"HotelRestaurant","cm":"47800#Allemans-du-Dropt","web":"http://www.letapegasconne-hotel.com/","uri":"https://data.datatourisme.fr/23/d4969b23-123a-364b-8d9c-cf6ccd37bd4e","dept":"47","reg":"naq"}},{"type":"Feature","geometry":{"type":"Point","coordinates":[0.49858,44.38687]},"properties":{"nom":"Les Rives du Plantié","sub":"HotelRestaurant","cm":"47110#Le Temple-sur-Lot","web":"http://www.lesrivesduplantie.com/","uri":"https://data.datatourisme.fr/23/602fc732-4ed8-30c0-a114-2f5e14c04951","dept":"47","reg":"naq"}},{"type":"Feature","geometry":{"type":"Point","coordinates":[0.99733,44.4018]},"properties":{"nom":"Les Voyageurs","sub":"HotelRestaurant","cm":"47370#Tournon-d'Agenais","web":"http://www.les-voyageurs-47.com/","uri":"https://data.datatourisme.fr/23/ab8ad0ef-3775-378c-92e3-90604c4cc3a5","dept":"47","reg":"naq"}},{"type":"Feature","geometry":{"type":"Point","coordinates":[0.99733,44.4018]},"properties":{"nom":"Les Voyageurs","sub":"Hotel","cm":"47370#Tournon-d'Agenais","web":"http://www.logishotels.com/fr/hotel/hotel-les-voyageurs-759<>http://www.les-voyageurs-47.com/","uri":"https://data.datatourisme.fr/23/89e2aa91-b35b-3fbd-8011-c423fa0cd51d","dept":"47","reg":"naq"}},{"type":"Feature","geometry":{"type":"Point","coordinates":[0.97074,44.49737]},"properties":{"nom":"Hotel Restaurant Fumel","sub":"HotelRestaurant","cm":"47500#Fumel","web":"https://www.brit-hotel-fumel.fr/","uri":"https://data.datatourisme.fr/23/0cbdcf51-917c-301c-ad8f-cfdd64932162","dept":"47","reg":"naq"}},{"type":"Feature","geometry":{"type":"Point","coordinates":[0.46035,44.62974]},"properties":{"nom":"Salle Apollo Royal Dancing","sub":"Rental","cm":"47410#Lauzun","web":null,"uri":"https://data.datatourisme.fr/23/97763996-05fd-3051-863b-88e09c9d220d","dept":"47","reg":"naq"}},{"type":"Feature","geometry":{"type":"Point","coordinates":[0.13896,44.46109]},"properties":{"nom":"Emeraude Location","sub":"Rental","cm":"47200#Fourques-sur-Garonne","web":"http://www.emeraudelocabateaux.fr/","uri":"https://data.datatourisme.fr/23/1fe87d02-0085-3b31-8e56-0b9706bb595e","dept":"47","reg":"naq"}},{"type":"Feature","geometry":{"type":"Point","coordinates":[0.6087,44.20925]},"properties":{"nom":"Café Vélo","sub":"Rental","cm":"47000#Agen","web":"http://www.cafe-velo.net/","uri":"https://data.datatourisme.fr/23/249654b5-bc80-3006-abc2-3acea89784c2","dept":"47","reg":"naq"}},{"type":"Feature","geometry":{"type":"Point","coordinates":[0.60859,44.20941]},"properties":{"nom":"Café Vélo","sub":"CollectiveAccommodation","cm":"47000#Agen","web":"http://www.cafe-velo.net/<>https://cafe-velo.net/","uri":"https://data.datatourisme.fr/23/8e8d3fae-4c63-3788-be3f-8dfe95df9831","dept":"47","reg":"naq"}},{"type":"Feature","geometry":{"type":"Point","coordinates":[0.83792,44.4913]},"properties":{"nom":"Ferme Bio de Crozefond","sub":"CampingAndCaravanning","cm":"47150#Saint-Aubin","web":null,"uri":"https://data.datatourisme.fr/23/9148e092-b34e-3049-b660-2b2d303542ee","dept":"47","reg":"naq"}},{"type":"Feature","geometry":{"type":"Point","coordinates":[0.62072,44.57965]},"properties":{"nom":"Camping municipal de Lougratte","sub":"Camping","cm":"47290#Lougratte","web":"https://lougratte.com/","uri":"https://data.datatourisme.fr/23/c02bc34d-7a21-38d0-84a7-14c949618526","dept":"47","reg":"naq"}},{"type":"Feature","geometry":{"type":"Point","coordinates":[0.74335,44.40779]},"properties":{"nom":"Ibis Styles Villeneuve-sur-Lot","sub":"Hotel","cm":"47300#Villeneuve-sur-Lot","web":"http://www.ibis.com/fr/booking/room-dates.shtml<>http://www.ibis.com/fr/hotel-9593-ibis-styles-villeneuve-sur-lot/index.shtml","uri":"https://data.datatourisme.fr/23/d72b79ab-0d01-3cde-b903-c00d31525ac7","dept":"47","reg":"naq"}},{"type":"Feature","geometry":{"type":"Point","coordinates":[0.25153,44.39357]},"properties":{"nom":"Camping de la Halte Nautique - Chez Marcel","sub":"Camping","cm":"47400#Lagruère","web":null,"uri":"https://data.datatourisme.fr/23/092b6207-8dfe-34b8-afba-24e9bde28a30","dept":"47","reg":"naq"}},{"type":"Feature","geometry":{"type":"Point","coordinates":[0.16548,44.52234]},"properties":{"nom":"Le Gîte des Roy","sub":"LodgingBusiness","cm":"47200#Marmande","web":"https://francediv.wixsite.com/gite-marmande","uri":"https://data.datatourisme.fr/23/5d9b6692-a27c-343f-b619-69838fd0e920","dept":"47","reg":"naq"}},{"type":"Feature","geometry":{"type":"Point","coordinates":[0.08311,44.311]},"properties":{"nom":"Meublé Sully","sub":"LodgingBusiness","cm":"47700#Casteljaloux","web":null,"uri":"https://data.datatourisme.fr/23/3733adcd-847c-3b9e-a494-8a39f189416b","dept":"47","reg":"naq"}},{"type":"Feature","geometry":{"type":"Point","coordinates":[0.72358,44.65243]},"properties":{"nom":"Camping de Bergougne","sub":"Camping","cm":"47210#Rives","web":"https://reservation.secureholiday.net/fr/620/search/product-list?dateStart=&dateEnd=&productType=all&filterStatus=showPeriod<>https://www.camping-de-bergougne.fr/","uri":"https://data.datatourisme.fr/23/503d5289-252b-3098-a8e5-bf5e31799d17","dept":"47","reg":"naq"}},{"type":"Feature","geometry":{"type":"Point","coordinates":[0.8189,44.614]},"properties":{"nom":"Camping Fontaine du Roc","sub":"Camping","cm":"47210#Dévillac","web":"https://reservation.secureholiday.net/fr/625<>https://camping-fontaine-roc.com/","uri":"https://data.datatourisme.fr/23/516c7720-987b-365a-bfc7-fae8180c023a","dept":"47","reg":"naq"}},{"type":"Feature","geometry":{"type":"Point","coordinates":[0.8047,44.40312]},"properties":{"nom":"Le Stelsia - Sarl Château de Saint-Sylvestre","sub":"Hotel","cm":"47140#Saint-Sylvestre-sur-Lot","web":"http://www.lestelsia.com/","uri":"https://data.datatourisme.fr/23/ddc3afe2-8a9b-34bc-9d83-d4300cbb70b8","dept":"47","reg":"naq"}},{"type":"Feature","geometry":{"type":"Point","coordinates":[0.74898,44.42097]},"properties":{"nom":"Gîtes La Bakénia - Nissou","sub":"LodgingBusiness","cm":"47300#Villeneuve-sur-Lot","web":"http://labakenia.com/fr/bakenia%20reserver.html<>http://www.labakenia.com/fr","uri":"https://data.datatourisme.fr/23/4e921218-dba2-3baf-822f-44596eb4b1b0","dept":"47","reg":"naq"}},{"type":"Feature","geometry":{"type":"Point","coordinates":[0.74915,44.42077]},"properties":{"nom":"Gîtes la Bakénia - Joini","sub":"LodgingBusiness","cm":"47300#Villeneuve-sur-Lot","web":"http://labakenia.com/fr/bakenia%20reserver.html<>https://www.labakenia.com/fr","uri":"https://data.datatourisme.fr/23/7314a040-b559-3f96-9d97-61a58a127649","dept":"47","reg":"naq"}},{"type":"Feature","geometry":{"type":"Point","coordinates":[0.51174,44.39374]},"properties":{"nom":"Hôtel-Restaurant Les Rives du Plantié","sub":"Hotel","cm":"47110#Le Temple-sur-Lot","web":"http://www.lesrivesduplantie.com/<>http://www.logishotels.com/fr/hotel/hotel-les-rives-du-plantie-198362","uri":"https://data.datatourisme.fr/23/a15cffc6-671a-38fa-94c5-e65c81d1d4c0","dept":"47","reg":"naq"}},{"type":"Feature","geometry":{"type":"Point","coordinates":[0.06613,44.30107]},"properties":{"nom":"Domaine de Laroque - Lou Maïsouet","sub":"LodgingBusiness","cm":"47700#Casteljaloux","web":"http://www.domaine-de-laroque.com/","uri":"https://data.datatourisme.fr/23/0610dd46-07ee-3ba4-889e-04119114b8f7","dept":"47","reg":"naq"}},{"type":"Feature","geometry":{"type":"Point","coordinates":[0.07059,44.29228]},"properties":{"nom":"Domaine de Laroque - Chalet 1","sub":"LodgingBusiness","cm":"47700#Casteljaloux","web":"http://www.domaine-de-laroque.com/","uri":"https://data.datatourisme.fr/23/69cbb6cd-553d-3df0-849c-23cb2951c6d4","dept":"47","reg":"naq"}},{"type":"Feature","geometry":{"type":"Point","coordinates":[0.06655,44.30107]},"properties":{"nom":"Domaine de Laroque - Le Pigeonnier","sub":"LodgingBusiness","cm":"47700#Casteljaloux","web":"http://www.domaine-de-laroque.com/","uri":"https://data.datatourisme.fr/23/18400689-f349-3e62-b74a-e8a7cc2b6c74","dept":"47","reg":"naq"}},{"type":"Feature","geometry":{"type":"Point","coordinates":[0.02661,44.27242]},"properties":{"nom":"Gîte l'Orée des Landes","sub":"LodgingBusiness","cm":"47700#Pindères","web":"https://www.booking.com/Share-PvyMkS","uri":"https://data.datatourisme.fr/23/09a5fedb-f094-3896-a58d-4b157cc679f0","dept":"47","reg":"naq"}},{"type":"Feature","geometry":{"type":"Point","coordinates":[0.35191,44.65182]},"properties":{"nom":"La Vieille Maison","sub":"LodgingBusiness","cm":"47800#La Sauvetat-du-Dropt","web":"https://www.bernotte.com/<>https://www.bernotte.com/nous-contacter/","uri":"https://data.datatourisme.fr/23/76d95701-602f-37f8-b605-122eb70cd3f1","dept":"47","reg":"naq"}},{"type":"Feature","geometry":{"type":"Point","coordinates":[1.00795,44.48375]},"properties":{"nom":"Le Mathi : chambres d'hôtes","sub":"BedAndBreakfast","cm":"47500#Fumel","web":"http://www.lemathi.com/<>https://www.lemathi.com/fr/booking/room","uri":"https://data.datatourisme.fr/23/5e465608-8992-3846-93b7-dcb620a1418f","dept":"47","reg":"naq"}},{"type":"Feature","geometry":{"type":"Point","coordinates":[0.63756,44.3669]},"properties":{"nom":"Domaine de Villot - La Ferme","sub":"LodgingBusiness","cm":"47300#Sainte-Colombe-de-Villeneuve","web":"http://www.domainedevillot.fr/","uri":"https://data.datatourisme.fr/23/79ccfd9d-bbdb-3c56-bbf2-a972e0843d35","dept":"47","reg":"naq"}},{"type":"Feature","geometry":{"type":"Point","coordinates":[0.63756,44.3669]},"properties":{"nom":"Domaine de Villot - Vieux Ateliers","sub":"LodgingBusiness","cm":"47300#Sainte-Colombe-de-Villeneuve","web":"http://www.domainedevillot.fr/","uri":"https://data.datatourisme.fr/23/c59854b3-aa0a-367b-94a4-c6ad41604a31","dept":"47","reg":"naq"}},{"type":"Feature","geometry":{"type":"Point","coordinates":[0.63756,44.3669]},"properties":{"nom":"Domaine de Villot - La Colombe","sub":"LodgingBusiness","cm":"47300#Sainte-Colombe-de-Villeneuve","web":"https://domainedevillot.com/","uri":"https://data.datatourisme.fr/23/85deea0f-503a-3416-8a04-54b90c87f4b3","dept":"47","reg":"naq"}},{"type":"Feature","geometry":{"type":"Point","coordinates":[0.63756,44.3669]},"properties":{"nom":"Domaine de Villot - L'Alouette","sub":"LodgingBusiness","cm":"47300#Sainte-Colombe-de-Villeneuve","web":"https://domainedevillot.com/<>https://www.booking.com/hotel/fr/domaine-de-villot.fr.html","uri":"https://data.datatourisme.fr/23/d47eaede-d12d-3067-976e-8ffb0d0e9a31","dept":"47","reg":"naq"}},{"type":"Feature","geometry":{"type":"Point","coordinates":[0.63756,44.3669]},"properties":{"nom":"Domaine de Villot - Le Pigeonnier","sub":"LodgingBusiness","cm":"47300#Sainte-Colombe-de-Villeneuve","web":"https://domainedevillot.com/<>https://www.booking.com/hotel/fr/domaine-de-villot.fr.html","uri":"https://data.datatourisme.fr/23/1b9a015b-09fe-327d-a6f3-19dd067ab2c8","dept":"47","reg":"naq"}},{"type":"Feature","geometry":{"type":"Point","coordinates":[0.63756,44.3669]},"properties":{"nom":"Domaine de Villot - La Grange","sub":"LodgingBusiness","cm":"47300#Sainte-Colombe-de-Villeneuve","web":"https://domainedevillot.com/<>https://www.booking.com/hotel/fr/domaine-de-villot.fr.html","uri":"https://data.datatourisme.fr/23/bd05d052-3cd9-3a75-bfe6-8fe7071641a0","dept":"47","reg":"naq"}},{"type":"Feature","geometry":{"type":"Point","coordinates":[0.59506,44.36275]},"properties":{"nom":"Gite Bellevue","sub":"LodgingBusiness","cm":"47110#Dolmayrac","web":"https://www.booking.com/hotel/fr/le-bellevue-dolmayrac.fr.html","uri":"https://data.datatourisme.fr/23/38dcd548-d555-333c-ab2f-f38ec7fcdad6","dept":"47","reg":"naq"}},{"type":"Feature","geometry":{"type":"Point","coordinates":[0.33728,44.13581]},"properties":{"nom":"Hôtel Henri IV","sub":"Hotel","cm":"47600#Nérac","web":"https://www.hotelhenriiv.fr/#ShowResa<>http://www.hotelhenriiv.fr/","uri":"https://data.datatourisme.fr/23/90f8efd3-d807-3154-84a1-86460926c3b0","dept":"47","reg":"naq"}},{"type":"Feature","geometry":{"type":"Point","coordinates":[0.70655,44.40815]},"properties":{"nom":"Hôtel-Restaurant Le Glacier","sub":"Hotel","cm":"47300#Villeneuve-sur-Lot","web":"https://www.booking.com/searchresults.fr.html?aid=311089;label=le-glacier-villeneuve-sur-lot-2OoHartg2dWWbQ1ofo8OHAS102049715446%3Apl%3Ata%3Ap1%3Ap2%3Aac%3Aap1t1%3Aneg%3Afi%3Atiaud-146342138710%3Akwd-<>http://www.hotel-restaurantleglacier.fr/index.htm","uri":"https://data.datatourisme.fr/23/858daadd-295e-3a4a-9b1e-73c65d5864a6","dept":"47","reg":"naq"}},{"type":"Feature","geometry":{"type":"Point","coordinates":[0.70655,44.40815]},"properties":{"nom":"Le Glacier","sub":"HotelRestaurant","cm":"47300#Villeneuve-sur-Lot","web":"http://www.bistroleglacier.fr/","uri":"https://data.datatourisme.fr/23/091a5aba-c0b1-31e0-a351-5d41465d1d95","dept":"47","reg":"naq"}},{"type":"Feature","geometry":{"type":"Point","coordinates":[0.70304,44.4022]},"properties":{"nom":"Hôtel La Résidence","sub":"Hotel","cm":"47300#Villeneuve-sur-Lot","web":"https://www.hotellaresidence47.com/fr/booking/room<>http://www.hotellaresidence47.com/","uri":"https://data.datatourisme.fr/23/8b331f3d-242a-36c2-ba45-39a37f3fbb40","dept":"47","reg":"naq"}},{"type":"Feature","geometry":{"type":"Point","coordinates":[0.55429,44.63651]},"properties":{"nom":"Gîte Le Capy","sub":"LodgingBusiness","cm":"47330#Douzains","web":"https://www.lecapy.fr/<>https://www.lecapy.fr/bnb/bnb-2-2","uri":"https://data.datatourisme.fr/23/2fb56e9d-988d-3e3c-b7fc-1fac62193af8","dept":"47","reg":"naq"}},{"type":"Feature","geometry":{"type":"Point","coordinates":[0.61965,44.20452]},"properties":{"nom":"Appart'City","sub":"HolidayResort","cm":"47000#Agen","web":"http://www.appartcity.com/","uri":"https://data.datatourisme.fr/23/6167e754-3eb0-3c47-9183-fc21d1e07e6c","dept":"47","reg":"naq"}},{"type":"Feature","geometry":{"type":"Point","coordinates":[0.4703,44.62185]},"properties":{"nom":"Les Maisons Monplaisir - L'Estanguet","sub":"LodgingBusiness","cm":"47410#Saint-Colomb-de-Lauzun","web":"https://www.lesmaisonsmonplaisir.com/","uri":"https://data.datatourisme.fr/23/8c44de38-2a82-39a9-871a-22805914c927","dept":"47","reg":"naq"}},{"type":"Feature","geometry":{"type":"Point","coordinates":[0.26049,44.05436]},"properties":{"nom":"La Maison du Bouchonnier","sub":"LodgingBusiness","cm":"47170#Mézin","web":null,"uri":"https://data.datatourisme.fr/23/55cabb76-2414-3876-bbe5-66525f41b113","dept":"47","reg":"naq"}},{"type":"Feature","geometry":{"type":"Point","coordinates":[0.76729,44.53104]},"properties":{"nom":"Hôtel-Restaurant La Bastide des Oliviers","sub":"HotelRestaurant","cm":"47150#Monflanquin","web":"http://www.labastidedesoliviers.fr/","uri":"https://data.datatourisme.fr/23/be459979-daa4-3c7d-9c9e-ca93314653b3","dept":"47","reg":"naq"}},{"type":"Feature","geometry":{"type":"Point","coordinates":[0.06535,44.01478]},"properties":{"nom":"Gîte de Labat","sub":"LodgingBusiness","cm":"47170#Saint-Pé-Saint-Simon","web":"https://www.gites-de-france-47.com/<>https://www.gites-de-france-47.com/location-vacances-Gite-a-Saint-pe-saint-simon-Lot-et-garonne-47G3610.html?","uri":"https://data.datatourisme.fr/23/cd8b4afe-ec3b-3798-ad90-42d714496b7a","dept":"47","reg":"naq"}},{"type":"Feature","geometry":{"type":"Point","coordinates":[0.69513,44.4088]},"properties":{"nom":"Gîte André Crochepierre","sub":"LodgingBusiness","cm":"47300#Villeneuve-sur-Lot","web":"http://bordeneuve-gites.jimdo.com/","uri":"https://data.datatourisme.fr/23/59928717-fc7f-37f8-a30d-e8c936119eca","dept":"47","reg":"naq"}},{"type":"Feature","geometry":{"type":"Point","coordinates":[0.69513,44.4088]},"properties":{"nom":"Gîte Hugues Cassany de Mazet","sub":"LodgingBusiness","cm":"47300#Villeneuve-sur-Lot","web":"http://bordeneuve-gites.jimdo.com/","uri":"https://data.datatourisme.fr/23/7f43cf57-ba8a-35eb-9ba0-7de0e5c19f0d","dept":"47","reg":"naq"}},{"type":"Feature","geometry":{"type":"Point","coordinates":[0.69513,44.4088]},"properties":{"nom":"Gîte Roi Richard","sub":"LodgingBusiness","cm":"47300#Villeneuve-sur-Lot","web":"http://aquitaine-bordeneuve-gites.com/","uri":"https://data.datatourisme.fr/23/19cc0a14-f96c-37e8-969f-0d123935b371","dept":"47","reg":"naq"}},{"type":"Feature","geometry":{"type":"Point","coordinates":[0.37474,44.58924]},"properties":{"nom":"Domaine du Saut du Loup","sub":"Hostel","cm":"47800#Miramont-de-Guyenne","web":"http://www.lesdomainesdusautduloup.fr/","uri":"https://data.datatourisme.fr/23/aecc5a7c-cf8a-344c-b1d3-fa445efdcb4a","dept":"47","reg":"naq"}},{"type":"Feature","geometry":{"type":"Point","coordinates":[0.69753,44.20959]},"properties":{"nom":"Gite l'Hirondelle","sub":"LodgingBusiness","cm":"47240#Bon-Encontre","web":null,"uri":"https://data.datatourisme.fr/23/b4ef2804-3251-3a42-b3a1-324e78d09fd8","dept":"47","reg":"naq"}},{"type":"Feature","geometry":{"type":"Point","coordinates":[0.84176,44.5115]},"properties":{"nom":"Le gîte Corabel","sub":"LodgingBusiness","cm":"47150#Lacaussade","web":"https://www.gite-corabel.fr/<>https://www.gite-corabel.fr/bnb/bnb-1-1","uri":"https://data.datatourisme.fr/23/9c7e98ee-3693-30e5-942f-510e6b4a0bdc","dept":"47","reg":"naq"}},{"type":"Feature","geometry":{"type":"Point","coordinates":[0.19686,44.31006]},"properties":{"nom":"Domaine Sud du Ticourret","sub":"LodgingBusiness","cm":"47160#Villefranche-du-Queyran","web":"http://www.ticourret.fr/","uri":"https://data.datatourisme.fr/23/722beb71-332f-3359-b369-6aa1f48a67b8","dept":"47","reg":"naq"}},{"type":"Feature","geometry":{"type":"Point","coordinates":[0.45859,44.51665]},"properties":{"nom":"Gîte de Vincés","sub":"LodgingBusiness","cm":"47380#Tombebœuf","web":"http://vacancescampagne.jimdo.com/<>http://clevacances.com/","uri":"https://data.datatourisme.fr/23/59780a23-53a9-3f83-858b-4360c380b0c6","dept":"47","reg":"naq"}},{"type":"Feature","geometry":{"type":"Point","coordinates":[0.56509,44.22418]},"properties":{"nom":"Le gîte de Malabeille","sub":"LodgingBusiness","cm":"47360#Madaillan","web":null,"uri":"https://data.datatourisme.fr/23/d8d096a8-f586-33fb-8c79-e70c1cd1116a","dept":"47","reg":"naq"}},{"type":"Feature","geometry":{"type":"Point","coordinates":[0.79617,44.24341]},"properties":{"nom":"La Métairie","sub":"LodgingBusiness","cm":"47340#Saint-Robert","web":"http://giteslerocal-saintrobert.fr/","uri":"https://data.datatourisme.fr/23/18e64893-8513-35c7-b68b-8934d7c4f55c","dept":"47","reg":"naq"}},{"type":"Feature","geometry":{"type":"Point","coordinates":[0.68847,44.33835]},"properties":{"nom":"La Grange de Gazelle","sub":"LodgingBusiness","cm":"47340#Saint-Antoine-de-Ficalba","web":"https://www.gites-de-france-47.com/<>http://en.gites-de-france.com/holiday-rentals-Saint-antoine-de-ficalba-Cottage-La-Grange-De-Gazelle-47G3380.html","uri":"https://data.datatourisme.fr/23/7037fa5b-7539-3772-8ead-3f8510b9deb9","dept":"47","reg":"naq"}},{"type":"Feature","geometry":{"type":"Point","coordinates":[0.35688,44.19567]},"properties":{"nom":"Gîte Les Sapins","sub":"LodgingBusiness","cm":"47230#Feugarolles","web":"http://www.lencouet.eu/<>https://www.booking.com/hotel/fr/gites-lencouet.fr.html","uri":"https://data.datatourisme.fr/23/007ad6dc-d1d9-3415-807e-e175728930a6","dept":"47","reg":"naq"}},{"type":"Feature","geometry":{"type":"Point","coordinates":[0.35688,44.19567]},"properties":{"nom":"Gîte Le Galeau","sub":"LodgingBusiness","cm":"47230#Feugarolles","web":"http://www.lencouet.eu/<>https://www.booking.com/hotel/fr/gites-lencouet.fr.html","uri":"https://data.datatourisme.fr/23/b859462b-56a8-380f-8984-a9bf33a01225","dept":"47","reg":"naq"}},{"type":"Feature","geometry":{"type":"Point","coordinates":[0.51816,44.61595]},"properties":{"nom":"Camping La Vallée de Gardeleau","sub":"Camping","cm":"47410#Sérignac-Péboudou","web":"https://booking.secureholiday.net/Product/Type?estabId=301&productType=E&lg=FR<>https://www.camping-valleegardeleau.com/","uri":"https://data.datatourisme.fr/23/ba9d47ad-f294-36fd-be9f-c22022939de1","dept":"47","reg":"naq"}},{"type":"Feature","geometry":{"type":"Point","coordinates":[0.70478,44.40899]},"properties":{"nom":"Hôtel Les Platanes","sub":"Hotel","cm":"47300#Villeneuve-sur-Lot","web":"https://app.mews.com/distributor?ids=259783dd-71df-4747-af5e-aec200b0ad80","uri":"https://data.datatourisme.fr/23/1f407a97-26a0-3513-8f7b-408455a1ddc8","dept":"47","reg":"naq"}},{"type":"Feature","geometry":{"type":"Point","coordinates":[0.70374,44.40859]},"properties":{"nom":"Hôtel des Remparts","sub":"Hotel","cm":"47300#Villeneuve-sur-Lot","web":"http://www.hotel-des-remparts.eu/","uri":"https://data.datatourisme.fr/23/9d95c67d-3c18-302c-9783-b5cf0d0c95e6","dept":"47","reg":"naq"}},{"type":"Feature","geometry":{"type":"Point","coordinates":[0.2696,44.28666]},"properties":{"nom":"The Originals City Hôtel de la Confluence","sub":"Hotel","cm":"47160#Damazan","web":"https://hotel-damazan-agen.com/<>https://hotel-damazan-agen.com/fra/reservations/reserve?arrival=&nights=1&num_pers=1","uri":"https://data.datatourisme.fr/23/bc1aef37-a228-3628-b938-2ad7bfc4b01a","dept":"47","reg":"naq"}},{"type":"Feature","geometry":{"type":"Point","coordinates":[0.2696,44.28666]},"properties":{"nom":"Le 62","sub":"HotelRestaurant","cm":"47160#Damazan","web":"https://hotel-damazan-agen.com/<>https://www.tripadvisor.fr/Hotel_Review-s1-g4220575-d12288059-Reviews-Hotel_Confluence_Agen_Ouest_The_Originals_city-Damazan_Lot_et_Garonne_Nouvelle_Aq.html","uri":"https://data.datatourisme.fr/23/f4dae20c-f80a-35f8-9b4e-35898eeee1a3","dept":"47","reg":"naq"}},{"type":"Feature","geometry":{"type":"Point","coordinates":[0.99462,44.40897]},"properties":{"nom":"Domaine de Ullule","sub":"Camping","cm":"47370#Tournon-d'Agenais","web":"https://www.capfun.com/camping-france-aquitaine-ullule-FR.html","uri":"https://data.datatourisme.fr/23/b6339620-ece4-3bdc-9f55-90552bbd5187","dept":"47","reg":"naq"}},{"type":"Feature","geometry":{"type":"Point","coordinates":[0.67243,44.23223]},"properties":{"nom":"Gîte les Ecureuils","sub":"LodgingBusiness","cm":"47480#Pont-du-Casse","web":"https://www.papvacances.fr/annonce/location-appartement-vue-imprenable-r207901018","uri":"https://data.datatourisme.fr/23/783684c8-4c4c-3b62-8b6c-22e7d4e6aa17","dept":"47","reg":"naq"}},{"type":"Feature","geometry":{"type":"Point","coordinates":[0.08693,44.31487]},"properties":{"nom":"Meublé Posterne","sub":"LodgingBusiness","cm":"47700#Casteljaloux","web":null,"uri":"https://data.datatourisme.fr/23/18315037-c65c-3240-96a5-2577d736d4d3","dept":"47","reg":"naq"}},{"type":"Feature","geometry":{"type":"Point","coordinates":[0.33509,44.63714]},"properties":{"nom":"Vicasse","sub":"LodgingBusiness","cm":"47800#La Sauvetat-du-Dropt","web":"https://maison-vicasse-la-sauvetat.fr/bnb/bnb-1-1","uri":"https://data.datatourisme.fr/23/0d837a08-1236-3368-8ff5-2bde1940cfa0","dept":"47","reg":"naq"}},{"type":"Feature","geometry":{"type":"Point","coordinates":[0.36231,44.59648]},"properties":{"nom":"Lantogne","sub":"LodgingBusiness","cm":"47800#Miramont-de-Guyenne","web":"https://www.gites-de-france-47.com/<>https://www.gites-de-france-47.com/location-vacances-Gite-a-Miramont-de-guyenne-Lot-et-garonne-47G4160.html?","uri":"https://data.datatourisme.fr/23/281abc15-7d62-35b5-a952-e6af044309e7","dept":"47","reg":"naq"}},{"type":"Feature","geometry":{"type":"Point","coordinates":[0.36296,44.5924]},"properties":{"nom":"Le gîte des calèches","sub":"LodgingBusiness","cm":"47800#Miramont-de-Guyenne","web":"http://www.gitedescaleches.fr/","uri":"https://data.datatourisme.fr/23/c8b75d4d-de5a-3a35-9ab1-b70516f0bfc6","dept":"47","reg":"naq"}},{"type":"Feature","geometry":{"type":"Point","coordinates":[0.17615,44.49117]},"properties":{"nom":"Hôtel Le Capricorne","sub":"Hotel","cm":"47200#Marmande","web":"http://www.logishotels.com/fr/hotel/hotel-le-capricorne-rest-le-trianon-356<>http://www.lecapricorne-hotel.com/","uri":"https://data.datatourisme.fr/23/94487cd6-e954-3daf-92f5-a56bfc8107a7","dept":"47","reg":"naq"}},{"type":"Feature","geometry":{"type":"Point","coordinates":[0.53711,44.38099]},"properties":{"nom":"Camping du Bosc","sub":"Camping","cm":"47110#Le Temple-sur-Lot","web":"https://bookingpremium.secureholiday.net/fr/1859<>https://camping-du-bosc.com/","uri":"https://data.datatourisme.fr/23/9522ffa5-cb2e-3298-bd85-f60c27f061ac","dept":"47","reg":"naq"}},{"type":"Feature","geometry":{"type":"Point","coordinates":[0.44712,44.6303]},"properties":{"nom":"Domaine de Beausoleil - The Farm","sub":"LodgingBusiness","cm":"47410#Lauzun","web":"http://www.beausoleilholidays.com/<>https://www.beausoleilholidays.com/booknow","uri":"https://data.datatourisme.fr/23/965484d9-c3e7-3ac6-8d45-a30f1651a7ee","dept":"47","reg":"naq"}},{"type":"Feature","geometry":{"type":"Point","coordinates":[0.89679,44.60152]},"properties":{"nom":"Le Ribatel","sub":"LodgingBusiness","cm":"47150#Lacapelle-Biron","web":"http://francis.lafon.pagesperso-orange.fr/","uri":"https://data.datatourisme.fr/23/a36f19a5-3476-3889-be18-ee1cc842d5e8","dept":"47","reg":"naq"}},{"type":"Feature","geometry":{"type":"Point","coordinates":[0.44683,44.38782]},"properties":{"nom":"Gîte de Laparade","sub":"LodgingBusiness","cm":"47260#Laparade","web":"https://www.gites-de-france-47.com/<>https://www.gites-de-france-47.com/location-vacances-Gite-a-Laparade-Lot-et-garonne-47G304004.html?","uri":"https://data.datatourisme.fr/23/a3c28609-7e99-3349-b64d-c48e3f691d8c","dept":"47","reg":"naq"}},{"type":"Feature","geometry":{"type":"Point","coordinates":[0.38524,44.18194]},"properties":{"nom":"Château de Mazelières - Gîte des Vignes","sub":"LodgingBusiness","cm":"47600#Espiens","web":"https://www.gites-de-france-47.com/<>https://www.chateaudemazelieres.com/<>https://www.gites-de-france-47.com/location-vacances-Gite-a-Espiens-Lot-et-garonne-47G1302.html?","uri":"https://data.datatourisme.fr/23/ba832ab7-f293-305d-b9fd-dea33a23e330","dept":"47","reg":"naq"}},{"type":"Feature","geometry":{"type":"Point","coordinates":[0.38524,44.18197]},"properties":{"nom":"Château de Mazelières - Gîte du Soleil","sub":"LodgingBusiness","cm":"47600#Espiens","web":"https://www.gites-de-france-47.com/<>https://www.gites-de-france-47.com/location-vacances-Gite-a-Espiens-Lot-et-garonne-47G1300.html?","uri":"https://data.datatourisme.fr/23/555b7de6-6805-30a4-b190-3adea6a48ca4","dept":"47","reg":"naq"}},{"type":"Feature","geometry":{"type":"Point","coordinates":[0.38528,44.18192]},"properties":{"nom":"Château de Mazelières - Gîte du Cèdre","sub":"LodgingBusiness","cm":"47600#Espiens","web":"https://www.gites-de-france-47.com/","uri":"https://data.datatourisme.fr/23/8962f953-a45c-3e26-8e22-9d000f0c79d8","dept":"47","reg":"naq"}},{"type":"Feature","geometry":{"type":"Point","coordinates":[0.73825,44.52751]},"properties":{"nom":"Boulède - Le Vigneron","sub":"LodgingBusiness","cm":"47150#Monflanquin","web":"http://www.boulede.com/<>https://www.boulede.com/prices-and-seasons","uri":"https://data.datatourisme.fr/23/1e54135a-6d1f-3a96-8fd1-d55624326e46","dept":"47","reg":"naq"}},{"type":"Feature","geometry":{"type":"Point","coordinates":[0.73825,44.52751]},"properties":{"nom":"Boulède - Le Menuisier","sub":"LodgingBusiness","cm":"47150#Monflanquin","web":"http://www.boulede.com/<>https://www.boulede.com/prices-and-seasons","uri":"https://data.datatourisme.fr/23/3f60225a-9a05-391b-ae1d-d59b0b0cd6f8","dept":"47","reg":"naq"}},{"type":"Feature","geometry":{"type":"Point","coordinates":[1.04659,44.57826]},"properties":{"nom":"Gîte de la Vallée","sub":"LodgingBusiness","cm":"47500#Sauveterre-la-Lémance","web":"http://www.lalaurie.fr/","uri":"https://data.datatourisme.fr/23/991589a3-a3ba-37c2-a10d-7a1bca0ce1dc","dept":"47","reg":"naq"}},{"type":"Feature","geometry":{"type":"Point","coordinates":[1.04659,44.57826]},"properties":{"nom":"Gîte Les Lavandes","sub":"LodgingBusiness","cm":"47500#Sauveterre-la-Lémance","web":"https://lalaurie.fr/","uri":"https://data.datatourisme.fr/23/d38df640-e096-35b8-984e-da91e38f7185","dept":"47","reg":"naq"}},{"type":"Feature","geometry":{"type":"Point","coordinates":[1.04659,44.57826]},"properties":{"nom":"Gîte Les Champs","sub":"LodgingBusiness","cm":"47500#Sauveterre-la-Lémance","web":"https://lalaurie.fr/","uri":"https://data.datatourisme.fr/23/c306186b-d08d-3735-8f8b-59181d157388","dept":"47","reg":"naq"}},{"type":"Feature","geometry":{"type":"Point","coordinates":[0.18195,44.6771]},"properties":{"nom":"Hostellerie des Ducs - restaurant","sub":"HotelRestaurant","cm":"47120#Duras","web":"http://www.hostellerieducs-duras.com/","uri":"https://data.datatourisme.fr/23/605e48b7-2730-3e1d-ba64-fec663488986","dept":"47","reg":"naq"}},{"type":"Feature","geometry":{"type":"Point","coordinates":[0.18238,44.67716]},"properties":{"nom":"Hostellerie des Ducs","sub":"Hotel","cm":"47120#Duras","web":"http://www.hostellerieducs-duras.com/<>https://premium.logishotels.com/fo/booking/233/366","uri":"https://data.datatourisme.fr/23/5263204b-7853-3264-ad82-fb2ea0b07908","dept":"47","reg":"naq"}},{"type":"Feature","geometry":{"type":"Point","coordinates":[0.89337,44.21005]},"properties":{"nom":"La Canelle","sub":"LodgingBusiness","cm":"47270#Saint-Maurin","web":"http://location-saisonniere-stmaurin.weebly.com/<>https://www.airbnb.fr/rooms/14163082?preview","uri":"https://data.datatourisme.fr/23/4a8071d0-6b8c-306a-9dea-f48e9542d2e9","dept":"47","reg":"naq"}},{"type":"Feature","geometry":{"type":"Point","coordinates":[1.02278,44.4222]},"properties":{"nom":"Canel - Le tonneau","sub":"LodgingBusiness","cm":"47370#Thézac","web":"http://www.canel.fr/","uri":"https://data.datatourisme.fr/23/d122d8f5-a1d3-3c30-aa86-47ae14057a75","dept":"47","reg":"naq"}},{"type":"Feature","geometry":{"type":"Point","coordinates":[1.02207,44.42178]},"properties":{"nom":"Canel - les Fours","sub":"LodgingBusiness","cm":"47370#Thézac","web":"http://canel.fr/","uri":"https://data.datatourisme.fr/23/7b96fc1d-00fd-3f5a-8e1f-8d44583003d9","dept":"47","reg":"naq"}},{"type":"Feature","geometry":{"type":"Point","coordinates":[1.02278,44.4222]},"properties":{"nom":"Canel - l'Ecurie","sub":"LodgingBusiness","cm":"47370#Thézac","web":"http://www.canel.fr/","uri":"https://data.datatourisme.fr/23/bec131b5-9267-37a7-9376-df9c77860fa3","dept":"47","reg":"naq"}},{"type":"Feature","geometry":{"type":"Point","coordinates":[0.20958,44.04753]},"properties":{"nom":"La Maison de Simone","sub":"LodgingBusiness","cm":"47170#Poudenas","web":"https://www.poudenas.com/","uri":"https://data.datatourisme.fr/23/617f92bf-949d-3941-b1a2-9daed462a5bd","dept":"47","reg":"naq"}},{"type":"Feature","geometry":{"type":"Point","coordinates":[0.81758,44.69281]},"properties":{"nom":"La Pantère - Chalets","sub":"LodgingBusiness","cm":"47210#Tourliac","web":"http://www.lapantere.fr/<>https://www.lapantere.com/bnb/bnb-3-3<>https://www.lapantere.com/","uri":"https://data.datatourisme.fr/23/65d9705f-f5a8-3a40-b1e0-d18ae45dc187","dept":"47","reg":"naq"}},{"type":"Feature","geometry":{"type":"Point","coordinates":[0.09015,44.31902]},"properties":{"nom":"Chalet Maricla","sub":"LodgingBusiness","cm":"47700#Casteljaloux","web":null,"uri":"https://data.datatourisme.fr/23/6a0a068d-dfee-3b83-a538-f7b920cf6e42","dept":"47","reg":"naq"}},{"type":"Feature","geometry":{"type":"Point","coordinates":[0.26725,44.2564]},"properties":{"nom":"Gîte les Tamaris","sub":"LodgingBusiness","cm":"47160#Saint-Pierre-de-Buzet","web":"https://www.gites-de-beaujardin.fr/","uri":"https://data.datatourisme.fr/23/68bd0be4-2d3d-383f-99d3-05558622cc0f","dept":"47","reg":"naq"}},{"type":"Feature","geometry":{"type":"Point","coordinates":[0.26725,44.2564]},"properties":{"nom":"Gîte Les Glycines","sub":"LodgingBusiness","cm":"47160#Saint-Pierre-de-Buzet","web":"https://www.gites-de-beaujardin.fr/<>https://www.clevacances.com/fr/locationvacances/aquitaine/lotetgaronne/saintpierredebuzet-18130/saint_pierre_de_buzet_tres_beau_gite_a_la_campagne_jardin_et_cuisine_dete_privatifs_proche_agen_et_marmande/65801","uri":"https://data.datatourisme.fr/23/769ae196-64c5-3183-9aae-506b9bdb3acb","dept":"47","reg":"naq"}},{"type":"Feature","geometry":{"type":"Point","coordinates":[0.29508,44.71338]},"properties":{"nom":"Simply Canvas Maison Pierre","sub":"LodgingBusiness","cm":"47120#Saint-Jean-de-Duras","web":"https://simplycanvasfarm.com/<>https://simplycanvasfarm.com/fr/retraites/","uri":"https://data.datatourisme.fr/23/9838dd98-06a0-34bb-87d5-682f0b29b2d8","dept":"47","reg":"naq"}},{"type":"Feature","geometry":{"type":"Point","coordinates":[0.53581,44.29085]},"properties":{"nom":"Domaine du Lac de Néguenou","sub":"Camping","cm":"47360#Prayssas","web":"https://www.lacdeneguenou.fr/","uri":"https://data.datatourisme.fr/23/5365815a-0153-39f9-a9f9-36fc81384fa2","dept":"47","reg":"naq"}},{"type":"Feature","geometry":{"type":"Point","coordinates":[0.15101,44.48189]},"properties":{"nom":"Les Agapanthes","sub":"LodgingBusiness","cm":"47200#Marmande","web":null,"uri":"https://data.datatourisme.fr/23/45bf9bfe-9fa0-30b1-8a19-2ba97bda3b77","dept":"47","reg":"naq"}},{"type":"Feature","geometry":{"type":"Point","coordinates":[0.53902,44.65519]},"properties":{"nom":"Gîte de La Gaubide","sub":"LodgingBusiness","cm":"47330#Lalandusse","web":"https://adrtlotetgaronne.reservationenligne.net/listing/17","uri":"https://data.datatourisme.fr/23/9fcb270e-37c4-32dc-bc4d-61b2d007edec","dept":"47","reg":"naq"}},{"type":"Feature","geometry":{"type":"Point","coordinates":[1.00542,44.42948]},"properties":{"nom":"Le Verger","sub":"LodgingBusiness","cm":"47370#Thézac","web":null,"uri":"https://data.datatourisme.fr/23/e89886dd-7fb7-37c2-a9c4-a36396e0d2e8","dept":"47","reg":"naq"}},{"type":"Feature","geometry":{"type":"Point","coordinates":[0.9603,44.60158]},"properties":{"nom":"Les Résidences du Mayne - la Ferme","sub":"LodgingBusiness","cm":"47500#Blanquefort-sur-Briolance","web":"https://adrtlotetgaronne.reservationenligne.net/listing/28","uri":"https://data.datatourisme.fr/23/54253db3-ee0a-3084-a26d-2c51f131608b","dept":"47","reg":"naq"}},{"type":"Feature","geometry":{"type":"Point","coordinates":[0.95846,44.60145]},"properties":{"nom":"Les Résidences du Mayne - le Chêne","sub":"LodgingBusiness","cm":"47500#Blanquefort-sur-Briolance","web":"https://adrtlotetgaronne.reservationenligne.net/listing/29","uri":"https://data.datatourisme.fr/23/0a595ef4-a723-324e-aae3-e013f4625d27","dept":"47","reg":"naq"}},{"type":"Feature","geometry":{"type":"Point","coordinates":[0.95888,44.60091]},"properties":{"nom":"Les Résidences du Mayne - le Sorbier","sub":"LodgingBusiness","cm":"47500#Blanquefort-sur-Briolance","web":"https://adrtlotetgaronne.reservationenligne.net/listing/31","uri":"https://data.datatourisme.fr/23/889406ae-8711-3834-9bba-28ab9cc17822","dept":"47","reg":"naq"}},{"type":"Feature","geometry":{"type":"Point","coordinates":[0.95916,44.60066]},"properties":{"nom":"Les Résidences du Mayne - le Châtaignier","sub":"LodgingBusiness","cm":"47500#Blanquefort-sur-Briolance","web":"https://adrtlotetgaronne.reservationenligne.net/listing/32","uri":"https://data.datatourisme.fr/23/d72d2670-655d-3fb4-98d1-80a876f452e8","dept":"47","reg":"naq"}},{"type":"Feature","geometry":{"type":"Point","coordinates":[0.68575,44.17444]},"properties":{"nom":"B&B Agen Castelculier","sub":"Hotel","cm":"47240#Castelculier","web":"https://www.hotel-bb.com/fr/hotel/agen-castelculier","uri":"https://data.datatourisme.fr/23/108e81cd-70a4-3df9-8b38-0c5826362d49","dept":"47","reg":"naq"}},{"type":"Feature","geometry":{"type":"Point","coordinates":[0.76107,44.60918]},"properties":{"nom":"Huttopia Pays des Bastides","sub":"Camping","cm":"47210#Saint-Étienne-de-Villeréal","web":"https://europe.huttopia.com/site/pays-des-bastides/<>https://europe.huttopia.com/site/pays-des-bastides/?utm_medium=annuaire&utm_source=CoeurdeBastides&utm_campaign=Pays-des-Bastides","uri":"https://data.datatourisme.fr/23/a9982c42-ee78-36ec-a32f-40f4e215d428","dept":"47","reg":"naq"}},{"type":"Feature","geometry":{"type":"Point","coordinates":[0.07508,44.29444]},"properties":{"nom":"Hôtel du Lac","sub":"Hotel","cm":"47700#Casteljaloux","web":"https://reservation.elloha.com/?idPublication=3b91bfff-347f-46ce-9917-abf64c16de7c&idoi=bf386869-470a-4486-862a-61afc4caa2c6&culture=fr-FR&searchFirstAvailableDates=1<>http://www.lhoteldulac.com/","uri":"https://data.datatourisme.fr/23/102e118f-f973-3777-886f-d07095e6d94a","dept":"47","reg":"naq"}},{"type":"Feature","geometry":{"type":"Point","coordinates":[0.08512,44.27064]},"properties":{"nom":"Camping La Taillade","sub":"Camping","cm":"47420#Pompogne","web":"https://vacances-lataillade.fr/","uri":"https://data.datatourisme.fr/23/44cc5209-8205-3bb8-a8dd-159b513264a4","dept":"47","reg":"naq"}},{"type":"Feature","geometry":{"type":"Point","coordinates":[0.16924,44.50142]},"properties":{"nom":"Hôtel la Couronne","sub":"Hotel","cm":"47200#Marmande","web":"https://hotellacouronne47.com/fra/reservations/reserve<>http://hotellacouronne47.com/","uri":"https://data.datatourisme.fr/23/40259376-785a-3a04-9dd9-0c4300beca12","dept":"47","reg":"naq"}},{"type":"Feature","geometry":{"type":"Point","coordinates":[1.01811,44.37819]},"properties":{"nom":"Camping Le Pouchou","sub":"Camping","cm":"47370#Tournon-d'Agenais","web":"https://www.camping-le-pouchou.com/","uri":"https://data.datatourisme.fr/23/461de715-1c63-32f4-b690-97c917ac655c","dept":"47","reg":"naq"}},{"type":"Feature","geometry":{"type":"Point","coordinates":[0.17338,44.50316]},"properties":{"nom":"Appart Hôtel Jean Douce","sub":"LodgingBusiness","cm":"47200#Marmande","web":"http://www.apparthoteljeandouce.jimdo.com/","uri":"https://data.datatourisme.fr/23/9a1ab9f8-d6c3-30ee-95d6-d1b637498260","dept":"47","reg":"naq"}},{"type":"Feature","geometry":{"type":"Point","coordinates":[0.69513,44.4088]},"properties":{"nom":"La Bordeneuve - Gîte Le Pigeonnier","sub":"LodgingBusiness","cm":"47300#Villeneuve-sur-Lot","web":"http://bordeneuve-gites.jimdo.com/","uri":"https://data.datatourisme.fr/23/6f1e81f4-9f29-38f5-83f3-2cac8bdd7d59","dept":"47","reg":"naq"}},{"type":"Feature","geometry":{"type":"Point","coordinates":[0.44712,44.6303]},"properties":{"nom":"Domaine de Beausoleil - La Grange","sub":"LodgingBusiness","cm":"47410#Lauzun","web":"http://www.beausoleilholidays.com/<>https://www.beausoleilholidays.com/booknow","uri":"https://data.datatourisme.fr/23/a6e029b2-2cfb-3a54-bc12-d0bd8d7098d1","dept":"47","reg":"naq"}},{"type":"Feature","geometry":{"type":"Point","coordinates":[0.44712,44.6303]},"properties":{"nom":"Domaine de Beausoleil- Arch","sub":"LodgingBusiness","cm":"47410#Lauzun","web":"http://www.beausoleilholidays.com/<>https://www.beausoleilholidays.com/booknow","uri":"https://data.datatourisme.fr/23/195cc800-1aa6-3632-a7cd-5f87b0086bc0","dept":"47","reg":"naq"}},{"type":"Feature","geometry":{"type":"Point","coordinates":[0.44712,44.6303]},"properties":{"nom":"Domaine de Beausoleil- Lodge","sub":"LodgingBusiness","cm":"47410#Lauzun","web":"http://www.beausoleilholidays.com/<>https://www.beausoleilholidays.com/booknow","uri":"https://data.datatourisme.fr/23/09398a82-512e-32ed-8a46-fa05ad05eec0","dept":"47","reg":"naq"}},{"type":"Feature","geometry":{"type":"Point","coordinates":[0.29508,44.71338]},"properties":{"nom":"Simply Canvas - Maison de vacances","sub":"LodgingBusiness","cm":"47120#Saint-Jean-de-Duras","web":"https://simplycanvasfarm.com/<>https://simplycanvasfarm.com/fr/retraites/","uri":"https://data.datatourisme.fr/23/dfde625d-a87c-3d75-b7be-6c5604099bb8","dept":"47","reg":"naq"}},{"type":"Feature","geometry":{"type":"Point","coordinates":[0.29483,44.71336]},"properties":{"nom":"Simply Canvas","sub":"Camping","cm":"47120#Saint-Jean-de-Duras","web":"https://simplycanvasfarm.com/","uri":"https://data.datatourisme.fr/23/52968769-3527-3bf9-8d20-75e376df3809","dept":"47","reg":"naq"}},{"type":"Feature","geometry":{"type":"Point","coordinates":[0.20881,44.07341]},"properties":{"nom":"Camping naturiste du Lac de Lislebonne","sub":"Camping","cm":"47170#Réaup-Lisse","web":"https://www.camping-lac-lislebonne.com/<>https://bookingpremium.secureholiday.net/fr/743/","uri":"https://data.datatourisme.fr/23/5cac8750-9e4a-39dc-bacc-3c6557fb9448","dept":"47","reg":"naq"}},{"type":"Feature","geometry":{"type":"Point","coordinates":[0.89511,44.42546]},"properties":{"nom":"Le Clos d'Audet - les Trémières","sub":"LodgingBusiness","cm":"47140#Trémons","web":"https://www.airbnb.fr/rooms/22318410?source_impression_id=p3_1770291201_P3tRMqY-MYFnczNr","uri":"https://data.datatourisme.fr/23/63c13f7d-70a4-3afe-b93d-31743774b3fe","dept":"47","reg":"naq"}},{"type":"Feature","geometry":{"type":"Point","coordinates":[0.76647,44.49708]},"properties":{"nom":"Domaine de Mestre","sub":"LodgingBusiness","cm":"47150#Monflanquin","web":null,"uri":"https://data.datatourisme.fr/23/41101b13-bd57-311d-ae64-960fa391386a","dept":"47","reg":"naq"}},{"type":"Feature","geometry":{"type":"Point","coordinates":[0.37572,44.58693]},"properties":{"nom":"Les Cottages du Saut du Loup - Village vacances famille","sub":"LodgingBusiness","cm":"47800#Miramont-de-Guyenne","web":"http://www.lesdomainesdusautduloup.fr/","uri":"https://data.datatourisme.fr/23/67d6796e-51c9-3254-b8b9-93c726f440c9","dept":"47","reg":"naq"}},{"type":"Feature","geometry":{"type":"Point","coordinates":[0.37227,44.59001]},"properties":{"nom":"Salle omnisports - Jean-Claude Delage","sub":"Rental","cm":"47800#Miramont-de-Guyenne","web":"http://www.ville-miramontdeguyenne.fr/","uri":"https://data.datatourisme.fr/23/a1764e97-b041-3abb-bf49-202bf47d1dd4","dept":"47","reg":"naq"}},{"type":"Feature","geometry":{"type":"Point","coordinates":[0.37394,44.5899]},"properties":{"nom":"Salle de réception - Le Petit Chaperon Rouge","sub":"Rental","cm":"47800#Miramont-de-Guyenne","web":"https://www.mariages.net/domaine-mariage/le-petit-chaperon-rouge--e130316","uri":"https://data.datatourisme.fr/23/a7fa886a-1aaf-3db7-b8b6-c9a135ff2424","dept":"47","reg":"naq"}},{"type":"Feature","geometry":{"type":"Point","coordinates":[0.43399,44.60559]},"properties":{"nom":"Le Vieux Pommier","sub":"LodgingBusiness","cm":"47410#Bourgougnague","web":"http://www.gitesdetiffaudie.com/<>https://gitesdetiffaudie.com/bnb/","uri":"https://data.datatourisme.fr/23/6a353805-9f83-3c0f-8d9c-f988c8828735","dept":"47","reg":"naq"}},{"type":"Feature","geometry":{"type":"Point","coordinates":[0.43399,44.60559]},"properties":{"nom":"Les Marronniers","sub":"LodgingBusiness","cm":"47410#Bourgougnague","web":"http://www.gitesdetiffaudie.com/<>https://gitesdetiffaudie.com/bnb/","uri":"https://data.datatourisme.fr/23/86112e27-8bcb-32f0-8f0f-b24cd4a9fdef","dept":"47","reg":"naq"}},{"type":"Feature","geometry":{"type":"Point","coordinates":[0.6997,44.42338]},"properties":{"nom":"Mercure Villeneuve-sur-Lot Le Moulin de Madame","sub":"Hotel","cm":"47300#Villeneuve-sur-Lot","web":"http://www.accorhotels.com/<>http://www.mercure.com/fr/hotel-A6Q0-hotel-mercure-villeneuve-sur-lot-moulin-de-madameopen-nov-2016/index.shtml","uri":"https://data.datatourisme.fr/23/6ab4316e-05aa-3b36-9e51-d3191c7ebcb1","dept":"47","reg":"naq"}},{"type":"Feature","geometry":{"type":"Point","coordinates":[0.08875,44.31471]},"properties":{"nom":"Meublé Myrtilles","sub":"LodgingBusiness","cm":"47700#Casteljaloux","web":null,"uri":"https://data.datatourisme.fr/23/8646eb9b-e78f-3406-9163-cc3243b3f823","dept":"47","reg":"naq"}},{"type":"Feature","geometry":{"type":"Point","coordinates":[0.08875,44.31471]},"properties":{"nom":"Meublé Reinette","sub":"LodgingBusiness","cm":"47700#Casteljaloux","web":null,"uri":"https://data.datatourisme.fr/23/b7a9c828-b896-3f2c-a797-c1c0db149983","dept":"47","reg":"naq"}},{"type":"Feature","geometry":{"type":"Point","coordinates":[0.34296,44.1395]},"properties":{"nom":"Résidence Goelia Aquaresort","sub":"HolidayResort","cm":"47600#Nérac","web":"https://www.goelia.com/fr/residence-vacances/nerac-pays-d-albret/aquaresort-goelia.208.4.php<>https://www.goelia.com/fr/residence-vacances,prix/nerac-pays-d-albret/aquaresort-goelia.208.4.php","uri":"https://data.datatourisme.fr/23/79f9d630-f259-3410-ad59-de76f4915b73","dept":"47","reg":"naq"}},{"type":"Feature","geometry":{"type":"Point","coordinates":[0.35422,44.6467]},"properties":{"nom":"La Fournière de Costy","sub":"LodgingBusiness","cm":"47800#Agnac","web":null,"uri":"https://data.datatourisme.fr/23/0f1317eb-4f32-3ab1-995a-4c3e623f0b8b","dept":"47","reg":"naq"}},{"type":"Feature","geometry":{"type":"Point","coordinates":[0.51983,44.37981]},"properties":{"nom":"La Base - Le Temple-sur-Lot","sub":"CollectiveAccommodation","cm":"47110#Le Temple-sur-Lot","web":"http://www.la-base.com/","uri":"https://data.datatourisme.fr/23/9ac11a4b-e1c4-31a6-b78b-940d8ab6ef8d","dept":"47","reg":"naq"}},{"type":"Feature","geometry":{"type":"Point","coordinates":[0.28021,44.11021]},"properties":{"nom":"Gîte à l'Orée des bois","sub":"LodgingBusiness","cm":"47170#Réaup-Lisse","web":"https://www.airbnb.fr/rooms/12059441?source_impression_id=p3_1759936099_P3JMNMvGuUVPMmza","uri":"https://data.datatourisme.fr/23/37dba328-c802-39ce-b5b0-44dd7933e223","dept":"47","reg":"naq"}},{"type":"Feature","geometry":{"type":"Point","coordinates":[0.08873,44.31466]},"properties":{"nom":"Meublé Lavande","sub":"LodgingBusiness","cm":"47700#Casteljaloux","web":null,"uri":"https://data.datatourisme.fr/23/52240a45-9125-366a-b4d1-e93e8a6ec458","dept":"47","reg":"naq"}},{"type":"Feature","geometry":{"type":"Point","coordinates":[1.00795,44.48375]},"properties":{"nom":"Gîte le Mas","sub":"LodgingBusiness","cm":"47500#Fumel","web":"http://www.lemathi.com/<>https://www.lemathi.com/fr/booking/room","uri":"https://data.datatourisme.fr/23/1eacd6c7-461b-3fc6-a0da-6c65a41599e1","dept":"47","reg":"naq"}},{"type":"Feature","geometry":{"type":"Point","coordinates":[1.00795,44.48375]},"properties":{"nom":"Gîte la Bicoque","sub":"LodgingBusiness","cm":"47500#Fumel","web":"http://www.lemathi.com/<>https://www.lemathi.com/fr/booking/room","uri":"https://data.datatourisme.fr/23/62408a07-3000-3304-84e6-85c2819437c0","dept":"47","reg":"naq"}},{"type":"Feature","geometry":{"type":"Point","coordinates":[0.82288,44.46676]},"properties":{"nom":"Camping de Monredon","sub":"Camping","cm":"47150#Saint-Aubin","web":null,"uri":"https://data.datatourisme.fr/23/41f72f6c-e474-3049-abee-745fd8746fd5","dept":"47","reg":"naq"}},{"type":"Feature","geometry":{"type":"Point","coordinates":[0.73063,44.46969]},"properties":{"nom":"Gîte l'Occitane","sub":"LodgingBusiness","cm":"47150#La Sauvetat-sur-Lède","web":"https://www.gites-de-france-47.com/<>https://www.gites-de-france-47.com/location-vacances-Gite-a-La-Sauvetat-sur-lede-Lot-et-garonne-47G335002.html","uri":"https://data.datatourisme.fr/23/6207b751-e860-37cc-8815-847495502ed6","dept":"47","reg":"naq"}},{"type":"Feature","geometry":{"type":"Point","coordinates":[0.70108,44.49374]},"properties":{"nom":"Gîte La Truffière","sub":"LodgingBusiness","cm":"47150#La Sauvetat-sur-Lède","web":"https://www.gites-de-france-47.com/<>https://www.gites-de-france-47.com/location-vacances-Gite-a-La-Sauvetat-sur-lede-Lot-et-garonne-47G335001.html","uri":"https://data.datatourisme.fr/23/26a4e70f-0f23-3a73-a3f5-20d57cc4f4f8","dept":"47","reg":"naq"}},{"type":"Feature","geometry":{"type":"Point","coordinates":[0.08369,44.31096]},"properties":{"nom":"Meublé la Forge","sub":"LodgingBusiness","cm":"47700#Casteljaloux","web":null,"uri":"https://data.datatourisme.fr/23/f58a4b23-9f81-3479-8987-7b7bfe6891c7","dept":"47","reg":"naq"}},{"type":"Feature","geometry":{"type":"Point","coordinates":[0.68101,44.65812]},"properties":{"nom":"Gîte de Paillé","sub":"LodgingBusiness","cm":"47210#Rives","web":"https://www.gites-de-france-47.com/<>https://www.gites-de-france-47.com/location-vacances-Gite-a-Rives-Lot-et-garonne-47G984002.html","uri":"https://data.datatourisme.fr/23/c908e194-28c0-341d-8cf9-6fab55ee565c","dept":"47","reg":"naq"}},{"type":"Feature","geometry":{"type":"Point","coordinates":[0.92566,44.45547]},"properties":{"nom":"Gîte de Lacajoque","sub":"LodgingBusiness","cm":"47370#Saint-Georges","web":null,"uri":"https://data.datatourisme.fr/23/27fb40a0-f159-3ec1-a1e8-e9b7b52dc7c4","dept":"47","reg":"naq"}},{"type":"Feature","geometry":{"type":"Point","coordinates":[0.54101,44.46945]},"properties":{"nom":"Chambres d'hôtes de Fresquet","sub":"BedAndBreakfast","cm":"47380#Monclar","web":null,"uri":"https://data.datatourisme.fr/23/76a81dc2-6412-3a35-86d9-e6de3564b124","dept":"47","reg":"naq"}},{"type":"Feature","geometry":{"type":"Point","coordinates":[0.53683,44.47254]},"properties":{"nom":"La plaine de Fresquet","sub":"LodgingBusiness","cm":"47380#Monclar","web":"https://www.clevacances.com/fr/locationvacances/aquitaine/lotetgaronne/monclar-18038/gite_familial_en_pleine_campagne_avec_piscine_chaufee_commune_et_mini_ferme_ludique_monclar_lot_garonne/65742<>https://www.clevacances.com/fr/mes-hebergements/65743/description","uri":"https://data.datatourisme.fr/23/f3554b18-13c5-3a8d-8f4e-ea0d575686a9","dept":"47","reg":"naq"}},{"type":"Feature","geometry":{"type":"Point","coordinates":[0.76203,44.61557]},"properties":{"nom":"Club les Ormes","sub":"Camping","cm":"47210#Saint-Étienne-de-Villeréal","web":"https://clublesormes.com/fr/rechercher-reserver/<>https://clublesormes.com/","uri":"https://data.datatourisme.fr/23/d8307979-6041-32d3-85eb-be91f6b07de3","dept":"47","reg":"naq"}},{"type":"Feature","geometry":{"type":"Point","coordinates":[0.0472,44.3225]},"properties":{"nom":"Meublé Jay","sub":"LodgingBusiness","cm":"47700#Beauziac","web":null,"uri":"https://data.datatourisme.fr/23/36319dac-0bb4-3b56-a056-168762806fe3","dept":"47","reg":"naq"}},{"type":"Feature","geometry":{"type":"Point","coordinates":[0.44648,44.57098]},"properties":{"nom":"Le Pavillon du Château de Lescaut","sub":"LodgingBusiness","cm":"47800#Montignac-de-Lauzun","web":"https://chateaulescaut.fr/<>https://www.chateaulescaut.fr/bnb/bnb-1-1","uri":"https://data.datatourisme.fr/23/5f79f29f-1432-37b6-8394-69423330cfd7","dept":"47","reg":"naq"}},{"type":"Feature","geometry":{"type":"Point","coordinates":[0.89916,44.48872]},"properties":{"nom":"Les Gites du Béral- Gite bas","sub":"LodgingBusiness","cm":"47500#Condezaygues","web":"http://www.gites-beral.com/","uri":"https://data.datatourisme.fr/23/7913a3c5-413c-355b-81dd-194724b03d3f","dept":"47","reg":"naq"}},{"type":"Feature","geometry":{"type":"Point","coordinates":[0.1786,44.67117]},"properties":{"nom":"Les Champs du Plat Bassin","sub":"LodgingBusiness","cm":"47120#Duras","web":null,"uri":"https://data.datatourisme.fr/23/627766b3-9c51-3ed1-895d-3fb4c8eca12a","dept":"47","reg":"naq"}},{"type":"Feature","geometry":{"type":"Point","coordinates":[0.26712,44.25667]},"properties":{"nom":"Gîte les Véroniques","sub":"LodgingBusiness","cm":"47160#Saint-Pierre-de-Buzet","web":"https://www.gites-de-beaujardin.fr/<>https://www.gites-de-beaujardin.fr/gites/gite-les-veroniques-.html","uri":"https://data.datatourisme.fr/23/c40c5557-93bd-3fe4-a769-126d6a71da65","dept":"47","reg":"naq"}},{"type":"Feature","geometry":{"type":"Point","coordinates":[0.71026,44.40495]},"properties":{"nom":"La Maison de Velours","sub":"BedAndBreakfast","cm":"47300#Villeneuve-sur-Lot","web":"http://www.chambres-hotes.fr/ch53266","uri":"https://data.datatourisme.fr/23/e23eb767-8e50-3165-9928-7ab033c7ae63","dept":"47","reg":"naq"}},{"type":"Feature","geometry":{"type":"Point","coordinates":[0.11614,44.69212]},"properties":{"nom":"Le vallon de Guerry","sub":"LodgingBusiness","cm":"47120#Sainte-Colombe-de-Duras","web":"https://www.gites-de-france-47.com/<>http://vallondeguerry.com/<>http://www.gites-de-france-47.com/location-vacances-Gite-a-Sainte-colombe-de-duras-Lot-Et-Garonne-47G937001.html","uri":"https://data.datatourisme.fr/23/c66ccfd6-39fb-3fcc-954f-5f53f0a640a9","dept":"47","reg":"naq"}},{"type":"Feature","geometry":{"type":"Point","coordinates":[0.11608,44.69208]},"properties":{"nom":"Le Vallon de Guerry","sub":"BedAndBreakfast","cm":"47120#Sainte-Colombe-de-Duras","web":"https://www.gites-de-france-47.com/<>https://www.gites-de-france-47.com/location-vacances-Chambre-d-hotes-a-Sainte-colombe-de-duras-Lot-et-garonne-47G2289.html<>https://vallondeguerry.com/","uri":"https://data.datatourisme.fr/23/7cea78ef-15ad-3a30-bc6d-e4716a06e2ca","dept":"47","reg":"naq"}},{"type":"Feature","geometry":{"type":"Point","coordinates":[0.85265,44.47624]},"properties":{"nom":"Les Tilleuls","sub":"LodgingBusiness","cm":"47150#Saint-Aubin","web":"https://www.gites-de-france-47.com/<>https://www.gitesdecrozefond.fr/bnb/bnb-1-1","uri":"https://data.datatourisme.fr/23/acfc9b14-ad52-3ff5-a172-c02d1f352fd1","dept":"47","reg":"naq"}},{"type":"Feature","geometry":{"type":"Point","coordinates":[0.83925,44.49282]},"properties":{"nom":"Les Chênes","sub":"LodgingBusiness","cm":"47150#Saint-Aubin","web":"https://www.gites-de-france-47.com/<>https://www.gitesdecrozefond.fr/bnb/bnb-2-2","uri":"https://data.datatourisme.fr/23/4f68bb76-344a-39e6-88d9-afc31caad1ef","dept":"47","reg":"naq"}},{"type":"Feature","geometry":{"type":"Point","coordinates":[0.89916,44.48872]},"properties":{"nom":"Les Gîtes du Béral- Gîte Haut","sub":"LodgingBusiness","cm":"47500#Condezaygues","web":"http://www.gites-beral.com/<>https://www.clevacances.com/fr/locationvacances/aquitaine/lotetgaronne/condezaygues-17939/gite_haut_du_beral_petite_maison_contemporaine_climatisee_de_plain_pied_2_chambres_jardin_et_piscine_chauffee_proche_du_lot/3614","uri":"https://data.datatourisme.fr/23/fb507527-cf7f-32c2-baee-b557289f76e7","dept":"47","reg":"naq"}},{"type":"Feature","geometry":{"type":"Point","coordinates":[0.13361,44.41176]},"properties":{"nom":"Syl-Vallée Western Village","sub":"Camping","cm":"47250#Bouglon","web":"https://sylvalleewesternvillage.ellohaweb.com/","uri":"https://data.datatourisme.fr/23/42fe4743-2af1-36d4-b6d6-4dfc59e908bf","dept":"47","reg":"naq"}},{"type":"Feature","geometry":{"type":"Point","coordinates":[0.09666,44.39299]},"properties":{"nom":"Syl-Vallée Western Village","sub":"BedAndBreakfast","cm":"47250#Bouglon","web":"https://syl-vallee.jimdofree.com/","uri":"https://data.datatourisme.fr/23/489aeab9-1274-346c-beaf-f29c18242b80","dept":"47","reg":"naq"}},{"type":"Feature","geometry":{"type":"Point","coordinates":[0.6871,44.39515]},"properties":{"nom":"Camping Paradis \"Vallée du Lot\"","sub":"Camping","cm":"47300#Pujols","web":"https://camping-lot-et-bastides.fr/votre-recherche-de-sejour/<>https://camping-lot-et-bastides.fr/","uri":"https://data.datatourisme.fr/23/7e45be06-0b70-3aa0-9bf5-8ba35e4057fb","dept":"47","reg":"naq"}},{"type":"Feature","geometry":{"type":"Point","coordinates":[0.84126,44.41253]},"properties":{"nom":"Le Logis de Lavergne","sub":"LodgingBusiness","cm":"47140#Penne-d'Agenais","web":null,"uri":"https://data.datatourisme.fr/23/80d96e6a-5fe4-3263-94cd-767ed077068f","dept":"47","reg":"naq"}},{"type":"Feature","geometry":{"type":"Point","coordinates":[0.17032,44.43046]},"properties":{"nom":"Les Terrasses des Mimosas - Gîte Les Dahlias","sub":"LodgingBusiness","cm":"47430#Caumont-sur-Garonne","web":"https://lesterrassesdesmimosas.fr/<>https://www.lesterrassesdesmimosas.fr/bnb/","uri":"https://data.datatourisme.fr/23/1d5ed908-e1c5-30b9-a648-ff8f5137af68","dept":"47","reg":"naq"}},{"type":"Feature","geometry":{"type":"Point","coordinates":[0.17034,44.43056]},"properties":{"nom":"Les Terrasses des Mimosas","sub":"BedAndBreakfast","cm":"47430#Caumont-sur-Garonne","web":"https://www.gites-de-france-47.com/<>https://lesterrassesdesmimosas.fr/<>https://www.gites-de-france-47.com/location-vacances-Chambre-d-hotes-a-Caumont-sur-garonne-Lot-et-garonne-47G2376.html","uri":"https://data.datatourisme.fr/23/969ef0d3-ee19-3a65-b4d4-243ae3ac1730","dept":"47","reg":"naq"}},{"type":"Feature","geometry":{"type":"Point","coordinates":[0.44561,44.38819]},"properties":{"nom":"Maison Bittner","sub":"BedAndBreakfast","cm":"47260#Laparade","web":null,"uri":"https://data.datatourisme.fr/23/3998f382-c890-330a-863c-79442b62d406","dept":"47","reg":"naq"}},{"type":"Feature","geometry":{"type":"Point","coordinates":[0.54285,44.24311]},"properties":{"nom":"Camping Le Moulin de Mellet","sub":"Camping","cm":"47450#Saint-Hilaire-de-Lusignan","web":"https://camping-moulin-mellet.com/","uri":"https://data.datatourisme.fr/23/cc73d924-de46-3baa-9983-cdd23a6e9d0f","dept":"47","reg":"naq"}},{"type":"Feature","geometry":{"type":"Point","coordinates":[0.39618,44.23199]},"properties":{"nom":"Camping du Moulin Saint Laurent","sub":"Camping","cm":"47130#Saint-Laurent","web":"http://www.moulindesaintlaurent.com/<>https://www.moulindesaintlaurent.com/","uri":"https://data.datatourisme.fr/23/cd006b3c-e089-30dd-8d2f-78458133e2e9","dept":"47","reg":"naq"}},{"type":"Feature","geometry":{"type":"Point","coordinates":[0.71383,44.38803]},"properties":{"nom":"Hôtel - Restaurant Campanile Villeneuve-sur-Lot","sub":"Hotel","cm":"47300#Pujols","web":"http://www.campanile-villeneuve-sur-lot-pujols.fr/fr<>http://www.campanile-villeneuve-sur-lot-pujols.fr/","uri":"https://data.datatourisme.fr/23/cf4bacc6-7292-3795-9071-9859e8df0444","dept":"47","reg":"naq"}},{"type":"Feature","geometry":{"type":"Point","coordinates":[0.24213,44.32835]},"properties":{"nom":"Ecrin des Sens","sub":"LodgingBusiness","cm":"47160#Puch-d'Agenais","web":"https://www.ecrin-des-sens.com/","uri":"https://data.datatourisme.fr/23/fd0950ab-0700-3ea1-ad3a-9d2904a43ed3","dept":"47","reg":"naq"}},{"type":"Feature","geometry":{"type":"Point","coordinates":[0.55243,44.20154]},"properties":{"nom":"Hôtel-Restaurant Au Colombier du Touron","sub":"Hotel","cm":"47310#Brax","web":"http://www.colombierdutouron.com/<>https://premium.logishotels.com/fo/booking/233/3383?nbroom=1&specialMode=default&begindate=12/11/2025&tmonth=11&tyear=2025&hotelid=3383&numnight=1&m=booking&roomAge1=40,40&langcode=FR&enddate=13/11/2025&fyear=2025&custid=233&fmonth=11&fday=12&tday=13","uri":"https://data.datatourisme.fr/23/1e5743cf-f328-3dd7-b4b5-6f1b9c3bfc68","dept":"47","reg":"naq"}},{"type":"Feature","geometry":{"type":"Point","coordinates":[0.28555,44.32813]},"properties":{"nom":"Gîte du château de Morin","sub":"LodgingBusiness","cm":"47160#Puch-d'Agenais","web":"http://www.chateaudemorin.com/<>https://www.abritel.fr/location-vacances/p1234208<>https://www.airbnb.fr/rooms/28426714?source_impression_id=p3_1696496945_767%2BXQRiTxr0pdP3<>https://www.booking.com/hotel/fr/chateau-de-morin.fr.html","uri":"https://data.datatourisme.fr/23/11f78567-b592-34f0-8a67-2c919077f8a4","dept":"47","reg":"naq"}},{"type":"Feature","geometry":{"type":"Point","coordinates":[0.56845,44.36186]},"properties":{"nom":"Grand Gîte Gary","sub":"LodgingBusiness","cm":"47110#Dolmayrac","web":"http://grandgitegary.jimdo.com/","uri":"https://data.datatourisme.fr/23/49fe5f75-92eb-38cc-a7a7-05df61d1b15d","dept":"47","reg":"naq"}},{"type":"Feature","geometry":{"type":"Point","coordinates":[0.08587,44.31453]},"properties":{"nom":"Meublé Yanis","sub":"LodgingBusiness","cm":"47700#Casteljaloux","web":null,"uri":"https://data.datatourisme.fr/23/8d2a7fa9-d172-3ba2-89a5-8f19689b82e5","dept":"47","reg":"naq"}},{"type":"Feature","geometry":{"type":"Point","coordinates":[0.34031,44.13669]},"properties":{"nom":"La Tour de Brazalem","sub":"BedAndBreakfast","cm":"47600#Nérac","web":"https://www.gites-de-france-47.com/<>https://www.latourdebrazalem.com/","uri":"https://data.datatourisme.fr/23/53d015ac-4827-3ce8-b84c-e3f1cfde7495","dept":"47","reg":"naq"}},{"type":"Feature","geometry":{"type":"Point","coordinates":[0.46383,44.10836]},"properties":{"nom":"Gîte des Orchidées","sub":"LodgingBusiness","cm":"47600#Nomdieu","web":"http://www.gitemonge.fr/","uri":"https://data.datatourisme.fr/23/887cebc1-2820-3860-841b-b5c04e28fd67","dept":"47","reg":"naq"}},{"type":"Feature","geometry":{"type":"Point","coordinates":[0.56055,44.14144]},"properties":{"nom":"Timazen","sub":"BedAndBreakfast","cm":"47310#Aubiac","web":"http://www.timazen.com/","uri":"https://data.datatourisme.fr/23/62e1d3e9-4de8-37f3-bf8c-664244ccd7fa","dept":"47","reg":"naq"}},{"type":"Feature","geometry":{"type":"Point","coordinates":[0.60601,44.47732]},"properties":{"nom":"Gîte de Sagette","sub":"LodgingBusiness","cm":"47290#Saint-Pastour","web":null,"uri":"https://data.datatourisme.fr/23/48cd3284-cc32-3053-85d1-3ec4080db0f5","dept":"47","reg":"naq"}},{"type":"Feature","geometry":{"type":"Point","coordinates":[0.64018,44.25279]},"properties":{"nom":"Gîte La Chênaie","sub":"LodgingBusiness","cm":"47340#Castella","web":"https://adrtlotetgaronne.reservationenligne.net/listing/9","uri":"https://data.datatourisme.fr/23/57f669c7-de3f-3db1-9dc4-72432c4eec69","dept":"47","reg":"naq"}},{"type":"Feature","geometry":{"type":"Point","coordinates":[0.7442,44.63684]},"properties":{"nom":"La Table de l’Europe - Hôtel & Gastronomie","sub":"Hotel","cm":"47210#Villeréal","web":"http://www.europe-villereal.com/<>https://europe-villereal.com/demande-de-reservation","uri":"https://data.datatourisme.fr/23/fa24cc33-fc95-3eeb-82d0-14b2be2dccc1","dept":"47","reg":"naq"}},{"type":"Feature","geometry":{"type":"Point","coordinates":[0.74429,44.63692]},"properties":{"nom":"La Table de l'Europe","sub":"HotelRestaurant","cm":"47210#Villeréal","web":"http://www.europe-villereal.com/<>https://reservation.laddition.com/booking/la-table-de-l-europe#/date","uri":"https://data.datatourisme.fr/23/88956998-6e19-352d-a050-0e8624ad49df","dept":"47","reg":"naq"}},{"type":"Feature","geometry":{"type":"Point","coordinates":[0.86144,44.22802]},"properties":{"nom":"La Grange","sub":"LodgingBusiness","cm":"47470#Dondas","web":"https://adrtlotetgaronne.reservationenligne.net/listing/15","uri":"https://data.datatourisme.fr/23/b414fb74-c011-3744-bd46-fc6fb13021a4","dept":"47","reg":"naq"}},{"type":"Feature","geometry":{"type":"Point","coordinates":[0.16307,44.03175]},"properties":{"nom":"La Ferme du Boué - Le gîte Capucine","sub":"LodgingBusiness","cm":"47170#Sainte-Maure-de-Peyriac","web":"http://www.fermeduboue.com/","uri":"https://data.datatourisme.fr/23/656cbf7e-9862-3e30-bcd2-41778823e41f","dept":"47","reg":"naq"}},{"type":"Feature","geometry":{"type":"Point","coordinates":[0.16307,44.03175]},"properties":{"nom":"La Ferme du Boué - Le gîte Lilas","sub":"LodgingBusiness","cm":"47170#Sainte-Maure-de-Peyriac","web":"https://www.gites-de-france-47.com/<>http://www.fermeduboue.com/<>https://www.gites-de-france-47.com/location-vacances-Gite-a-Sainte-maure-de-peyriac-Lot-et-garonne-47G3833.html?","uri":"https://data.datatourisme.fr/23/7cdb38a1-e128-30e5-a4ea-d875d4aab309","dept":"47","reg":"naq"}},{"type":"Feature","geometry":{"type":"Point","coordinates":[0.16307,44.03175]},"properties":{"nom":"La Ferme du Boué - Le gîte Glycine","sub":"LodgingBusiness","cm":"47170#Sainte-Maure-de-Peyriac","web":"https://www.gites-de-france-47.com/<>http://www.fermeduboue.com/<>https://www.gites-de-france-47.com/location-vacances-Gite-a-Sainte-maure-de-peyriac-Lot-et-garonne-47G3832.html?","uri":"https://data.datatourisme.fr/23/7ce006c3-a914-3b52-a183-566d312c2b34","dept":"47","reg":"naq"}},{"type":"Feature","geometry":{"type":"Point","coordinates":[0.16307,44.03175]},"properties":{"nom":"La Ferme du Boué - Le gîte rose","sub":"LodgingBusiness","cm":"47170#Sainte-Maure-de-Peyriac","web":"http://www.fermeduboue.com/","uri":"https://data.datatourisme.fr/23/0738090d-ceab-3863-b73d-148ac6f87788","dept":"47","reg":"naq"}},{"type":"Feature","geometry":{"type":"Point","coordinates":[0.16307,44.03175]},"properties":{"nom":"La Ferme du Boué - Le gîte Camélia","sub":"LodgingBusiness","cm":"47170#Sainte-Maure-de-Peyriac","web":"https://www.gites-de-france-47.com/<>http://www.fermeduboue.com/<>https://www.gites-de-france-47.com/location-vacances-Gite-a-Sainte-maure-de-peyriac-Lot-et-garonne-47G3834.html?","uri":"https://data.datatourisme.fr/23/08e9f53b-d914-3643-9020-c2614ea8d1d0","dept":"47","reg":"naq"}},{"type":"Feature","geometry":{"type":"Point","coordinates":[0.86144,44.22802]},"properties":{"nom":"Le Pigeonnier","sub":"LodgingBusiness","cm":"47470#Dondas","web":"https://adrtlotetgaronne.reservationenligne.net/listing/16","uri":"https://data.datatourisme.fr/23/dfe47735-913d-359e-8f2a-3a5b417db329","dept":"47","reg":"naq"}},{"type":"Feature","geometry":{"type":"Point","coordinates":[0.74973,44.56638]},"properties":{"nom":"Gîte du Domaine de Bousquetou","sub":"LodgingBusiness","cm":"47210#Saint-Eutrope-de-Born","web":"http://www.domainedebousquetou.com/<>https://www.domainedebousquetou.com/reservation-tarifs/demande-de-reservation/","uri":"https://data.datatourisme.fr/23/03073120-c7db-33f7-b2ca-edb0f964f61a","dept":"47","reg":"naq"}},{"type":"Feature","geometry":{"type":"Point","coordinates":[0.81828,44.6581]},"properties":{"nom":"Le gîte du Roucal","sub":"LodgingBusiness","cm":"47210#Parranquet","web":"https://www.clevacances.com/fr/hebergement/1590-maison-en-pierre-independante-5-chambres-avec-jardin-et-piscine-prives-sur-va?adults=0&children=0&babies=0&pets=0","uri":"https://data.datatourisme.fr/23/ceb3126e-4935-3145-9632-068867b3b12f","dept":"47","reg":"naq"}},{"type":"Feature","geometry":{"type":"Point","coordinates":[0.15209,44.24101]},"properties":{"nom":"Gîte de Saint-Julien","sub":"LodgingBusiness","cm":"47700#Fargues-sur-Ourbise","web":null,"uri":"https://data.datatourisme.fr/23/0231180c-b2cb-35e4-b84e-43d0dae799f9","dept":"47","reg":"naq"}},{"type":"Feature","geometry":{"type":"Point","coordinates":[0.54333,44.28327]},"properties":{"nom":"Gîte de Beytes","sub":"LodgingBusiness","cm":"47360#Madaillan","web":"https://adrtlotetgaronne.reservationenligne.net/listing/23","uri":"https://data.datatourisme.fr/23/c2bf2370-e28c-395e-ad32-40318ac283ab","dept":"47","reg":"naq"}},{"type":"Feature","geometry":{"type":"Point","coordinates":[0.13463,44.5855]},"properties":{"nom":"Gîte du Tilleul - Domaine de la Gazaille","sub":"LodgingBusiness","cm":"47180#Castelnau-sur-Gupie","web":"https://www.gites-de-france-47.com/<>https://www.gites-de-france-47.com/location-vacances-Gite-a-Castelnau-sur-gupie-Lot-et-garonne-47G725001.html?&insee=47056&nbp_min=2","uri":"https://data.datatourisme.fr/23/51f3a948-94ee-3f26-8c40-142d7c5c2f1c","dept":"47","reg":"naq"}},{"type":"Feature","geometry":{"type":"Point","coordinates":[0.13463,44.5855]},"properties":{"nom":"Gîte du Bambou - Domaine de la Gazaille","sub":"LodgingBusiness","cm":"47180#Castelnau-sur-Gupie","web":"https://www.gites-de-france-47.com/<>https://www.gites-de-france-47.com/location-vacances-Gite-a-Castelnau-sur-gupie-Lot-et-garonne-47G725002.html?&insee=47056&nbp_min=2","uri":"https://data.datatourisme.fr/23/392d2d07-12f2-3456-99c1-e54e00d70571","dept":"47","reg":"naq"}},{"type":"Feature","geometry":{"type":"Point","coordinates":[0.5062,44.50909]},"properties":{"nom":"Domaine Les Pruniers - Gîte Myrtille","sub":"LodgingBusiness","cm":"47380#Montastruc","web":"https://www.domainelespruniers.com/","uri":"https://data.datatourisme.fr/23/462232f0-aa67-3bc8-bc17-175ca25e7be0","dept":"47","reg":"naq"}},{"type":"Feature","geometry":{"type":"Point","coordinates":[0.5062,44.50909]},"properties":{"nom":"Domaine Les Pruniers - Gîte Mirabelle","sub":"LodgingBusiness","cm":"47380#Montastruc","web":"https://www.domainelespruniers.com/","uri":"https://data.datatourisme.fr/23/0eb4cd42-1ddc-3d2f-ba1a-0975770346bb","dept":"47","reg":"naq"}},{"type":"Feature","geometry":{"type":"Point","coordinates":[0.24767,44.01173]},"properties":{"nom":"Gîte de Jean- Nico","sub":"LodgingBusiness","cm":"47170#Lannes","web":"https://adrtlotetgaronne.reservationenligne.net/listing/20","uri":"https://data.datatourisme.fr/23/3bcd880a-39cb-3efe-8f7b-b0e0210bf92d","dept":"47","reg":"naq"}},{"type":"Feature","geometry":{"type":"Point","coordinates":[0.08305,44.31551]},"properties":{"nom":"Meublé Porte des Landes","sub":"LodgingBusiness","cm":"47700#Casteljaloux","web":"https://www.apparthotelcasteljaloux.fr/","uri":"https://data.datatourisme.fr/23/e8ce8e87-c3e4-3c5f-ab0a-28f1affd0733","dept":"47","reg":"naq"}},{"type":"Feature","geometry":{"type":"Point","coordinates":[0.57712,44.35913]},"properties":{"nom":"Gite du Domaine de Calbiac","sub":"LodgingBusiness","cm":"47110#Dolmayrac","web":"https://domainedecalbiac.fr/<>http://domainedecalbiac.fr/","uri":"https://data.datatourisme.fr/23/65c2ec8c-8bb0-34ae-82bb-c966fd9c616a","dept":"47","reg":"naq"}},{"type":"Feature","geometry":{"type":"Point","coordinates":[0.86644,44.45082]},"properties":{"nom":"Les Chambres d'Hôtes La Granja","sub":"BedAndBreakfast","cm":"47140#Trentels","web":"http://www.gites-lagranja.com/","uri":"https://data.datatourisme.fr/23/ebeeb8fd-d59c-38cc-95b8-cc6c779d64bb","dept":"47","reg":"naq"}},{"type":"Feature","geometry":{"type":"Point","coordinates":[0.45964,44.62966]},"properties":{"nom":"Gîte de Lafageole","sub":"LodgingBusiness","cm":"47410#Lauzun","web":"https://www.gites-de-france-47.com/<>http://www.gites-de-france-47.com/gite-rural-colmagro-christiane-a-lauzun-dans-Dropt-667001.html","uri":"https://data.datatourisme.fr/23/699e0d42-3584-311e-8b82-32a0ea439d3c","dept":"47","reg":"naq"}},{"type":"Feature","geometry":{"type":"Point","coordinates":[0.8895,44.26914]},"properties":{"nom":"Camping Les Deux Lacs","sub":"Camping","cm":"47470#Beauville","web":"https://www.les2lacs.com/","uri":"https://data.datatourisme.fr/23/15424ce6-ce01-371d-b011-354c654b6f47","dept":"47","reg":"naq"}},{"type":"Feature","geometry":{"type":"Point","coordinates":[0.6748,44.17999]},"properties":{"nom":"Kyriad Direct Agen Castelculier","sub":"Hotel","cm":"47240#Castelculier","web":"https://www.kyriad.com/fr/hotels/kyriad-direct-agen-castelculier","uri":"https://data.datatourisme.fr/23/16e46f35-a208-3d67-a599-2c8089edad97","dept":"47","reg":"naq"}},{"type":"Feature","geometry":{"type":"Point","coordinates":[0.62306,44.20408]},"properties":{"nom":"Hôtel Ibis Agen Centre","sub":"Hotel","cm":"47000#Agen","web":"http://www.ibishotel.com/","uri":"https://data.datatourisme.fr/23/19199c1b-ef47-36e3-a852-bc38ba1db4a6","dept":"47","reg":"naq"}},{"type":"Feature","geometry":{"type":"Point","coordinates":[0.39625,44.23216]},"properties":{"nom":"Moulin de Saint-Laurent - Gîte du Meunier","sub":"LodgingBusiness","cm":"47130#Saint-Laurent","web":"http://www.moulindesaintlaurent.com/","uri":"https://data.datatourisme.fr/23/984b8a41-3429-38c9-af35-d557c5b277cd","dept":"47","reg":"naq"}},{"type":"Feature","geometry":{"type":"Point","coordinates":[0.39618,44.23199]},"properties":{"nom":"Moulin de Saint-Laurent - Gîte du Chanvre","sub":"LodgingBusiness","cm":"47130#Saint-Laurent","web":"http://www.moulindesaintlaurent.com/","uri":"https://data.datatourisme.fr/23/81057ef0-13a9-3063-b9fe-73ff0ae778e3","dept":"47","reg":"naq"}},{"type":"Feature","geometry":{"type":"Point","coordinates":[0.39629,44.23215]},"properties":{"nom":"Moulin Saint-Laurent - Gîte du Charpentier","sub":"LodgingBusiness","cm":"47130#Saint-Laurent","web":"https://www.moulindesaintlaurent.com/","uri":"https://data.datatourisme.fr/23/b402a7f3-82e8-39a2-98a0-2f896b3d2338","dept":"47","reg":"naq"}},{"type":"Feature","geometry":{"type":"Point","coordinates":[0.98012,44.58778]},"properties":{"nom":"La Bistoule","sub":"LodgingBusiness","cm":"47500#Blanquefort-sur-Briolance","web":"https://www.villaforyou.com/en/holiday-home-france/lot-et-garonne/holiday-home-blanquefort-sur-briolance-6-persons-a3528?adults=2&arrival=2024-09-07&departure=2024-09-14","uri":"https://data.datatourisme.fr/23/84d3935a-c2f7-3d59-9554-e8d3adee43b5","dept":"47","reg":"naq"}},{"type":"Feature","geometry":{"type":"Point","coordinates":[0.99164,44.52708]},"properties":{"nom":"Gîte de Pouzatel","sub":"LodgingBusiness","cm":"47500#Fumel","web":"http://www.legitedepouzatel.fr/<>https://www.airbnb.fr/rooms/6637102?source_impression_id=p3_1718201106_P3GOHhP3gQFJyXiQ","uri":"https://data.datatourisme.fr/23/c36baae9-ab80-3b5a-8a6d-598977b27612","dept":"47","reg":"naq"}},{"type":"Feature","geometry":{"type":"Point","coordinates":[0.99164,44.52708]},"properties":{"nom":"Ferme de Pouzatel","sub":"LodgingBusiness","cm":"47500#Fumel","web":"http://www.pouzatel.fr/<>https://www.booking.com/hotel/fr/pouzatel.fr.html","uri":"https://data.datatourisme.fr/23/53a98a07-545d-39a7-ad0a-7fed32ddb0e2","dept":"47","reg":"naq"}},{"type":"Feature","geometry":{"type":"Point","coordinates":[0.65234,44.06673]},"properties":{"nom":"L'Oasis","sub":"LodgingBusiness","cm":"47220#Astaffort","web":"https://fr.airbnb.ch/rooms/848960495746249916?source_impression_id=p3_1716296447_QpTwG6u390y9s35x<>https://www.booking.com/hotel/fr/gite-l-oasis.fr.html?activeTab=photosGallery","uri":"https://data.datatourisme.fr/23/ec58d38b-2156-356c-9c59-3d03bf6f6fd7","dept":"47","reg":"naq"}},{"type":"Feature","geometry":{"type":"Point","coordinates":[0.49289,44.3965]},"properties":{"nom":"La Terrasse au bord du Lot","sub":"LodgingBusiness","cm":"47260#Castelmoron-sur-Lot","web":"https://www.abritel.fr/location-vacances/p1099102","uri":"https://data.datatourisme.fr/23/d2a3e170-e493-3028-af51-223b171b9ea3","dept":"47","reg":"naq"}},{"type":"Feature","geometry":{"type":"Point","coordinates":[0.09522,44.32255]},"properties":{"nom":"Meublé Nibon","sub":"LodgingBusiness","cm":"47700#Casteljaloux","web":"http://www.claudiechristianleonet.fr/209917000","uri":"https://data.datatourisme.fr/23/15f32423-d012-3acb-9919-78c722b4fece","dept":"47","reg":"naq"}},{"type":"Feature","geometry":{"type":"Point","coordinates":[0.29492,44.71337]},"properties":{"nom":"Simply Canvas - le gîte blanc","sub":"LodgingBusiness","cm":"47120#Saint-Jean-de-Duras","web":"https://www.simplycanvasfarm.com/<>https://simplycanvasfarm.com/fr/retraites/","uri":"https://data.datatourisme.fr/23/427f9f9e-b7f6-3d5b-89d5-5a1725eeb3ff","dept":"47","reg":"naq"}},{"type":"Feature","geometry":{"type":"Point","coordinates":[0.2592,44.65026]},"properties":{"nom":"Les Costes","sub":"LodgingBusiness","cm":"47120#Pardaillan","web":null,"uri":"https://data.datatourisme.fr/23/4e2589b0-7136-3be5-87d9-8a81123f65ad","dept":"47","reg":"naq"}},{"type":"Feature","geometry":{"type":"Point","coordinates":[0.20875,44.04748]},"properties":{"nom":"Le Bastion du Prince Noir","sub":"LodgingBusiness","cm":"47170#Poudenas","web":"https://www.poudenas.com/<>http://www.gasconymanorhouse.com/","uri":"https://data.datatourisme.fr/23/4f0f4354-9175-371e-aa92-567ffdaedafc","dept":"47","reg":"naq"}},{"type":"Feature","geometry":{"type":"Point","coordinates":[0.0657,44.30064]},"properties":{"nom":"Domaine de Laroque - Chalet 2","sub":"LodgingBusiness","cm":"47700#Casteljaloux","web":"http://www.domaine-de-laroque.com/","uri":"https://data.datatourisme.fr/23/fac2f839-6d02-3be4-86c2-c2a235f150da","dept":"47","reg":"naq"}},{"type":"Feature","geometry":{"type":"Point","coordinates":[0.09424,44.31352]},"properties":{"nom":"Meublé Limouchia","sub":"LodgingBusiness","cm":"47700#Casteljaloux","web":null,"uri":"https://data.datatourisme.fr/23/52fef091-103e-3f33-9ab6-addfc4840e62","dept":"47","reg":"naq"}},{"type":"Feature","geometry":{"type":"Point","coordinates":[0.14918,44.68047]},"properties":{"nom":"Château la Grave Béchade","sub":"LodgingBusiness","cm":"47120#Baleyssagues","web":"https://lagravebechade.fr/<>https://www.airbnb.fr/rooms/18514986?source_impression_id=p3_1579255815_7nTXjOYgyHJHU2yq<>http://pepinieres-et-noisetiers-de-guyenne.com/","uri":"https://data.datatourisme.fr/23/88cf26af-4a0b-3e3f-9275-8424cce0d11b","dept":"47","reg":"naq"}},{"type":"Feature","geometry":{"type":"Point","coordinates":[0.53089,44.65654]},"properties":{"nom":"La grange de Rivières","sub":"LodgingBusiness","cm":"47330#Lalandusse","web":"https://www.gites-de-france-47.com/<>http://www.gites-de-france-47.com/location-vacances-Gite-a-Lalandusse-Lot-Et-Garonne-47G3760.html<>http://www.lagrangederivieres.com/<>http://lagrangederivieres.com/","uri":"https://data.datatourisme.fr/23/482ac058-bc33-3be1-b665-50a6edd26124","dept":"47","reg":"naq"}},{"type":"Feature","geometry":{"type":"Point","coordinates":[0.31337,44.60216]},"properties":{"nom":"Bardots - Les Peupliers","sub":"LodgingBusiness","cm":"47800#Puysserampion","web":"https://www.gites-de-france-47.com/<>http://www.gites-de-france-47.com/gite-rural-labardin-philippe-a-puysserampion-dans-Dropt-724002.html<>https://www.giteslesbardots.fr/bnb/bnb-3-3","uri":"https://data.datatourisme.fr/23/446ceb99-0e95-32f1-9e07-f8ea3c906cf4","dept":"47","reg":"naq"}},{"type":"Feature","geometry":{"type":"Point","coordinates":[0.31334,44.60216]},"properties":{"nom":"Bardots - Les Tilleuls","sub":"LodgingBusiness","cm":"47800#Puysserampion","web":"https://www.gites-de-france-47.com/<>https://www.gites-de-france-47.com/location-vacances-Gite-a-Puysserampion-Lot-et-garonne-47G724001.html<>https://www.giteslesbardots.fr/bnb/bnb-2-2","uri":"https://data.datatourisme.fr/23/a6911c67-c862-3e83-aa72-e454a828098d","dept":"47","reg":"naq"}},{"type":"Feature","geometry":{"type":"Point","coordinates":[0.35532,44.60353]},"properties":{"nom":"Gîte Les Bananiers","sub":"LodgingBusiness","cm":"47800#Miramont-de-Guyenne","web":"https://www.gites-de-france-47.com/<>https://www.gites-de-france-47.com/location-vacances-Gite-a-Miramont-de-guyenne-Lot-et-garonne-47G5240.html","uri":"https://data.datatourisme.fr/23/2ece6962-c7b5-3f2a-ab0b-56fead398eac","dept":"47","reg":"naq"}},{"type":"Feature","geometry":{"type":"Point","coordinates":[0.18927,44.40583]},"properties":{"nom":"Domaine de Méroc - B&B Chez Véronique et Thomas","sub":"BedAndBreakfast","cm":"47430#Le Mas-d'Agenais","web":"https://www.gites-de-france-47.com/<>https://www.gites-de-france-47.com/location-vacances-Chambre-d-hotes-a-Le-Mas-d-agenais-Lot-et-garonne-47G2182.html","uri":"https://data.datatourisme.fr/23/1d645423-c741-3146-ad16-cba6c1999a1d","dept":"47","reg":"naq"}},{"type":"Feature","geometry":{"type":"Point","coordinates":[0.7352,44.26874]},"properties":{"nom":"Gîte de Garach","sub":"LodgingBusiness","cm":"47340#Laroque-Timbaut","web":"https://www.gitedegarach.fr/<>https://adrtlotetgaronne.reservationenligne.net/listing/22","uri":"https://data.datatourisme.fr/23/33c9e219-1c20-39e6-a8d3-3667544a53e9","dept":"47","reg":"naq"}},{"type":"Feature","geometry":{"type":"Point","coordinates":[0.96665,44.39198]},"properties":{"nom":"Gîte de Pouchalou","sub":"LodgingBusiness","cm":"47370#Tournon-d'Agenais","web":"https://adrtlotetgaronne.reservationenligne.net/listing/36","uri":"https://data.datatourisme.fr/23/94643d1d-7d50-312f-b4ad-14e3445efe45","dept":"47","reg":"naq"}},{"type":"Feature","geometry":{"type":"Point","coordinates":[0.12315,44.55392]},"properties":{"nom":"Gîte du Meunier","sub":"LodgingBusiness","cm":"47180#Castelnau-sur-Gupie","web":"https://www.gites-de-france-47.com/<>https://www.gites-de-france-47.com/location-vacances-Gite-a-Castelnau-sur-gupie-Lot-et-garonne-47G4320.html","uri":"https://data.datatourisme.fr/23/5df54918-1ccb-3918-869d-aca94508c469","dept":"47","reg":"naq"}},{"type":"Feature","geometry":{"type":"Point","coordinates":[0.242,44.29271]},"properties":{"nom":"Le hameau des coquelicots - la maison des Marguerites","sub":"LodgingBusiness","cm":"47160#Saint-Léon","web":"http://www.lehameaudescoquelicots.com/","uri":"https://data.datatourisme.fr/23/2ace5984-64ac-364f-a662-0b48a2f83183","dept":"47","reg":"naq"}},{"type":"Feature","geometry":{"type":"Point","coordinates":[0.242,44.2927]},"properties":{"nom":"Le hameau des coquelicots - la Maison des Bleuets","sub":"LodgingBusiness","cm":"47160#Saint-Léon","web":"http://www.lehameaudescoquelicots.com/","uri":"https://data.datatourisme.fr/23/c7e06796-5b7f-3877-a74e-37664e8d38a4","dept":"47","reg":"naq"}},{"type":"Feature","geometry":{"type":"Point","coordinates":[0.242,44.29271]},"properties":{"nom":"Le hameau des coquelicots - la maison des Blés","sub":"LodgingBusiness","cm":"47160#Saint-Léon","web":"http://www.lehameaudescoquelicots.com/","uri":"https://data.datatourisme.fr/23/76803fbc-1521-3657-8a56-eb712c95bded","dept":"47","reg":"naq"}},{"type":"Feature","geometry":{"type":"Point","coordinates":[0.1838,44.09228]},"properties":{"nom":"La Gare de Réaup","sub":"LodgingBusiness","cm":"47170#Réaup-Lisse","web":"https://adrtlotetgaronne.reservationenligne.net/listing/35","uri":"https://data.datatourisme.fr/23/7335c743-4191-3c60-8ee4-f522d1553b77","dept":"47","reg":"naq"}},{"type":"Feature","geometry":{"type":"Point","coordinates":[0.08113,44.31413]},"properties":{"nom":"Hôtel Clos Castel","sub":"Hotel","cm":"47700#Casteljaloux","web":"http://www.clos-castel.fr/","uri":"https://data.datatourisme.fr/23/e6530633-50a1-3de3-bc1f-3bd6f74ba777","dept":"47","reg":"naq"}},{"type":"Feature","geometry":{"type":"Point","coordinates":[0.81985,44.64509]},"properties":{"nom":"Le Presbytère","sub":"LodgingBusiness","cm":"47210#Saint-Martin-de-Villeréal","web":null,"uri":"https://data.datatourisme.fr/23/5b1a424b-3053-3a9d-96f9-75fa9c2d81b0","dept":"47","reg":"naq"}},{"type":"Feature","geometry":{"type":"Point","coordinates":[0.58804,44.39782]},"properties":{"nom":"La Bordeneuve","sub":"LodgingBusiness","cm":"47110#Sainte-Livrade-sur-Lot","web":"http://labordeneuve.jimdo.com/","uri":"https://data.datatourisme.fr/23/6151a58a-3c60-3ef9-8f53-88229fb67c5d","dept":"47","reg":"naq"}},{"type":"Feature","geometry":{"type":"Point","coordinates":[0.44682,44.38782]},"properties":{"nom":"Gîte Marty","sub":"LodgingBusiness","cm":"47260#Laparade","web":"https://www.gites-de-france-47.com/<>http://www.gites-de-france-47.com/location-vacances-Gite-a-Laparade-Lot-Et-Garonne-gites47_b2014.1.1940.G.html","uri":"https://data.datatourisme.fr/23/62c0b6d9-fd07-324a-bc19-eb23bdae8516","dept":"47","reg":"naq"}},{"type":"Feature","geometry":{"type":"Point","coordinates":[0.44709,44.20676]},"properties":{"nom":"Le gîte La sablère","sub":"LodgingBusiness","cm":"47130#Montesquieu","web":"https://adrtlotetgaronne.reservationenligne.net/listing/33","uri":"https://data.datatourisme.fr/23/e9dc9323-2d3b-3377-836c-89867f260dd9","dept":"47","reg":"naq"}},{"type":"Feature","geometry":{"type":"Point","coordinates":[0.81259,44.53576]},"properties":{"nom":"Gîte de Lagarrigue","sub":"LodgingBusiness","cm":"47150#Monflanquin","web":null,"uri":"https://data.datatourisme.fr/23/427462ba-b4be-3062-9662-a46809b9b75e","dept":"47","reg":"naq"}},{"type":"Feature","geometry":{"type":"Point","coordinates":[1.00793,44.43323]},"properties":{"nom":"L'Oustal del Bi","sub":"LodgingBusiness","cm":"47370#Thézac","web":"https://www.gites-aquitaine.com/","uri":"https://data.datatourisme.fr/23/f4f13f90-18f2-3605-b0a4-20b93908876c","dept":"47","reg":"naq"}},{"type":"Feature","geometry":{"type":"Point","coordinates":[0.16475,44.7158]},"properties":{"nom":"Domaine de Ferrant - Gite rouge (6p)","sub":"LodgingBusiness","cm":"47120#Esclottes","web":"https://www.gites-de-france-47.com/<>https://www.gites-de-france-47.com/location-vacances-Gite-a-Esclottes-Lot-et-garonne-47G3881.html","uri":"https://data.datatourisme.fr/23/42646e50-3db3-3810-844e-bfec39f09c3c","dept":"47","reg":"naq"}},{"type":"Feature","geometry":{"type":"Point","coordinates":[0.14823,44.68607]},"properties":{"nom":"La Villa Alouette","sub":"LodgingBusiness","cm":"47120#Baleyssagues","web":"https://www.purefrance.com/47096/holiday-home#prices","uri":"https://data.datatourisme.fr/23/a8877161-348c-378b-9f92-9806d6edf392","dept":"47","reg":"naq"}},{"type":"Feature","geometry":{"type":"Point","coordinates":[0.69539,44.44097]},"properties":{"nom":"Gîte du Pech de Durand","sub":"LodgingBusiness","cm":"47300#Villeneuve-sur-Lot","web":"http://www.pechdedurand.fr/","uri":"https://data.datatourisme.fr/23/1c03a612-2c61-31b8-a0db-775e5f523b5f","dept":"47","reg":"naq"}},{"type":"Feature","geometry":{"type":"Point","coordinates":[0.66112,44.52582]},"properties":{"nom":"Domaine Les Courteaux - Gîte l'Ile de la Réunion","sub":"LodgingBusiness","cm":"47290#Beaugas","web":"http://www.domaine-les-courteaux.com/<>https://www.domaine-les-courteaux.fr/bnb/bnb-2-2","uri":"https://data.datatourisme.fr/23/23ba27a7-66f1-3503-bdf6-43e67293daed","dept":"47","reg":"naq"}},{"type":"Feature","geometry":{"type":"Point","coordinates":[0.66211,44.52527]},"properties":{"nom":"Domaine Les Courteaux","sub":"BedAndBreakfast","cm":"47290#Beaugas","web":"http://www.domaine-les-courteaux.com/<>https://www.domaine-les-courteaux.fr/bnb/bnb-1-1<>https://www.domaine-les-courteaux.fr/","uri":"https://data.datatourisme.fr/23/6afa568d-74de-3191-a05a-aebc83aa880c","dept":"47","reg":"naq"}},{"type":"Feature","geometry":{"type":"Point","coordinates":[0.24767,44.01173]},"properties":{"nom":"Gîte de Jean- Sandra","sub":"LodgingBusiness","cm":"47170#Lannes","web":"https://adrtlotetgaronne.reservationenligne.net/listing/19","uri":"https://data.datatourisme.fr/23/4195365e-03b5-3984-a04f-ee8fcf6080de","dept":"47","reg":"naq"}},{"type":"Feature","geometry":{"type":"Point","coordinates":[0.17034,44.43056]},"properties":{"nom":"Les Terrasses des Mimosas - Gîte Les Hortensias","sub":"LodgingBusiness","cm":"47430#Caumont-sur-Garonne","web":"http://lesterrassesdesmimosas.fr/<>https://www.lesterrassesdesmimosas.fr/bnb/bnb-1-1","uri":"https://data.datatourisme.fr/23/06483902-52af-3e5d-8cb7-d4d6d3b95621","dept":"47","reg":"naq"}},{"type":"Feature","geometry":{"type":"Point","coordinates":[0.30697,44.15203]},"properties":{"nom":"Gîte des Magnolias","sub":"LodgingBusiness","cm":"47600#Nérac","web":"https://www.gites-de-france-47.com/<>https://www.gites-de-france-47.com/location-vacances-Gite-a-Nerac-Lot-et-garonne-47G4801.html","uri":"https://data.datatourisme.fr/23/ec8685f3-a2c5-3b75-9d86-9ca96fec471f","dept":"47","reg":"naq"}},{"type":"Feature","geometry":{"type":"Point","coordinates":[0.34002,44.13504]},"properties":{"nom":"Les gîtes du Château - L'appartement du Roi","sub":"LodgingBusiness","cm":"47600#Nérac","web":"https://www.gites-de-france-47.com/<>https://www.gites-de-france-47.com/location-vacances-City-break-a-Nerac-Lot-et-garonne-47G4791.html","uri":"https://data.datatourisme.fr/23/9a539b09-20ae-3c16-97a2-57f0e1b60e1c","dept":"47","reg":"naq"}},{"type":"Feature","geometry":{"type":"Point","coordinates":[0.34003,44.13504]},"properties":{"nom":"Les gîtes du Château - Le loft Henri IV","sub":"LodgingBusiness","cm":"47600#Nérac","web":"https://www.gites-de-france-47.com/<>https://www.gites-de-france-47.com/location-vacances-City-break-a-Nerac-Lot-et-garonne-47G4790.html","uri":"https://data.datatourisme.fr/23/e0003490-e6b0-3dd2-a0e4-5d4252e9e403","dept":"47","reg":"naq"}},{"type":"Feature","geometry":{"type":"Point","coordinates":[0.90269,44.56802]},"properties":{"nom":"Domaine de Gavaudun","sub":"CollectiveAccommodation","cm":"47150#Gavaudun","web":"http://www.domaine-de-gavaudun.com/<>https://beds24.com/booking2.php?numnight=2&checkin=2025-01-13&checkout=2025-01-15&propid=43056&referer=DDG-online-FR&lang=fr","uri":"https://data.datatourisme.fr/23/0b1f7655-6590-3a0d-b493-5adf8a5ab392","dept":"47","reg":"naq"}},{"type":"Feature","geometry":{"type":"Point","coordinates":[0.08094,44.31389]},"properties":{"nom":"Clos Castel - Villa T2 - n°105","sub":"LodgingBusiness","cm":"47700#Casteljaloux","web":"https://www.clos-castel.fr/<>https://www.clos-castel.fr/les-villas/","uri":"https://data.datatourisme.fr/23/adee4c5f-0408-31de-a3a4-47966a97d54a","dept":"47","reg":"naq"}},{"type":"Feature","geometry":{"type":"Point","coordinates":[0.08114,44.31405]},"properties":{"nom":"Clos Castel - Villas T3 - n°110","sub":"LodgingBusiness","cm":"47700#Casteljaloux","web":"https://www.clos-castel.fr/<>https://www.clos-castel.fr/les-villas/","uri":"https://data.datatourisme.fr/23/f734d90c-3f5f-3034-bfb6-9c2c5598a9ae","dept":"47","reg":"naq"}},{"type":"Feature","geometry":{"type":"Point","coordinates":[0.08094,44.31389]},"properties":{"nom":"Clos Castel - Villas T3 - n°102","sub":"LodgingBusiness","cm":"47700#Casteljaloux","web":"https://www.clos-castel.fr/<>https://www.clos-castel.fr/les-villas/","uri":"https://data.datatourisme.fr/23/d121f855-1ba1-39ce-856a-30a5ae9e0271","dept":"47","reg":"naq"}},{"type":"Feature","geometry":{"type":"Point","coordinates":[0.08114,44.31405]},"properties":{"nom":"Clos Castel - Villas T3 - n°103","sub":"LodgingBusiness","cm":"47700#Casteljaloux","web":"https://www.clos-castel.fr/<>https://www.clos-castel.fr/les-villas/","uri":"https://data.datatourisme.fr/23/07e9168c-c607-3f4a-afcc-b0e20be7d380","dept":"47","reg":"naq"}},{"type":"Feature","geometry":{"type":"Point","coordinates":[0.08114,44.31405]},"properties":{"nom":"Clos Castel - Villas T3 - n°107","sub":"LodgingBusiness","cm":"47700#Casteljaloux","web":"https://www.clos-castel.fr/<>https://www.clos-castel.fr/les-villas/","uri":"https://data.datatourisme.fr/23/0ded97bc-7427-3f2f-be3e-a1ce9851e6c0","dept":"47","reg":"naq"}},{"type":"Feature","geometry":{"type":"Point","coordinates":[0.08114,44.31405]},"properties":{"nom":"Clos Castel - Villas T3 - n°111","sub":"LodgingBusiness","cm":"47700#Casteljaloux","web":"https://www.clos-castel.fr/<>https://www.clos-castel.fr/les-villas/","uri":"https://data.datatourisme.fr/23/10cb3d20-4bc7-3ea1-89f2-96ee97487287","dept":"47","reg":"naq"}},{"type":"Feature","geometry":{"type":"Point","coordinates":[0.08114,44.31405]},"properties":{"nom":"Clos Castel - Villa T2 - n°108","sub":"LodgingBusiness","cm":"47700#Casteljaloux","web":"https://www.clos-castel.fr/<>https://www.clos-castel.fr/les-villas/","uri":"https://data.datatourisme.fr/23/123abce2-4fc5-3255-85e4-0430a5aac024","dept":"47","reg":"naq"}},{"type":"Feature","geometry":{"type":"Point","coordinates":[0.08114,44.31405]},"properties":{"nom":"Clos Castel - Villa T2 - n°109","sub":"LodgingBusiness","cm":"47700#Casteljaloux","web":"https://www.clos-castel.fr/<>https://www.clos-castel.fr/les-villas/","uri":"https://data.datatourisme.fr/23/1dedc418-8b2c-3f85-bd2a-a29f55727bbd","dept":"47","reg":"naq"}},{"type":"Feature","geometry":{"type":"Point","coordinates":[0.08114,44.31405]},"properties":{"nom":"Clos Castel - Villas T3 - n°106","sub":"LodgingBusiness","cm":"47700#Casteljaloux","web":"https://www.clos-castel.fr/<>https://www.clos-castel.fr/les-villas/","uri":"https://data.datatourisme.fr/23/21af04eb-71ac-31ef-9259-498d682a0dba","dept":"47","reg":"naq"}},{"type":"Feature","geometry":{"type":"Point","coordinates":[0.03107,44.53213]},"properties":{"nom":"Domaine Des Deux Rivières","sub":"LodgingBusiness","cm":"47180#Meilhan-sur-Garonne","web":"https://www.domainedeuxrivieres.fr/","uri":"https://data.datatourisme.fr/23/b77c9a9d-ec14-3f07-967b-cc6820d5a82b","dept":"47","reg":"naq"}},{"type":"Feature","geometry":{"type":"Point","coordinates":[0.03082,44.53213]},"properties":{"nom":"Domaine Des Deux Rivières","sub":"BedAndBreakfast","cm":"47180#Meilhan-sur-Garonne","web":"https://www.domainedeuxrivieres.fr/","uri":"https://data.datatourisme.fr/23/153edfa1-f3b3-3ba5-a306-8e5818b80661","dept":"47","reg":"naq"}},{"type":"Feature","geometry":{"type":"Point","coordinates":[0.74232,44.32286]},"properties":{"nom":"Camping à la ferme Crinière au vent","sub":"Camping","cm":"47340#Monbalen","web":null,"uri":"https://data.datatourisme.fr/23/07e4b124-0b24-3bd2-b5ed-40784aaae4af","dept":"47","reg":"naq"}},{"type":"Feature","geometry":{"type":"Point","coordinates":[0.85516,44.29709]},"properties":{"nom":"Gîte La grangette","sub":"LodgingBusiness","cm":"47470#Blaymont","web":null,"uri":"https://data.datatourisme.fr/23/f34b546f-2f4b-3cbb-9465-64529bab73b4","dept":"47","reg":"naq"}},{"type":"Feature","geometry":{"type":"Point","coordinates":[0.60403,44.51079]},"properties":{"nom":"Gîte de Malvezy","sub":"LodgingBusiness","cm":"47290#Beaugas","web":"https://www.clevacances.com/fr/hebergement/14489-maison-a-colombages-restauree-2-chambres-en-pleine-campagne-proche-vallee-du","uri":"https://data.datatourisme.fr/23/1e311e28-423f-3ec5-9755-332beb8d8176","dept":"47","reg":"naq"}},{"type":"Feature","geometry":{"type":"Point","coordinates":[0.67041,44.17583]},"properties":{"nom":"Château Saint-Marcel","sub":"Hotel","cm":"47550#Boé","web":"https://www.chateau-st-marcel.com/<>https://premium.logishotels.com/fo/booking/233/390645/options?nbroom=1&specialMode=default&catcode=833047&begindate=02%2F12%2F2024&roomtcode=368512&tmonth=12&tyear=2024&hotelid=390645&numnight=1&m=booking&roomAge1=40,40&langcode=FR&enddate=03%2F12%2F2024&fyear=2024&custid=233&fmonth=12&fday=02&tday=","uri":"https://data.datatourisme.fr/23/9a796d6a-3aaf-3724-aac4-959b477f2ff7","dept":"47","reg":"naq"}},{"type":"Feature","geometry":{"type":"Point","coordinates":[0.97074,44.49737]},"properties":{"nom":"Hotel Restaurant Fumel","sub":"Hotel","cm":"47500#Fumel","web":"https://www.brit-hotel-fumel.fr/<>http://www.brithotel.fr/<>https://hotel-fumel.brithotel.fr/","uri":"https://data.datatourisme.fr/23/a4a6fc25-f9d8-3e54-94fd-8f09fd319ccc","dept":"47","reg":"naq"}},{"type":"Feature","geometry":{"type":"Point","coordinates":[0.78625,44.3961]},"properties":{"nom":"Camping Le Sablon","sub":"Camping","cm":"47140#Saint-Sylvestre-sur-Lot","web":null,"uri":"https://data.datatourisme.fr/23/a59e16f9-2764-3b99-a83d-d5891b97cf6a","dept":"47","reg":"naq"}},{"type":"Feature","geometry":{"type":"Point","coordinates":[0.7568,44.67616]},"properties":{"nom":"Gîte du Couleaux","sub":"LodgingBusiness","cm":"47210#Rayet","web":"https://www.giteducouleaux.fr/<>https://www.giteducouleaux.fr/bnb/bnb-1-1","uri":"https://data.datatourisme.fr/23/bfbae739-f553-3800-9039-fa9eec432450","dept":"47","reg":"naq"}},{"type":"Feature","geometry":{"type":"Point","coordinates":[0.39618,44.23199]},"properties":{"nom":"Moulin Saint-Laurent - Gîte du Cordier","sub":"LodgingBusiness","cm":"47130#Saint-Laurent","web":"http://www.moulindesaintlaurent.com/","uri":"https://data.datatourisme.fr/23/cbeaf78e-8658-3be5-9652-9a4202e69430","dept":"47","reg":"naq"}},{"type":"Feature","geometry":{"type":"Point","coordinates":[0.0214,44.48504]},"properties":{"nom":"Les gîtes de Bois Beaulieu - Les Noisetiers","sub":"LodgingBusiness","cm":"47180#Meilhan-sur-Garonne","web":"https://www.gites-de-france-47.com/<>https://www.gites-de-france-47.com/location-vacances-Gite-a-Meilhan-sur-garonne-Lot-et-garonne-47G3981.html","uri":"https://data.datatourisme.fr/23/fa00a458-0dc5-376c-9058-b73d1d84e4e0","dept":"47","reg":"naq"}},{"type":"Feature","geometry":{"type":"Point","coordinates":[0.93611,44.6253]},"properties":{"nom":"La Grange dans la Forêt","sub":"LodgingBusiness","cm":"47500#Blanquefort-sur-Briolance","web":"https://www.airbnb.co.uk/<>https://www.vbro.co.uk/p8449561","uri":"https://data.datatourisme.fr/23/e200133f-3965-32c0-85b3-93c0d38b7aa7","dept":"47","reg":"naq"}},{"type":"Feature","geometry":{"type":"Point","coordinates":[0.30857,44.70321]},"properties":{"nom":"Petit Clos Gîte Rural","sub":"LodgingBusiness","cm":"47120#Saint-Jean-de-Duras","web":"https://www.petitclos.com/","uri":"https://data.datatourisme.fr/23/e56c3710-7f58-346b-aa0b-7c42d73d97ea","dept":"47","reg":"naq"}},{"type":"Feature","geometry":{"type":"Point","coordinates":[0.87138,44.54971]},"properties":{"nom":"Camping des Bastides","sub":"Camping","cm":"47150#Salles","web":"https://campingdesbastides.com/tarifs-reservation/<>https://campingdesbastides.com/","uri":"https://data.datatourisme.fr/23/c1e8af62-e737-37a8-8e53-193832e4c6a9","dept":"47","reg":"naq"}},{"type":"Feature","geometry":{"type":"Point","coordinates":[0.83515,44.61357]},"properties":{"nom":"Domaine Laborde - Centre naturiste","sub":"Camping","cm":"47150#Paulhiac","web":"https://www.domainelaborde.com/fr/hebergement-naturiste<>https://www.domainelaborde.com/fr/","uri":"https://data.datatourisme.fr/23/c364e597-e57b-3fe8-9fb8-d8539e684d31","dept":"47","reg":"naq"}},{"type":"Feature","geometry":{"type":"Point","coordinates":[0.68361,44.4045]},"properties":{"nom":"BRIT Hôtel","sub":"Hotel","cm":"47300#Bias","web":"https://villeneuve-sur-lot.brithotel.fr/<>https://www.brithotel.fr/search/bias?action=moteur_resa&count=1&destination=bias&checkindate=01%2F02%2F2024&checkoutdate=02%2F02%2F2024&grecaptcha=03AFcWeA4p875IV-OXd7IxIenxpvQrnPdJjZ3rY2RNH3tdjGfEp2qdlYfdtAWQ6AZxXY40yj_q8Vzoj3vOO10mQBNen7nsjUuIIpfbjJG7wMUVSqbhoeST6IaSeew5QVuod2t6g1hcv0QgYDZT5km8E-a","uri":"https://data.datatourisme.fr/23/89bc4144-b83a-3635-8c8d-9313b2d869eb","dept":"47","reg":"naq"}},{"type":"Feature","geometry":{"type":"Point","coordinates":[1.00795,44.48375]},"properties":{"nom":"Domaine de Guillalmes","sub":"Camping","cm":"47500#Fumel","web":"http://www.domainedeguillalmes.com/","uri":"https://data.datatourisme.fr/23/99d7e834-6252-3784-a2b8-97f8d0dc0cff","dept":"47","reg":"naq"}},{"type":"Feature","geometry":{"type":"Point","coordinates":[0.53639,44.65616]},"properties":{"nom":"Grosse Teste","sub":"LodgingBusiness","cm":"47410#Lauzun","web":null,"uri":"https://data.datatourisme.fr/23/59426922-bb06-3afc-bc8e-50d9432b590a","dept":"47","reg":"naq"}},{"type":"Feature","geometry":{"type":"Point","coordinates":[0.16723,44.497]},"properties":{"nom":"Hôtel du Lion d'Or","sub":"Hotel","cm":"47200#Marmande","web":"http://www.leliondor.fr/<>https://hotelmarmande.fr/fra/reservations","uri":"https://data.datatourisme.fr/23/8033e332-1329-37fd-84c6-f5b9b361fb3b","dept":"47","reg":"naq"}},{"type":"Feature","geometry":{"type":"Point","coordinates":[0.38564,44.23648]},"properties":{"nom":"Gîte du Paravis","sub":"LodgingBusiness","cm":"47230#Feugarolles","web":"http://www.giteduparavis.jimdo.com/","uri":"https://data.datatourisme.fr/23/3229ebc7-9a98-320e-8c52-e51f04dae6a9","dept":"47","reg":"naq"}},{"type":"Feature","geometry":{"type":"Point","coordinates":[0.63071,44.15109]},"properties":{"nom":"Gîte des Côteaux de Marescot","sub":"LodgingBusiness","cm":"47310#Moirax","web":"https://www.location-vacances-lotetgaronne.fr/","uri":"https://data.datatourisme.fr/23/0fe13bd2-2f69-3a15-9bc7-03be3694ecb1","dept":"47","reg":"naq"}},{"type":"Feature","geometry":{"type":"Point","coordinates":[0.5747,44.26117]},"properties":{"nom":"Domaine du Vallon- Gîte Guyenne","sub":"LodgingBusiness","cm":"47450#Saint-Hilaire-de-Lusignan","web":"https://www.gites-de-france-47.com/<>https://www.ledomaineduvallon.eu/<>https://www.gites-de-france-47.com/location-vacances-Gite-a-Saint-hilaire-de-lusignan-Lot-et-garonne-47G4631.html?<>https://www.clevacances.com/fr/locationvacances/aquitaine/lotetgaronne/sainthilairedelusignan-18110/agen_en_lot_et_garonne_gite_ecologique_pour_4_personnes_piscine_chauffee_commune_propriete_de_20_hectares/3907","uri":"https://data.datatourisme.fr/23/1808dc75-71bd-38f1-8dd4-6ec3f08708eb","dept":"47","reg":"naq"}},{"type":"Feature","geometry":{"type":"Point","coordinates":[0.55415,44.23708]},"properties":{"nom":"Domaine du Vallon- Gîte Gascogne","sub":"LodgingBusiness","cm":"47450#Saint-Hilaire-de-Lusignan","web":"https://www.gites-de-france-47.com/<>https://www.ledomaineduvallon.eu/<>https://www.gites-de-france-47.com/location-vacances-Gite-a-Saint-hilaire-de-lusignan-Lot-et-garonne-47G4630.html?<>https://www.clevacances.com/fr/locationvacances/aquitaine/lotetgaronne/sainthilairedelusignan-18110/agen_en_lot_et_garonne_gite_ecologique_pour_6_personnes_piscine_chauffee_commune_propriete_de_20_hectares/3882","uri":"https://data.datatourisme.fr/23/4defaba6-d5f3-3e32-8f89-324e1a6cedf0","dept":"47","reg":"naq"}},{"type":"Feature","geometry":{"type":"Point","coordinates":[0.31419,44.48716]},"properties":{"nom":"Gîte de Saint-Martin","sub":"LodgingBusiness","cm":"47350#Puymiclan","web":"https://adrtlotetgaronne.reservationenligne.net/listing/18","uri":"https://data.datatourisme.fr/23/da414287-c590-32e3-9cea-4cf8597d4c6f","dept":"47","reg":"naq"}},{"type":"Feature","geometry":{"type":"Point","coordinates":[0.43106,44.32069]},"properties":{"nom":"Le gîte Braunis","sub":"LodgingBusiness","cm":"47320#Bourran","web":"http://gite.braunis.free.fr/","uri":"https://data.datatourisme.fr/23/d68410d1-c41b-379a-bda1-9d02e6143bc1","dept":"47","reg":"naq"}},{"type":"Feature","geometry":{"type":"Point","coordinates":[0.58783,44.40984]},