{"type":"FeatureCollection","features":[{"type":"Feature","geometry":{"type":"Point","coordinates":[-0.67246,47.71931]},"properties":{"nom":"Anjou Sport Nature, Pouancé - Location de Pédalo","sub":"Rental","cm":"49420#Ombrée d'Anjou","web":"https://anjousportnature.com/nos-activites/pedalo/","uri":"https://data.datatourisme.fr/49/578cc562-882d-3f94-8c9b-5781eb0246e9","dept":"49","reg":"pdl"}},{"type":"Feature","geometry":{"type":"Point","coordinates":[-1.18004,47.74836]},"properties":{"nom":"Anjou Sport Nature, Pouancé - Location de canoë-kayak","sub":"Rental","cm":"49420#Ombrée d'Anjou","web":"https://anjousportnature.com/nos-activites/canoe-kayak/","uri":"https://data.datatourisme.fr/49/a81d1581-18a4-3986-8725-317ef5f58f4c","dept":"49","reg":"pdl"}},{"type":"Feature","geometry":{"type":"Point","coordinates":[-1.1793,47.74843]},"properties":{"nom":"Camping de la Roche Martin","sub":"Camping","cm":"49420#Ombrée d'Anjou","web":"https://www.campinglarochemartin.com/","uri":"https://data.datatourisme.fr/49/57ca3924-f40c-3c83-970e-f2eedd8bd146","dept":"49","reg":"pdl"}},{"type":"Feature","geometry":{"type":"Point","coordinates":[-1.18004,47.74836]},"properties":{"nom":"Anjou Sport Nature, Pouancé - Exploration nature","sub":"Rental","cm":"49420#Ombrée d'Anjou","web":"https://anjousportnature.com/nos-activites/exploration-nature/","uri":"https://data.datatourisme.fr/49/df9dbfad-a4bc-38dd-8381-59df80499925","dept":"49","reg":"pdl"}},{"type":"Feature","geometry":{"type":"Point","coordinates":[-0.67246,47.71931]},"properties":{"nom":"Anjou Sport Nature, Pouancé - Stand-up paddle","sub":"Rental","cm":"49420#Ombrée d'Anjou","web":"https://anjousportnature.com/nos-activites/paddle/","uri":"https://data.datatourisme.fr/49/bd181b2f-ca81-3b2e-bbb6-539d59fdf98c","dept":"49","reg":"pdl"}},{"type":"Feature","geometry":{"type":"Point","coordinates":[-1.17927,47.74863]},"properties":{"nom":"Aire au camping La Roche Martin","sub":"CampingAndCaravanning","cm":"49420#Ombrée d'Anjou","web":"https://www.campinglarochemartin.com/","uri":"https://data.datatourisme.fr/49/ea8607df-932d-3d34-827b-d8d0802e4404","dept":"49","reg":"pdl"}},{"type":"Feature","geometry":{"type":"Point","coordinates":[-1.18004,47.74843]},"properties":{"nom":"Anjou Sport Nature, Pouancé - Location de vélos","sub":"Rental","cm":"49420#Ombrée d'Anjou","web":null,"uri":"https://data.datatourisme.fr/49/91996a37-c1c7-3240-ae24-2bb95f2e385b","dept":"49","reg":"pdl"}},{"type":"Feature","geometry":{"type":"Point","coordinates":[-0.07057,47.26084]},"properties":{"nom":"Gite fluvial Le Vent d'Travers","sub":"LodgingBusiness","cm":"49400#Saumur","web":"https://www.loirevalleyconcept.fr/","uri":"https://data.datatourisme.fr/49/ee283ed2-755d-39a0-92d4-2fbb7e8a28c5","dept":"49","reg":"pdl"}},{"type":"Feature","geometry":{"type":"Point","coordinates":[-0.67246,47.71931]},"properties":{"nom":"Anjou Sport Nature, La Jaille-Yvon - Stand-up paddle","sub":"Rental","cm":"49220#La Jaille-Yvon","web":"https://anjousportnature.com/nos-activites/paddle/","uri":"https://data.datatourisme.fr/49/fa950a02-e334-3891-a8c9-1ff02947a938","dept":"49","reg":"pdl"}},{"type":"Feature","geometry":{"type":"Point","coordinates":[-0.67246,47.71931]},"properties":{"nom":"Anjou Sport Nature, La Jaille-Yvon - Location de pédalo","sub":"Rental","cm":"49220#La Jaille-Yvon","web":"https://anjousportnature.com/nos-activites/pedalo/","uri":"https://data.datatourisme.fr/49/3bd650c5-d5af-3da7-84e9-b531ee705e47","dept":"49","reg":"pdl"}},{"type":"Feature","geometry":{"type":"Point","coordinates":[-0.67246,47.71931]},"properties":{"nom":"Anjou Sport Nature, La Jaille-Yvon - Location de canoë-kayak","sub":"Rental","cm":"49220#La Jaille-Yvon","web":"https://anjousportnature.com/nos-activites/canoe-kayak/","uri":"https://data.datatourisme.fr/49/8dd75a9b-30bc-332a-8471-a976091f2a23","dept":"49","reg":"pdl"}},{"type":"Feature","geometry":{"type":"Point","coordinates":[-0.66643,47.71876]},"properties":{"nom":"Camping Le Port Ribouet","sub":"Camping","cm":"49220#La Jaille-Yvon","web":"https://anjousportnature.com/camping/","uri":"https://data.datatourisme.fr/49/f202489c-8961-3b26-951f-f3e271e08032","dept":"49","reg":"pdl"}},{"type":"Feature","geometry":{"type":"Point","coordinates":[-0.67159,47.72234]},"properties":{"nom":"Anjou Sport Nature, La Jaille-Yvon - Location de vélos","sub":"Rental","cm":"49220#La Jaille-Yvon","web":"https://anjousportnature.com/nos-activites/location-velo/","uri":"https://data.datatourisme.fr/49/226af3ef-8ed3-38f2-83f7-32ceb7f70137","dept":"49","reg":"pdl"}},{"type":"Feature","geometry":{"type":"Point","coordinates":[-0.66714,47.71895]},"properties":{"nom":"Ecovillage Anjou Sport Nature","sub":"LodgingBusiness","cm":"49220#La Jaille-Yvon","web":null,"uri":"https://data.datatourisme.fr/49/c1e189a5-10d2-3c08-9d13-215c295ffcce","dept":"49","reg":"pdl"}},{"type":"Feature","geometry":{"type":"Point","coordinates":[-0.76502,47.35327]},"properties":{"nom":"MAISON D'HÔTES LES ORKYS DE LOIRE","sub":"BedAndBreakfast","cm":"49290#Chalonnes-sur-Loire","web":null,"uri":"https://data.datatourisme.fr/49/1be6d8f0-a603-3c40-a5c7-7f15a44f7ba2","dept":"49","reg":"pdl"}},{"type":"Feature","geometry":{"type":"Point","coordinates":[-0.11178,47.26254]},"properties":{"nom":"Hôtel Les Terrasses de Saumur","sub":"HotelTrade","cm":"49400#Saumur","web":"https://www.lesterrassesdesaumur.fr/","uri":"https://data.datatourisme.fr/49/199274ad-409c-3b60-b4cf-b127c4d26b7e","dept":"49","reg":"pdl"}},{"type":"Feature","geometry":{"type":"Point","coordinates":[-0.11178,47.26254]},"properties":{"nom":"Restaurant les Terrasses de Saumur","sub":"HotelRestaurant","cm":"49400#Saumur","web":"https://www.lesterrassesdesaumur.fr/","uri":"https://data.datatourisme.fr/49/44cab22c-75b0-3bc6-9dc4-22838ff4c966","dept":"49","reg":"pdl"}},{"type":"Feature","geometry":{"type":"Point","coordinates":[-0.11181,47.26213]},"properties":{"nom":"Appartements hôteliers,  Les Terrasses de Saumur","sub":"CollectiveAccommodation","cm":"49400#Saumur","web":"https://www.lesterrassesdesaumur.fr/","uri":"https://data.datatourisme.fr/49/7f273f4b-be50-3844-87be-8f09b6114155","dept":"49","reg":"pdl"}},{"type":"Feature","geometry":{"type":"Point","coordinates":[-0.04418,47.24687]},"properties":{"nom":"Chambre d'hôtes Le Bois du Pedillou","sub":"BedAndBreakfast","cm":"49400#Saumur","web":null,"uri":"https://data.datatourisme.fr/49/1c20b425-db27-393e-b6d9-c35134b9a035","dept":"49","reg":"pdl"}},{"type":"Feature","geometry":{"type":"Point","coordinates":[0.02711,47.222]},"properties":{"nom":"Chambres d'hôtes La Turcane","sub":"BedAndBreakfast","cm":"49730#Turquant","web":"http://www.la-turcane.fr/","uri":"https://data.datatourisme.fr/49/1d12a4bd-5e1a-3147-9327-0b395e877aa0","dept":"49","reg":"pdl"}},{"type":"Feature","geometry":{"type":"Point","coordinates":[0.04992,47.18191]},"properties":{"nom":"Restaurant La Croix Blanche Fontevraud","sub":"HotelRestaurant","cm":"49590#Fontevraud-l'Abbaye","web":"https://www.lacroixblanche.fr/","uri":"https://data.datatourisme.fr/49/1e20026e-8683-3ee6-9769-f6dfe111ed16","dept":"49","reg":"pdl"}},{"type":"Feature","geometry":{"type":"Point","coordinates":[-0.15944,47.49671]},"properties":{"nom":"Gîte Le Muguet","sub":"LodgingBusiness","cm":"49250#Les Bois d'Anjou","web":"http://www.lavauvacances.com/","uri":"https://data.datatourisme.fr/49/1758bcf4-0c2f-3b89-a059-0fe81568e4a1","dept":"49","reg":"pdl"}},{"type":"Feature","geometry":{"type":"Point","coordinates":[-0.15944,47.49671]},"properties":{"nom":"Gîte Le Fleuron","sub":"LodgingBusiness","cm":"49250#Les Bois d'Anjou","web":"http://www.lavauvacances.com/","uri":"https://data.datatourisme.fr/49/fc762bf4-a84b-3364-a2cc-ed22d84ac879","dept":"49","reg":"pdl"}},{"type":"Feature","geometry":{"type":"Point","coordinates":[-0.15944,47.49671]},"properties":{"nom":"Gîte La Gloriette","sub":"LodgingBusiness","cm":"49250#Les Bois d'Anjou","web":"http://www.lavauvacances.com/","uri":"https://data.datatourisme.fr/49/9a4aba26-b5ee-30bd-a899-d27d7d3cfc80","dept":"49","reg":"pdl"}},{"type":"Feature","geometry":{"type":"Point","coordinates":[-0.15944,47.49671]},"properties":{"nom":"Gîte La Cabane","sub":"LodgingBusiness","cm":"49250#Les Bois d'Anjou","web":"http://www.lavauvacances.com/","uri":"https://data.datatourisme.fr/49/f9af675a-16bb-3166-b4e7-f2f850c48d34","dept":"49","reg":"pdl"}},{"type":"Feature","geometry":{"type":"Point","coordinates":[-0.17745,47.55588]},"properties":{"nom":"Gîte Ferme de la Croix Rouge","sub":"LodgingBusiness","cm":"49150#Baugé-en-Anjou","web":null,"uri":"https://data.datatourisme.fr/49/19fdada4-f846-357a-85db-54efd954d7e6","dept":"49","reg":"pdl"}},{"type":"Feature","geometry":{"type":"Point","coordinates":[-0.65657,47.36021]},"properties":{"nom":"BASE DE LOISIRS LES PLAGES DE LOIRE","sub":"Rental","cm":"49190#Rochefort-sur-Loire","web":null,"uri":"https://data.datatourisme.fr/49/8cd70a1d-8057-31e3-9cd9-c1051df5ca22","dept":"49","reg":"pdl"}},{"type":"Feature","geometry":{"type":"Point","coordinates":[-0.65664,47.36004]},"properties":{"nom":"Camping Les Plages de Loire","sub":"Camping","cm":"49190#Rochefort-sur-Loire","web":"https://vacances-seasonova.com/fr/camping/les-plages-de-loire/","uri":"https://data.datatourisme.fr/49/82f30198-ff26-3763-9493-46c77956731d","dept":"49","reg":"pdl"}},{"type":"Feature","geometry":{"type":"Point","coordinates":[-0.65716,47.36093]},"properties":{"nom":"Bivouac sur pilotis du camping Les Plages de la Loire","sub":"LodgingBusiness","cm":"49190#Rochefort-sur-Loire","web":"http://www.camping-lesplagesdeloire.com/","uri":"https://data.datatourisme.fr/49/b69b4a43-f955-3865-be0a-f258fd722029","dept":"49","reg":"pdl"}},{"type":"Feature","geometry":{"type":"Point","coordinates":[-0.65599,47.36029]},"properties":{"nom":"CAMPING LES PLAGES DE LOIRE","sub":"CampingAndCaravanning","cm":"49190#Rochefort-sur-Loire","web":"http://www.camping-lesplagesdeloire.com/","uri":"https://data.datatourisme.fr/49/86936201-bc62-367b-905a-0a7d65f6fb71","dept":"49","reg":"pdl"}},{"type":"Feature","geometry":{"type":"Point","coordinates":[0.06029,47.21659]},"properties":{"nom":"Gite fluvial Topette à lundi","sub":"LodgingBusiness","cm":"49730#Montsoreau","web":"https://www.loire-vins-aventure.fr/","uri":"https://data.datatourisme.fr/49/61149780-3d9f-3430-9207-bc76ae719ecc","dept":"49","reg":"pdl"}},{"type":"Feature","geometry":{"type":"Point","coordinates":[0.06037,47.21676]},"properties":{"nom":"Les Gites fluviaux Loire Vins Aventure","sub":"LodgingBusiness","cm":"49730#Montsoreau","web":"https://www.loire-vins-aventure.fr/","uri":"https://data.datatourisme.fr/49/388b387a-c1f5-3232-ad58-668af78200f9","dept":"49","reg":"pdl"}},{"type":"Feature","geometry":{"type":"Point","coordinates":[0.06067,47.2165]},"properties":{"nom":"Gîte fluvial La Rebelle","sub":"LodgingBusiness","cm":"49730#Montsoreau","web":"https://www.loire-vins-aventure.fr/","uri":"https://data.datatourisme.fr/49/272ad6f4-7974-327f-9fe2-524fe5089313","dept":"49","reg":"pdl"}},{"type":"Feature","geometry":{"type":"Point","coordinates":[0.06029,47.21659]},"properties":{"nom":"Gîte fluvial Azur","sub":"LodgingBusiness","cm":"49730#Montsoreau","web":"https://www.loire-vins-aventure.fr/","uri":"https://data.datatourisme.fr/49/0cb8c007-7c8c-3742-8aa1-2850dfe163b1","dept":"49","reg":"pdl"}},{"type":"Feature","geometry":{"type":"Point","coordinates":[-0.86911,47.33801]},"properties":{"nom":"Camping à la ferme La Guyonnière","sub":"Camping","cm":"49620#Mauges-sur-Loire","web":"https://www.campinglaguyonniere.fr/","uri":"https://data.datatourisme.fr/49/bfa7dd06-bcca-3ba6-b2e9-82692a6e186e","dept":"49","reg":"pdl"}},{"type":"Feature","geometry":{"type":"Point","coordinates":[-0.86096,47.36439]},"properties":{"nom":"Cabanes sur pilotis du camping de la Guyonnière","sub":"LodgingBusiness","cm":"49620#Mauges-sur-Loire","web":"https://www.campinglaguyonniere.fr/","uri":"https://data.datatourisme.fr/49/ec68c1ed-845e-3264-8014-bc31477dd3f9","dept":"49","reg":"pdl"}},{"type":"Feature","geometry":{"type":"Point","coordinates":[-0.86096,47.36439]},"properties":{"nom":"Aire de camping-car de la Guyonnière","sub":"CampingAndCaravanning","cm":"49620#Mauges-sur-Loire","web":"https://www.campinglaguyonniere.fr/","uri":"https://data.datatourisme.fr/49/780ba567-fd16-37d1-a8b7-4c62e7870885","dept":"49","reg":"pdl"}},{"type":"Feature","geometry":{"type":"Point","coordinates":[-0.00421,47.31128]},"properties":{"nom":"Gite Bergeronnette","sub":"LodgingBusiness","cm":"49650#Allonnes","web":"https://www.gites-de-france-anjou.com/fr/location/locations-gites-allonnes-bergeronnette-h49g014844","uri":"https://data.datatourisme.fr/49/039e3976-48e6-352a-89a1-b7d677d0288a","dept":"49","reg":"pdl"}},{"type":"Feature","geometry":{"type":"Point","coordinates":[-0.00421,47.31128]},"properties":{"nom":"Gite Alouette","sub":"LodgingBusiness","cm":"49650#Allonnes","web":"https://www.gites-de-france.com/fr/pays-de-la-loire/maine-et-loire/alouette-h49g014843","uri":"https://data.datatourisme.fr/49/5e0761e5-5cbb-357a-8571-75f09986403e","dept":"49","reg":"pdl"}},{"type":"Feature","geometry":{"type":"Point","coordinates":[-0.00421,47.31128]},"properties":{"nom":"Les Gites Promenade de Recouvrance - Alouette et Bergeronnette","sub":"LodgingBusiness","cm":"49650#Allonnes","web":null,"uri":"https://data.datatourisme.fr/49/8a4ef033-6a89-3ffa-b391-7699d7372cf9","dept":"49","reg":"pdl"}},{"type":"Feature","geometry":{"type":"Point","coordinates":[-0.10072,47.26514]},"properties":{"nom":"Hôtel Le Canter The Original Access","sub":"Hotel","cm":"49400#Saumur","web":"https://www.hotel-lecanter.fr/","uri":"https://data.datatourisme.fr/49/03c9d27f-55c4-322b-9d6a-ee28c2e7f31e","dept":"49","reg":"pdl"}},{"type":"Feature","geometry":{"type":"Point","coordinates":[-0.0644,47.26]},"properties":{"nom":"Camping Flower Ile d'Offard","sub":"Camping","cm":"49400#Saumur","web":"https://www.saumur-camping.com/","uri":"https://data.datatourisme.fr/49/08d553dd-d085-38fa-9566-bb7c7b7f3d12","dept":"49","reg":"pdl"}},{"type":"Feature","geometry":{"type":"Point","coordinates":[-0.06748,47.26181]},"properties":{"nom":"CAMPÉTOILES SUR PILOTIS DU FLOWER CAMPING ILE D'OFFARD","sub":"LodgingBusiness","cm":"49400#Saumur","web":"https://www.saumur-camping.com/","uri":"https://data.datatourisme.fr/49/f8413c58-5987-3a2a-af1e-ed5c2d66e0b6","dept":"49","reg":"pdl"}},{"type":"Feature","geometry":{"type":"Point","coordinates":[-0.06592,47.26082]},"properties":{"nom":"Aire Camping-car Park de Saumur Île d'Offard","sub":"CampingAndCaravanning","cm":"49400#Saumur","web":null,"uri":"https://data.datatourisme.fr/49/b3f0afa2-94c4-3e7c-a1ae-ec6edc25193b","dept":"49","reg":"pdl"}},{"type":"Feature","geometry":{"type":"Point","coordinates":[-0.34189,47.20764]},"properties":{"nom":"Gite Le Bois Fleuri","sub":"LodgingBusiness","cm":"49700#Doué-en-Anjou","web":"http://www.legiteboisfleuri.com/","uri":"https://data.datatourisme.fr/49/b7ced05c-febf-39dc-ae53-8d53f82cf6a5","dept":"49","reg":"pdl"}},{"type":"Feature","geometry":{"type":"Point","coordinates":[-0.05007,47.13429]},"properties":{"nom":"Gite de Villevert","sub":"LodgingBusiness","cm":"49260#Épieds","web":null,"uri":"https://data.datatourisme.fr/49/c76ee6ec-6e6c-3718-89f1-5016e7174b87","dept":"49","reg":"pdl"}},{"type":"Feature","geometry":{"type":"Point","coordinates":[0.01347,47.24259]},"properties":{"nom":"Gite Théophane","sub":"LodgingBusiness","cm":"49730#Varennes-sur-Loire","web":"http://gite-theophane.ovh/","uri":"https://data.datatourisme.fr/49/c7c004a7-00b4-322b-9fd7-f65b01e2728a","dept":"49","reg":"pdl"}},{"type":"Feature","geometry":{"type":"Point","coordinates":[-0.8424,47.03662]},"properties":{"nom":"Camping Capfun - Lac de Ribou","sub":"Camping","cm":"49300#Cholet","web":"https://www.capfun.com/camping-france-pays_de_la_loire-lac_de_ribou-FR.html","uri":"https://data.datatourisme.fr/49/42ac3a62-1584-30ee-bb87-bd6cbd2f555a","dept":"49","reg":"pdl"}},{"type":"Feature","geometry":{"type":"Point","coordinates":[-1.11965,47.70697]},"properties":{"nom":"Gîte les Hêtres","sub":"LodgingBusiness","cm":"49420#Armaillé","web":null,"uri":"https://data.datatourisme.fr/49/038b366d-6fde-35ac-ba21-41b2e0b1f3b4","dept":"49","reg":"pdl"}},{"type":"Feature","geometry":{"type":"Point","coordinates":[-1.0139,47.36399]},"properties":{"nom":"Bateau habitable de Loire \"Anguille sous Roche\"","sub":"LodgingBusiness","cm":"49410#Mauges-sur-Loire","web":"https://anguille-sous-roche.fr/","uri":"https://data.datatourisme.fr/49/0894f7d4-9373-3628-9e17-f0e9c31a6ae1","dept":"49","reg":"pdl"}},{"type":"Feature","geometry":{"type":"Point","coordinates":[-1.01363,47.364]},"properties":{"nom":"Location du bateau habitable \"Anguille sous Roche\"","sub":"Rental","cm":"49410#Mauges-sur-Loire","web":"https://anguille-sous-roche.fr/","uri":"https://data.datatourisme.fr/49/2756f8de-b010-3799-a76b-e55774f9dbe9","dept":"49","reg":"pdl"}},{"type":"Feature","geometry":{"type":"Point","coordinates":[-0.05107,47.57693]},"properties":{"nom":"Gîte La Poire à Loup","sub":"LodgingBusiness","cm":"49150#Baugé-en-Anjou","web":"https://lapoirealoup.com/","uri":"https://data.datatourisme.fr/49/aeec7164-86d0-341b-a431-3a9ad39cf99d","dept":"49","reg":"pdl"}},{"type":"Feature","geometry":{"type":"Point","coordinates":[0.07295,47.50077]},"properties":{"nom":"Gîte la Taluère","sub":"LodgingBusiness","cm":"49490#Noyant-Villages","web":null,"uri":"https://data.datatourisme.fr/49/b7ca8455-b40a-39e7-af4d-ec1b3234802a","dept":"49","reg":"pdl"}},{"type":"Feature","geometry":{"type":"Point","coordinates":[-0.26058,47.19031]},"properties":{"nom":"Centre d'hébergement des Perrières","sub":"CollectiveAccommodation","cm":"49700#Doué-en-Anjou","web":"https://hebergement-groupe-anjou.com/","uri":"https://data.datatourisme.fr/49/4aeadf75-fd6c-311a-8b12-102e65fe6eda","dept":"49","reg":"pdl"}},{"type":"Feature","geometry":{"type":"Point","coordinates":[-0.43439,47.35756]},"properties":{"nom":"MEUBLÉ DE TOURISME DU CAMPING DE L'ETANG (GITE LAYON)","sub":"LodgingBusiness","cm":"49320#Brissac Loire Aubance","web":"http://www.campingetang.com/","uri":"https://data.datatourisme.fr/49/9b20d0af-5a34-3290-9f73-e3947a910948","dept":"49","reg":"pdl"}},{"type":"Feature","geometry":{"type":"Point","coordinates":[-0.47745,47.40395]},"properties":{"nom":"LES CHAMBRES DU MEUNIER","sub":"BedAndBreakfast","cm":"49610#Les Garennes sur Loire","web":"http://domaine2moulins.com/chambres-du-meunier/","uri":"https://data.datatourisme.fr/49/9c843a49-ad1a-305d-868f-9c4d4d9ce5b6","dept":"49","reg":"pdl"}},{"type":"Feature","geometry":{"type":"Point","coordinates":[-0.28431,47.205]},"properties":{"nom":"Camping Les Rives du Douet","sub":"Camping","cm":"49700#Doué-en-Anjou","web":"http://camping-lesrivesdudouet.fr/","uri":"https://data.datatourisme.fr/49/96def8c8-1196-3dc0-bd8c-daaf3bf11875","dept":"49","reg":"pdl"}},{"type":"Feature","geometry":{"type":"Point","coordinates":[-0.22959,47.34357]},"properties":{"nom":"ANJOU BIVOUAC AU CAMPING AU BORD DE LOIRE","sub":"LodgingBusiness","cm":"49350#Gennes-Val-de-Loire","web":"https://camping-auborddeloire.com/","uri":"https://data.datatourisme.fr/49/977599e4-4972-3780-806d-aeeddaeaadc6","dept":"49","reg":"pdl"}},{"type":"Feature","geometry":{"type":"Point","coordinates":[-0.27474,47.197]},"properties":{"nom":"Hôtel Auberge de la Rose","sub":"HotelTrade","cm":"49700#Doué-en-Anjou","web":"https://www.aubergedelarose.com/","uri":"https://data.datatourisme.fr/49/9af87d2d-70bd-38ad-b387-3d3120c1d269","dept":"49","reg":"pdl"}},{"type":"Feature","geometry":{"type":"Point","coordinates":[-0.27474,47.197]},"properties":{"nom":"Restaurant Auberge de la Rose","sub":"HotelRestaurant","cm":"49700#Doué-en-Anjou","web":"https://www.aubergedelarose.com/","uri":"https://data.datatourisme.fr/49/add168b7-b7d1-39ef-8c5b-018049470980","dept":"49","reg":"pdl"}},{"type":"Feature","geometry":{"type":"Point","coordinates":[-0.44411,47.65053]},"properties":{"nom":"Gîte Beau Clair","sub":"LodgingBusiness","cm":"49330#Étriché","web":"http://www.gitebeauclair.com/","uri":"https://data.datatourisme.fr/49/70514371-cc2d-3f40-afb6-f9b795e9c66f","dept":"49","reg":"pdl"}},{"type":"Feature","geometry":{"type":"Point","coordinates":[-0.82523,47.26787]},"properties":{"nom":"Gîte Au Coeur des Mauges","sub":"LodgingBusiness","cm":"49120#Chemillé-en-Anjou","web":null,"uri":"https://data.datatourisme.fr/49/7d0e16a8-9846-37c4-854a-a460630b7d1b","dept":"49","reg":"pdl"}},{"type":"Feature","geometry":{"type":"Point","coordinates":[-0.15704,47.31018]},"properties":{"nom":"Restaurant Le Castellane","sub":"HotelRestaurant","cm":"49350#Gennes-Val-de-Loire","web":"https://www.prieure.com/","uri":"https://data.datatourisme.fr/49/d512be06-1704-3840-ae70-379fe4a94f9a","dept":"49","reg":"pdl"}},{"type":"Feature","geometry":{"type":"Point","coordinates":[-0.15926,47.31113]},"properties":{"nom":"Hôtel Château Le Prieuré","sub":"HotelTrade","cm":"49350#Gennes-Val-de-Loire","web":"https://www.prieure.com/","uri":"https://data.datatourisme.fr/49/0c97f37c-0f57-382c-8469-a37874c960aa","dept":"49","reg":"pdl"}},{"type":"Feature","geometry":{"type":"Point","coordinates":[-0.05413,47.28156]},"properties":{"nom":"Restaurant du Parc","sub":"HotelRestaurant","cm":"49400#Saumur","web":"https://hotelduparc.fr/","uri":"https://data.datatourisme.fr/49/d5b3ac09-07d8-34ff-b0fd-ce97d40e3651","dept":"49","reg":"pdl"}},{"type":"Feature","geometry":{"type":"Point","coordinates":[-0.05413,47.28156]},"properties":{"nom":"Hôtel du Parc Saumur","sub":"HotelTrade","cm":"49400#Saumur","web":"https://hotelduparc.fr/","uri":"https://data.datatourisme.fr/49/49edbc73-b2a8-3985-9a2f-c5977e2785ed","dept":"49","reg":"pdl"}},{"type":"Feature","geometry":{"type":"Point","coordinates":[-0.23702,47.122]},"properties":{"nom":"Gite Le Jardin de Chanoine","sub":"LodgingBusiness","cm":"49260#Le Puy-Notre-Dame","web":"https://jprue7.wixsite.com/lejardindechanoine","uri":"https://data.datatourisme.fr/49/2afd4866-49a5-3044-afcb-207330d28090","dept":"49","reg":"pdl"}},{"type":"Feature","geometry":{"type":"Point","coordinates":[-0.33359,47.328]},"properties":{"nom":"Camping du Bois Madame","sub":"Camping","cm":"49320#Gennes-Val-de-Loire","web":"http://www.fermeduboismadame.com/","uri":"https://data.datatourisme.fr/49/6581a0f7-e73e-3052-a875-ec2d15b89590","dept":"49","reg":"pdl"}},{"type":"Feature","geometry":{"type":"Point","coordinates":[-0.06305,47.375]},"properties":{"nom":"Gite Le Bonheur est dans le pré","sub":"LodgingBusiness","cm":"49160#Blou","web":"http://www.le-bonheur-est-dans-le-pre.fr/","uri":"https://data.datatourisme.fr/49/76fbdb2b-9253-3de6-a083-7e2e0e029bf2","dept":"49","reg":"pdl"}},{"type":"Feature","geometry":{"type":"Point","coordinates":[0.02669,47.21809]},"properties":{"nom":"Gite La Boul'Ange","sub":"LodgingBusiness","cm":"49730#Turquant","web":null,"uri":"https://data.datatourisme.fr/49/c26ad33f-60f5-3db0-a40c-101c45b76e68","dept":"49","reg":"pdl"}},{"type":"Feature","geometry":{"type":"Point","coordinates":[-1.01365,47.36395]},"properties":{"nom":"Restaurant L'Hostellerie de la Gabelle","sub":"HotelRestaurant","cm":"49410#Mauges-sur-Loire","web":"http://www.lagabelle.com/","uri":"https://data.datatourisme.fr/49/a3c7b4a6-9c52-309c-b37d-d67bc005aaf9","dept":"49","reg":"pdl"}},{"type":"Feature","geometry":{"type":"Point","coordinates":[-0.45529,47.2699]},"properties":{"nom":"Gîte La Grange du Domaine des Gauliers","sub":"LodgingBusiness","cm":"49380#Terranjou","web":"http://www.domainedesgauliers.fr/","uri":"https://data.datatourisme.fr/49/00b8d849-efe6-3f7b-b05d-46f4834e598d","dept":"49","reg":"pdl"}},{"type":"Feature","geometry":{"type":"Point","coordinates":[-0.14447,47.11032]},"properties":{"nom":"Gîtes La Ferme du Bellay – Gite Côté Jardin","sub":"LodgingBusiness","cm":"49260#Montreuil-Bellay","web":"https://www.lafermedubellay.fr/","uri":"https://data.datatourisme.fr/49/2db5252b-d2d2-3305-968f-8af6c00a5124","dept":"49","reg":"pdl"}},{"type":"Feature","geometry":{"type":"Point","coordinates":[-0.14409,47.11062]},"properties":{"nom":"Gîtes La Ferme du Bellay – Gite Côté Cour","sub":"LodgingBusiness","cm":"49260#Montreuil-Bellay","web":"https://www.lafermedubellay.fr/","uri":"https://data.datatourisme.fr/49/e54218e0-9277-39d9-99e5-fb02bf428b46","dept":"49","reg":"pdl"}},{"type":"Feature","geometry":{"type":"Point","coordinates":[-0.14417,47.11062]},"properties":{"nom":"Les Gites La Ferme du Bellay","sub":"LodgingBusiness","cm":"49260#Montreuil-Bellay","web":"https://www.lafermedubellay.fr/","uri":"https://data.datatourisme.fr/49/c0fa171b-3529-3d91-9e6d-e7954183cd1f","dept":"49","reg":"pdl"}},{"type":"Feature","geometry":{"type":"Point","coordinates":[0.036,47.2217]},"properties":{"nom":"Hôtel La Demeure de la Vignole","sub":"Hotel","cm":"49730#Turquant","web":"https://www.demeure-vignole.com/","uri":"https://data.datatourisme.fr/49/aeef316b-7fcf-34bf-b7e8-4f319bc3caba","dept":"49","reg":"pdl"}},{"type":"Feature","geometry":{"type":"Point","coordinates":[-0.9792,47.20882]},"properties":{"nom":"The Originals City Le Patio","sub":"HotelTrade","cm":"49600#Beaupréau-en-Mauges","web":"https://www.theoriginalshotels.com/hotels/cholet-nord-le-logis-d-elbee#ficheResa","uri":"https://data.datatourisme.fr/49/6894cb7a-a081-3039-9726-b49c6d3a4fa7","dept":"49","reg":"pdl"}},{"type":"Feature","geometry":{"type":"Point","coordinates":[-0.9818,47.20954]},"properties":{"nom":"Restaurant Le Patio","sub":"HotelRestaurant","cm":"49600#Beaupréau-en-Mauges","web":null,"uri":"https://data.datatourisme.fr/49/83c887fa-96dd-32bf-8f4e-9186767eb131","dept":"49","reg":"pdl"}},{"type":"Feature","geometry":{"type":"Point","coordinates":[-0.64291,47.35907]},"properties":{"nom":"GITE SAINTE CATHERINE","sub":"LodgingBusiness","cm":"49190#Val-du-Layon","web":null,"uri":"https://data.datatourisme.fr/49/30952b92-7bb2-3523-aae6-3d869b3180a9","dept":"49","reg":"pdl"}},{"type":"Feature","geometry":{"type":"Point","coordinates":[-0.48715,47.40198]},"properties":{"nom":"Chambre d'Hôtes La Noue Aubert","sub":"BedAndBreakfast","cm":"49610#Les Garennes sur Loire","web":"http://www.lanoueaubert.com/","uri":"https://data.datatourisme.fr/49/3254ffb3-0dbd-3c56-9afb-85e9adc9e5b0","dept":"49","reg":"pdl"}},{"type":"Feature","geometry":{"type":"Point","coordinates":[-0.46178,47.21155]},"properties":{"nom":"Gîte Ma Maison de Famille","sub":"LodgingBusiness","cm":"49540#Aubigné-sur-Layon","web":"http://www.ma-maison-de-famille-en-anjou.fr/","uri":"https://data.datatourisme.fr/49/3bd45033-1346-3c3c-9473-c97651c64971","dept":"49","reg":"pdl"}},{"type":"Feature","geometry":{"type":"Point","coordinates":[-0.06452,47.22078]},"properties":{"nom":"Gite du Vigneron","sub":"LodgingBusiness","cm":"49400#Varrains","web":"http://www.legite-duvigneron.fr/","uri":"https://data.datatourisme.fr/49/315fb19c-826b-359d-9744-fd7cff348246","dept":"49","reg":"pdl"}},{"type":"Feature","geometry":{"type":"Point","coordinates":[-0.11444,47.29463]},"properties":{"nom":"Chambres d'hôtes La Croix de la Voulte","sub":"BedAndBreakfast","cm":"49400#Saumur","web":"http://www.lacroixdelavoulte.com/","uri":"https://data.datatourisme.fr/49/3ee43149-d3a3-3460-a514-37eef435798a","dept":"49","reg":"pdl"}},{"type":"Feature","geometry":{"type":"Point","coordinates":[-0.02985,47.34197]},"properties":{"nom":"Gite La Boulangerie – Château de Salvert","sub":"LodgingBusiness","cm":"49680#Neuillé","web":"https://www.chateau-de-salvert.fr/","uri":"https://data.datatourisme.fr/49/cc7a7fb5-17e2-3124-a967-6fcb7f9f0990","dept":"49","reg":"pdl"}},{"type":"Feature","geometry":{"type":"Point","coordinates":[-0.02985,47.34197]},"properties":{"nom":"Gite La Brosse – Château de Salvert","sub":"LodgingBusiness","cm":"49680#Neuillé","web":"https://www.chateau-de-salvert.fr/","uri":"https://data.datatourisme.fr/49/d98e909f-5b70-35af-baf9-8b13f1c6e71d","dept":"49","reg":"pdl"}},{"type":"Feature","geometry":{"type":"Point","coordinates":[-0.02985,47.34197]},"properties":{"nom":"Gite Le Pressoir – Château de Salvert","sub":"LodgingBusiness","cm":"49680#Neuillé","web":"https://www.chateau-de-salvert.fr/","uri":"https://data.datatourisme.fr/49/41ab1c81-71f0-3a22-9897-88da2651a2de","dept":"49","reg":"pdl"}},{"type":"Feature","geometry":{"type":"Point","coordinates":[-0.98828,47.7109]},"properties":{"nom":"Hôtel-restaurant l'Auberge de l'Ombrée","sub":"HotelTrade","cm":"49520#Ombrée d'Anjou","web":"http://www.aubergedelombree.com/","uri":"https://data.datatourisme.fr/49/c6742987-2060-30aa-9d72-b176f1f13a2f","dept":"49","reg":"pdl"}},{"type":"Feature","geometry":{"type":"Point","coordinates":[-0.20657,47.44731]},"properties":{"nom":"Gîte Le Mont Des Ceps","sub":"LodgingBusiness","cm":"49250#Beaufort-en-Anjou","web":null,"uri":"https://data.datatourisme.fr/49/ca2e983b-67f1-3fa0-a0c6-ca11fd109990","dept":"49","reg":"pdl"}},{"type":"Feature","geometry":{"type":"Point","coordinates":[-0.54015,47.29988]},"properties":{"nom":"LE RELAIS DE MONT","sub":"LodgingBusiness","cm":"49380#Bellevigne-en-Layon","web":"https://www.gite-anjou-layon.fr/","uri":"https://data.datatourisme.fr/49/c202d520-0cf2-3933-a253-bbf39007eb5b","dept":"49","reg":"pdl"}},{"type":"Feature","geometry":{"type":"Point","coordinates":[-0.56206,47.27622]},"properties":{"nom":"GITE DE L'ANGELIERE","sub":"LodgingBusiness","cm":"49380#Bellevigne-en-Layon","web":"http://domaine-angeliere.fr/","uri":"https://data.datatourisme.fr/49/cac441bf-69ea-388f-94a8-a149474fd4a3","dept":"49","reg":"pdl"}},{"type":"Feature","geometry":{"type":"Point","coordinates":[-0.26889,47.19523]},"properties":{"nom":"Gite La Rose de Bois","sub":"LodgingBusiness","cm":"49700#Doué-en-Anjou","web":"http://rosedebois.free.fr/","uri":"https://data.datatourisme.fr/49/129f58f1-a0f8-38b1-ad3c-b57cf9f216b2","dept":"49","reg":"pdl"}},{"type":"Feature","geometry":{"type":"Point","coordinates":[-0.29689,47.23379]},"properties":{"nom":"Rocaminori Troglo-hôtel","sub":"HotelTrade","cm":"49700#Louresse-Rochemenier","web":"https://www.rocaminori-hotel.fr/","uri":"https://data.datatourisme.fr/49/0540c3d5-7369-32aa-aad1-ca6d2991395e","dept":"49","reg":"pdl"}},{"type":"Feature","geometry":{"type":"Point","coordinates":[0.05275,47.21809]},"properties":{"nom":"ANJOU BIVOUAC AU CAMPING DE L’ISLE VERTE","sub":"LodgingBusiness","cm":"49730#Montsoreau","web":"https://www.campingisleverte.com/","uri":"https://data.datatourisme.fr/49/075bc668-1a82-3c3f-926a-7187c7be1aed","dept":"49","reg":"pdl"}},{"type":"Feature","geometry":{"type":"Point","coordinates":[0.05024,47.219]},"properties":{"nom":"Camping L'Isle Verte","sub":"Camping","cm":"49730#Montsoreau","web":"https://www.campingisleverte.com/","uri":"https://data.datatourisme.fr/49/faf77817-1bbc-3282-bb13-b23c12e345b1","dept":"49","reg":"pdl"}},{"type":"Feature","geometry":{"type":"Point","coordinates":[-0.07511,47.25998]},"properties":{"nom":"Hôtel Cristal","sub":"HotelTrade","cm":"49400#Saumur","web":"https://www.cristal-hotel.fr/","uri":"https://data.datatourisme.fr/49/ca686007-e9c3-37d3-8e1f-3af83efa5001","dept":"49","reg":"pdl"}},{"type":"Feature","geometry":{"type":"Point","coordinates":[-0.85366,47.39099]},"properties":{"nom":"Chambres d'hôtes Au bout de l'île","sub":"BedAndBreakfast","cm":"49570#Mauges-sur-Loire","web":"http://www.auboutdelile.fr/","uri":"https://data.datatourisme.fr/49/0d6ba92d-4c01-3c19-a80c-f81e529e224c","dept":"49","reg":"pdl"}},{"type":"Feature","geometry":{"type":"Point","coordinates":[-0.98418,47.28757]},"properties":{"nom":"Gite L'Appart' à Mimine","sub":"LodgingBusiness","cm":"49110#Montrevault-sur-Èvre","web":"https://www.les-gites-a-mimine.com/fr/booking/room","uri":"https://data.datatourisme.fr/49/0db3b2d3-5487-34f5-a8d9-18175ee6d5eb","dept":"49","reg":"pdl"}},{"type":"Feature","geometry":{"type":"Point","coordinates":[-0.11959,47.53129]},"properties":{"nom":"Gîte La P'tite Angevine","sub":"LodgingBusiness","cm":"49150#Baugé-en-Anjou","web":null,"uri":"https://data.datatourisme.fr/49/13b839c7-1a82-32c2-b366-14da44312b18","dept":"49","reg":"pdl"}},{"type":"Feature","geometry":{"type":"Point","coordinates":[-0.43439,47.35756]},"properties":{"nom":"MEUBLÉ DE TOURISME DU CAMPING DE L'ÉTANG (ANJOU)","sub":"LodgingBusiness","cm":"49320#Brissac Loire Aubance","web":"http://www.campingetang.com/","uri":"https://data.datatourisme.fr/49/cd0b1a4f-0d15-3219-9961-339f8933f76f","dept":"49","reg":"pdl"}},{"type":"Feature","geometry":{"type":"Point","coordinates":[-0.43439,47.35756]},"properties":{"nom":"MEUBLÉ DE TOURISME DES GITES DE L'ETANG (AUBANCE)","sub":"LodgingBusiness","cm":"49320#Brissac Loire Aubance","web":"http://www.campingetang.com/","uri":"https://data.datatourisme.fr/49/71f411e2-1704-328b-93ea-e0bf954867ca","dept":"49","reg":"pdl"}},{"type":"Feature","geometry":{"type":"Point","coordinates":[-0.43439,47.35756]},"properties":{"nom":"MEUBLÉ DE TOURISME GITES DE L'ETANG (CHARDONNAY)","sub":"LodgingBusiness","cm":"49320#Brissac Loire Aubance","web":"http://www.campingetang.com/","uri":"https://data.datatourisme.fr/49/7280ffa9-0ce9-3276-8761-946e741b9270","dept":"49","reg":"pdl"}},{"type":"Feature","geometry":{"type":"Point","coordinates":[-0.77289,47.35753]},"properties":{"nom":"GITE LOIRE LICORNE 2","sub":"LodgingBusiness","cm":"49290#Chalonnes-sur-Loire","web":"http://www.loire-licorne.fr/","uri":"https://data.datatourisme.fr/49/cda1b18c-60fb-37b2-98bd-780fc83dd79d","dept":"49","reg":"pdl"}},{"type":"Feature","geometry":{"type":"Point","coordinates":[-0.77289,47.35753]},"properties":{"nom":"GITE LOIRE LICORNE 1","sub":"LodgingBusiness","cm":"49290#Chalonnes-sur-Loire","web":"http://www.loire-licorne.fr/","uri":"https://data.datatourisme.fr/49/8842960c-fcd3-3ec7-919a-97ef429c73cd","dept":"49","reg":"pdl"}},{"type":"Feature","geometry":{"type":"Point","coordinates":[-0.41945,47.33357]},"properties":{"nom":"GITE DE FRANCE LES NOISETIERS","sub":"LodgingBusiness","cm":"49320#Brissac Loire Aubance","web":"http://www.gite-brissac.com/","uri":"https://data.datatourisme.fr/49/cece236a-6332-3423-8bea-74cd3e89e6b4","dept":"49","reg":"pdl"}},{"type":"Feature","geometry":{"type":"Point","coordinates":[-0.245,47.18355]},"properties":{"nom":"Hôtel de la Saulaie","sub":"Hotel","cm":"49700#Doué-en-Anjou","web":"http://www.hoteldelasaulaie.com/","uri":"https://data.datatourisme.fr/49/a7c15a6d-9db9-3ac3-b9c9-63e367bab24d","dept":"49","reg":"pdl"}},{"type":"Feature","geometry":{"type":"Point","coordinates":[-0.22355,47.34878]},"properties":{"nom":"Chambres d'hôtes Domaine de l'Oie Rouge","sub":"BedAndBreakfast","cm":"49350#Gennes-Val-de-Loire","web":"https://www.domaine-oie-rouge.com/","uri":"https://data.datatourisme.fr/49/cd4ec68b-caeb-3de9-b892-21946321e55b","dept":"49","reg":"pdl"}},{"type":"Feature","geometry":{"type":"Point","coordinates":[-0.87554,47.05482]},"properties":{"nom":"B&B Cholet Sud","sub":"Hotel","cm":"49300#Cholet","web":"http://www.hotel-bb.com/","uri":"https://data.datatourisme.fr/49/02b9aec6-104b-3a77-b697-34b605c6267b","dept":"49","reg":"pdl"}},{"type":"Feature","geometry":{"type":"Point","coordinates":[-0.91331,47.50334]},"properties":{"nom":"Gîte des Moissons","sub":"LodgingBusiness","cm":"49370#Val d'Erdre-Auxence","web":null,"uri":"https://data.datatourisme.fr/49/02a33ab6-52e3-3fd6-a9cf-6b002fcc91f1","dept":"49","reg":"pdl"}},{"type":"Feature","geometry":{"type":"Point","coordinates":[-1.08844,47.15583]},"properties":{"nom":"Gîte La Grange","sub":"LodgingBusiness","cm":"49450#Sèvremoine","web":"http://lafoymoreau.com/","uri":"https://data.datatourisme.fr/49/024172b3-45c7-399d-9c01-d4b1721995af","dept":"49","reg":"pdl"}},{"type":"Feature","geometry":{"type":"Point","coordinates":[-0.93672,47.34143]},"properties":{"nom":"Gîte du Haut Chatelier","sub":"LodgingBusiness","cm":"49410#Mauges-sur-Loire","web":null,"uri":"https://data.datatourisme.fr/49/0376e7ef-d837-3304-9af3-0b10934bf351","dept":"49","reg":"pdl"}},{"type":"Feature","geometry":{"type":"Point","coordinates":[-1.02896,47.36237]},"properties":{"nom":"Chambres d'hôtes Les 3 Vallées","sub":"BedAndBreakfast","cm":"49410#Mauges-sur-Loire","web":"http://www.chambres-d-hotes-saint-florent-le-vieil.fr/","uri":"https://data.datatourisme.fr/49/b3630351-2c30-3b26-af52-4fce87db1fd1","dept":"49","reg":"pdl"}},{"type":"Feature","geometry":{"type":"Point","coordinates":[-0.85398,47.39115]},"properties":{"nom":"Yourtes Au bout de l'île","sub":"LodgingBusiness","cm":"49570#Mauges-sur-Loire","web":"http://www.auboutdelile.fr/","uri":"https://data.datatourisme.fr/49/cd513179-b684-3265-a40a-60cf82fa8305","dept":"49","reg":"pdl"}},{"type":"Feature","geometry":{"type":"Point","coordinates":[-1.10852,47.35049]},"properties":{"nom":"Chambre d'hôte La Guichetière","sub":"BedAndBreakfast","cm":"49530#Orée d'Anjou","web":"http://www.la-guichetiere.fr/","uri":"https://data.datatourisme.fr/49/ce1bddec-8bcd-3ec7-a527-f04a49f4ef4f","dept":"49","reg":"pdl"}},{"type":"Feature","geometry":{"type":"Point","coordinates":[-1.10852,47.35049]},"properties":{"nom":"Gîte de la Guichetière","sub":"LodgingBusiness","cm":"49530#Orée d'Anjou","web":"http://www.la-guichetiere.fr/","uri":"https://data.datatourisme.fr/49/ecd61510-fda0-3e27-8045-efbda787f060","dept":"49","reg":"pdl"}},{"type":"Feature","geometry":{"type":"Point","coordinates":[-0.92444,47.40104]},"properties":{"nom":"Gîte Rive Droite","sub":"LodgingBusiness","cm":"49123#Ingrandes-Le Fresne sur Loire","web":null,"uri":"https://data.datatourisme.fr/49/ab5594cd-3ae8-3ad4-a25e-dfaa6d5d8741","dept":"49","reg":"pdl"}},{"type":"Feature","geometry":{"type":"Point","coordinates":[-0.41945,47.33357]},"properties":{"nom":"Logis de la Pichonnière","sub":"BedAndBreakfast","cm":"49320#Brissac Loire Aubance","web":"http://www.gite-brissac.com/","uri":"https://data.datatourisme.fr/49/e4dda239-c5ff-3811-b9c1-93e6a3e661d4","dept":"49","reg":"pdl"}},{"type":"Feature","geometry":{"type":"Point","coordinates":[-0.21967,47.34842]},"properties":{"nom":"Gîte La Maison du Cordier","sub":"LodgingBusiness","cm":"49350#Gennes-Val-de-Loire","web":null,"uri":"https://data.datatourisme.fr/49/5987451b-b29d-3e5e-8a8c-5922a26a1c37","dept":"49","reg":"pdl"}},{"type":"Feature","geometry":{"type":"Point","coordinates":[-0.07916,47.26257]},"properties":{"nom":"Hôtel Rive Gauche","sub":"Hotel","cm":"49400#Saumur","web":"http://www.rivegauchesaumur.fr/","uri":"https://data.datatourisme.fr/49/cd81bea2-aecc-3157-9a84-40223d5d71fc","dept":"49","reg":"pdl"}},{"type":"Feature","geometry":{"type":"Point","coordinates":[0.01528,47.22848]},"properties":{"nom":"Gite Le Pavillon du Château de Targé","sub":"LodgingBusiness","cm":"49730#Parnay","web":"https://www.chateaudetarge.fr/","uri":"https://data.datatourisme.fr/49/4ec18852-bcf9-3f4f-813a-a7ee874329a6","dept":"49","reg":"pdl"}},{"type":"Feature","geometry":{"type":"Point","coordinates":[-0.50235,47.6221]},"properties":{"nom":"Camping de L'Écluse","sub":"Camping","cm":"49125#Cheffes","web":"https://www.campingcarpark.com/fr_FR/camping-car/pays-de-la-loire/maine-et-loire/cheffes","uri":"https://data.datatourisme.fr/49/4f5f7b93-8b7a-3f36-99ef-7d1c419b1e33","dept":"49","reg":"pdl"}},{"type":"Feature","geometry":{"type":"Point","coordinates":[-0.80088,47.6277]},"properties":{"nom":"Domaine des Arbres - gîte le Hêtre","sub":"LodgingBusiness","cm":"49220#Montreuil-sur-Maine","web":"https://domainedesarbres.com/contact-us/","uri":"https://data.datatourisme.fr/49/4f8d3237-1021-3632-a64b-9847220a1080","dept":"49","reg":"pdl"}},{"type":"Feature","geometry":{"type":"Point","coordinates":[-0.6534,47.31723]},"properties":{"nom":"GÎTE DE LA POILANE","sub":"LodgingBusiness","cm":"49190#Val-du-Layon","web":null,"uri":"https://data.datatourisme.fr/49/b30962d8-be86-3175-af0a-3522f52c884e","dept":"49","reg":"pdl"}},{"type":"Feature","geometry":{"type":"Point","coordinates":[-0.36302,47.37445]},"properties":{"nom":"GITE DU DOMAINE DES TOUCHES","sub":"LodgingBusiness","cm":"49320#Brissac Loire Aubance","web":null,"uri":"https://data.datatourisme.fr/49/022d4c74-5d81-349c-a2f1-1e37790f8412","dept":"49","reg":"pdl"}},{"type":"Feature","geometry":{"type":"Point","coordinates":[-0.1394,47.22512]},"properties":{"nom":"Restaurant Le Moulin des Saveurs Domaine de Presle","sub":"HotelRestaurant","cm":"49400#Distré","web":"https://www.domainedepresle.fr/","uri":"https://data.datatourisme.fr/49/e18e67a4-5e0a-3e84-8464-94d5234a9561","dept":"49","reg":"pdl"}},{"type":"Feature","geometry":{"type":"Point","coordinates":[-0.13987,47.2255]},"properties":{"nom":"Hôtel Le Domaine de Presle","sub":"HotelTrade","cm":"49400#Distré","web":"https://www.domainedepresle.fr/","uri":"https://data.datatourisme.fr/49/c2854042-421e-3cff-b459-7f2505dc159b","dept":"49","reg":"pdl"}},{"type":"Feature","geometry":{"type":"Point","coordinates":[-0.40937,47.20192]},"properties":{"nom":"Chambres d'hôtes du Pont de Livier","sub":"BedAndBreakfast","cm":"49700#Doué-en-Anjou","web":"https://www.pontdelivier.com/","uri":"https://data.datatourisme.fr/49/ff7ca7fb-d502-3c22-b14d-0bcd4e5c5e11","dept":"49","reg":"pdl"}},{"type":"Feature","geometry":{"type":"Point","coordinates":[-0.40937,47.20192]},"properties":{"nom":"Gîte rural du Pont de Livier","sub":"LodgingBusiness","cm":"49700#Doué-en-Anjou","web":"https://www.pontdelivier.com/","uri":"https://data.datatourisme.fr/49/48b3cc2e-a924-3497-a969-bac30e55452b","dept":"49","reg":"pdl"}},{"type":"Feature","geometry":{"type":"Point","coordinates":[-0.07073,47.26891]},"properties":{"nom":"Hôtel L'Escale de la Gare","sub":"HotelTrade","cm":"49400#Saumur","web":"https://www.escale-saumur.fr/","uri":"https://data.datatourisme.fr/49/ff9ecebe-a226-33ce-b2e9-3cec262a7f55","dept":"49","reg":"pdl"}},{"type":"Feature","geometry":{"type":"Point","coordinates":[-0.07073,47.26891]},"properties":{"nom":"Restaurant L'Escale de la Gare","sub":"HotelRestaurant","cm":"49400#Saumur","web":"https://www.escale-saumur.fr/","uri":"https://data.datatourisme.fr/49/a8ffa77e-c22f-3144-86df-df91226467f7","dept":"49","reg":"pdl"}},{"type":"Feature","geometry":{"type":"Point","coordinates":[-0.40948,47.52715]},"properties":{"nom":"Gîte La Ferme de l'Espoir - L'Espoir","sub":"LodgingBusiness","cm":"49140#Corzé","web":null,"uri":"https://data.datatourisme.fr/49/fface709-657c-3c2c-8e39-98577424e90b","dept":"49","reg":"pdl"}},{"type":"Feature","geometry":{"type":"Point","coordinates":[-1.22625,47.13263]},"properties":{"nom":"Gîte de la Guiltière","sub":"LodgingBusiness","cm":"49450#Sèvremoine","web":null,"uri":"https://data.datatourisme.fr/49/6f656549-33e8-3d08-be1d-261f75af1a8a","dept":"49","reg":"pdl"}},{"type":"Feature","geometry":{"type":"Point","coordinates":[0.11298,47.51267]},"properties":{"nom":"Gîte Entre Anjou et Touraine","sub":"LodgingBusiness","cm":"49490#Noyant-Villages","web":null,"uri":"https://data.datatourisme.fr/49/019d1670-1e3b-3e73-a2e9-700c67f9dcc0","dept":"49","reg":"pdl"}},{"type":"Feature","geometry":{"type":"Point","coordinates":[-0.43439,47.35756]},"properties":{"nom":"Camping de l'Etang","sub":"Camping","cm":"49320#Brissac Loire Aubance","web":"https://www.campingetang.com/","uri":"https://data.datatourisme.fr/49/0e6491c9-b325-33ef-8ffb-11ec272ca5ab","dept":"49","reg":"pdl"}},{"type":"Feature","geometry":{"type":"Point","coordinates":[0.0246,47.321]},"properties":{"nom":"Gite La Croix des Chemins","sub":"LodgingBusiness","cm":"49650#Allonnes","web":"https://lacroixdeschemins.com/","uri":"https://data.datatourisme.fr/49/10b12ff7-bfd1-3ae1-b240-7fb3441b9274","dept":"49","reg":"pdl"}},{"type":"Feature","geometry":{"type":"Point","coordinates":[-0.06503,47.62594]},"properties":{"nom":"Gîte de la Gare 3 personnes","sub":"LodgingBusiness","cm":"49150#Baugé-en-Anjou","web":null,"uri":"https://data.datatourisme.fr/49/14952cc9-e993-3a58-892a-d35e4412eddf","dept":"49","reg":"pdl"}},{"type":"Feature","geometry":{"type":"Point","coordinates":[-0.06504,47.62597]},"properties":{"nom":"Gîte de la Gare 6 personnes","sub":"LodgingBusiness","cm":"49150#Baugé-en-Anjou","web":null,"uri":"https://data.datatourisme.fr/49/93b11262-d96c-3682-b0a7-073609c7681a","dept":"49","reg":"pdl"}},{"type":"Feature","geometry":{"type":"Point","coordinates":[0.05228,47.18107]},"properties":{"nom":"Restaurant Fontevraud L'Ermitage","sub":"HotelRestaurant","cm":"49590#Fontevraud-l'Abbaye","web":"https://www.fontevraud.fr/les-restaurants/fontevraud-le-restaurant","uri":"https://data.datatourisme.fr/49/0b29401e-5fee-34f3-bbe6-4bed68888837","dept":"49","reg":"pdl"}},{"type":"Feature","geometry":{"type":"Point","coordinates":[0.05206,47.17973]},"properties":{"nom":"Hôtel Fontevraud L'Ermitage","sub":"HotelTrade","cm":"49590#Fontevraud-l'Abbaye","web":"http://www.fontevraud.fr/","uri":"https://data.datatourisme.fr/49/57e03d11-8352-3c04-b5e5-58a21c258ffd","dept":"49","reg":"pdl"}},{"type":"Feature","geometry":{"type":"Point","coordinates":[-1.17118,47.77793]},"properties":{"nom":"Gîte Vengeau","sub":"LodgingBusiness","cm":"49420#Ombrée d'Anjou","web":null,"uri":"https://data.datatourisme.fr/49/77b8e185-da14-3300-bbd1-9fe1de4586cf","dept":"49","reg":"pdl"}},{"type":"Feature","geometry":{"type":"Point","coordinates":[-0.6342,47.33075]},"properties":{"nom":"GITES DE CHARME DU CHATEAU DE LA GUIMONIERE","sub":"LodgingBusiness","cm":"49190#Rochefort-sur-Loire","web":"http://www.chateaudelaguimoniere.com/","uri":"https://data.datatourisme.fr/49/255c97eb-ce03-3606-8e59-3f017aca0f7a","dept":"49","reg":"pdl"}},{"type":"Feature","geometry":{"type":"Point","coordinates":[-0.52288,47.29827]},"properties":{"nom":"GITE LOGIS DE LA BRUNETIERE","sub":"LodgingBusiness","cm":"49380#Bellevigne-en-Layon","web":null,"uri":"https://data.datatourisme.fr/49/2648fcd0-f007-3c5a-a4bd-c978b311f7ee","dept":"49","reg":"pdl"}},{"type":"Feature","geometry":{"type":"Point","coordinates":[-0.44804,47.35401]},"properties":{"nom":"Hôtel Le Castel","sub":"Hotel","cm":"49320#Brissac Loire Aubance","web":"http://www.hotel-lecastel.com/","uri":"https://data.datatourisme.fr/49/328cbf7a-843f-3262-8e3b-de2ff3d40972","dept":"49","reg":"pdl"}},{"type":"Feature","geometry":{"type":"Point","coordinates":[-0.63223,47.30023]},"properties":{"nom":"L'ORANGERIE EN ANJOU","sub":"LodgingBusiness","cm":"49750#Val-du-Layon","web":null,"uri":"https://data.datatourisme.fr/49/33d1820b-d06f-350b-818a-ab900598e5bc","dept":"49","reg":"pdl"}},{"type":"Feature","geometry":{"type":"Point","coordinates":[-0.87702,47.70348]},"properties":{"nom":"Chambres d'hôtes la Grange du Plessis","sub":"BedAndBreakfast","cm":"49500#Segré-en-Anjou Bleu","web":"http://www.le-plessis.eu/","uri":"https://data.datatourisme.fr/49/26bdc2be-ef9d-33b7-9649-118ad7711bb6","dept":"49","reg":"pdl"}},{"type":"Feature","geometry":{"type":"Point","coordinates":[-0.89679,47.77471]},"properties":{"nom":"Chambres d'hôtes et Spa la Forcerie","sub":"BedAndBreakfast","cm":"49520#Segré-en-Anjou Bleu","web":"http://www.laforcerie.com/","uri":"https://data.datatourisme.fr/49/284bbcc1-085c-38f2-9eff-d9faa6af3140","dept":"49","reg":"pdl"}},{"type":"Feature","geometry":{"type":"Point","coordinates":[-1.11879,47.36538]},"properties":{"nom":"Gîte La Maison Paradis","sub":"LodgingBusiness","cm":"49530#Orée d'Anjou","web":"https://www.248-riverside.com/","uri":"https://data.datatourisme.fr/49/294b92db-e0c3-399e-87c1-52ae52c3a285","dept":"49","reg":"pdl"}},{"type":"Feature","geometry":{"type":"Point","coordinates":[-1.05812,47.10753]},"properties":{"nom":"Gîte de La Pierre Bleue B","sub":"LodgingBusiness","cm":"49450#Sèvremoine","web":null,"uri":"https://data.datatourisme.fr/49/bff22b95-eab1-39c6-ab32-2b94a1d14bc6","dept":"49","reg":"pdl"}},{"type":"Feature","geometry":{"type":"Point","coordinates":[-1.05812,47.10753]},"properties":{"nom":"Gîte de La Pierre Bleue A","sub":"LodgingBusiness","cm":"49450#Sèvremoine","web":null,"uri":"https://data.datatourisme.fr/49/c25f281c-3f5c-3e43-8b14-bd2faae92033","dept":"49","reg":"pdl"}},{"type":"Feature","geometry":{"type":"Point","coordinates":[-0.25893,47.38715]},"properties":{"nom":"Gîte La Malterie","sub":"LodgingBusiness","cm":"49250#La Ménitré","web":"http://www.gite-la-malterie.com/","uri":"https://data.datatourisme.fr/49/35df1868-80fa-3657-99d7-b002123f88eb","dept":"49","reg":"pdl"}},{"type":"Feature","geometry":{"type":"Point","coordinates":[-0.5937,47.38236]},"properties":{"nom":"GITE \"AUX VENTS D'ANGES\"","sub":"LodgingBusiness","cm":"49610#Mozé-sur-Louet","web":"http://gite-bauneau-pascal.jimdo.com/","uri":"https://data.datatourisme.fr/49/3789a571-16f6-3c4a-ac95-dfe72bf68ef4","dept":"49","reg":"pdl"}},{"type":"Feature","geometry":{"type":"Point","coordinates":[-0.27403,47.19137]},"properties":{"nom":"Gite du Pré Prétreau","sub":"LodgingBusiness","cm":"49700#Doué-en-Anjou","web":null,"uri":"https://data.datatourisme.fr/49/3c5b9fe5-a5b7-347f-b364-cdb2bdb8bbf3","dept":"49","reg":"pdl"}},{"type":"Feature","geometry":{"type":"Point","coordinates":[-1.00852,47.74572]},"properties":{"nom":"Gîte la Ruaudière","sub":"LodgingBusiness","cm":"49520#Ombrée d'Anjou","web":null,"uri":"https://data.datatourisme.fr/49/0ba3e37a-d628-386d-90b6-629fa10f8afa","dept":"49","reg":"pdl"}},{"type":"Feature","geometry":{"type":"Point","coordinates":[-0.2703,47.40213]},"properties":{"nom":"Chambre d'hôtes La Biocyclette sur Loire","sub":"BedAndBreakfast","cm":"49250#La Ménitré","web":null,"uri":"https://data.datatourisme.fr/49/0bb971e4-902f-32f9-be47-50881fa9aa00","dept":"49","reg":"pdl"}},{"type":"Feature","geometry":{"type":"Point","coordinates":[-0.2703,47.40213]},"properties":{"nom":"Gîte La Biocyclette sur Loire","sub":"LodgingBusiness","cm":"49250#La Ménitré","web":null,"uri":"https://data.datatourisme.fr/49/5a503116-4d2a-3b27-977b-55dd2891d88a","dept":"49","reg":"pdl"}},{"type":"Feature","geometry":{"type":"Point","coordinates":[-0.27889,47.19324]},"properties":{"nom":"Chambres d'hôtes Le Chai de la Rose & spa","sub":"BedAndBreakfast","cm":"49700#Doué-en-Anjou","web":"https://www.lechaidelarose.com/fr","uri":"https://data.datatourisme.fr/49/472169b2-0702-349d-b396-d47420037985","dept":"49","reg":"pdl"}},{"type":"Feature","geometry":{"type":"Point","coordinates":[-0.15259,47.13227]},"properties":{"nom":"Hôtel Restaurant Le Relais du Bellay","sub":"HotelTrade","cm":"49260#Montreuil-Bellay","web":"https://www.hotelrelaisdubellay.com/","uri":"https://data.datatourisme.fr/49/47ac60f4-ca7e-3718-887b-7dc28a1f3688","dept":"49","reg":"pdl"}},{"type":"Feature","geometry":{"type":"Point","coordinates":[-0.1525,47.13222]},"properties":{"nom":"Restaurant Le Relais du Bellay","sub":"HotelRestaurant","cm":"49260#Montreuil-Bellay","web":"https://www.hotelrelaisdubellay.com/","uri":"https://data.datatourisme.fr/49/067d2579-7523-3a91-9d5c-1aef585e24f2","dept":"49","reg":"pdl"}},{"type":"Feature","geometry":{"type":"Point","coordinates":[-0.08146,47.277]},"properties":{"nom":"Chambres d'hôtes La Lambertine & Spa","sub":"BedAndBreakfast","cm":"49400#Saumur","web":null,"uri":"https://data.datatourisme.fr/49/2c94d679-a86d-37fa-b69e-e4dbdf32ff8b","dept":"49","reg":"pdl"}},{"type":"Feature","geometry":{"type":"Point","coordinates":[-0.15499,47.13042]},"properties":{"nom":"Gite Le Flamboyant","sub":"LodgingBusiness","cm":"49260#Montreuil-Bellay","web":"https://www.gite-le-flamboyant.com/","uri":"https://data.datatourisme.fr/49/2e98ca2a-0def-38bb-b572-68da4715d295","dept":"49","reg":"pdl"}},{"type":"Feature","geometry":{"type":"Point","coordinates":[-0.09935,47.24196]},"properties":{"nom":"Hôtel Campanile Saumur","sub":"HotelTrade","cm":"49400#Saumur","web":"https://saumur.campanile.com/fr-fr/","uri":"https://data.datatourisme.fr/49/2feba2e8-ebd9-3991-8833-5efb8460d73c","dept":"49","reg":"pdl"}},{"type":"Feature","geometry":{"type":"Point","coordinates":[-0.07455,47.259]},"properties":{"nom":"Gite Réal Fleury","sub":"LodgingBusiness","cm":"49400#Saumur","web":null,"uri":"https://data.datatourisme.fr/49/304ef38b-85d8-3b39-9a82-8b6b07703c6b","dept":"49","reg":"pdl"}},{"type":"Feature","geometry":{"type":"Point","coordinates":[-0.31642,47.39768]},"properties":{"nom":"Gîte d'étape Le Presbytère","sub":"CollectiveAccommodation","cm":"49320#Brissac Loire Aubance","web":"http://www.gitelepresbytere.com/","uri":"https://data.datatourisme.fr/49/1aafbd34-134e-3c9a-88ea-534cfabf1bcb","dept":"49","reg":"pdl"}},{"type":"Feature","geometry":{"type":"Point","coordinates":[-0.76469,47.35561]},"properties":{"nom":"GITE DE L'ASNERIE","sub":"LodgingBusiness","cm":"49290#Chalonnes-sur-Loire","web":"http://www.gite-de-lasnerie.fr/","uri":"https://data.datatourisme.fr/49/c1e97f12-79d4-3185-8029-ff0f5fe32b4f","dept":"49","reg":"pdl"}},{"type":"Feature","geometry":{"type":"Point","coordinates":[-0.15798,47.31055]},"properties":{"nom":"Chambres d'hôtes Le Belvédère de Loire","sub":"BedAndBreakfast","cm":"49350#Gennes-Val-de-Loire","web":"https://www.belvederedeloire.com/","uri":"https://data.datatourisme.fr/49/d087f2a4-62ba-3ac0-b3e2-2da1b4f33c16","dept":"49","reg":"pdl"}},{"type":"Feature","geometry":{"type":"Point","coordinates":[-0.12,47.195]},"properties":{"nom":"Chambres d'hôtes Manoir de Boisairault","sub":"BedAndBreakfast","cm":"49260#Le Coudray-Macouard","web":"http://www.manoir-de-boisairault.com/","uri":"https://data.datatourisme.fr/49/d3ae354c-643a-3c56-953a-944fde22d227","dept":"49","reg":"pdl"}},{"type":"Feature","geometry":{"type":"Point","coordinates":[-0.7186,47.66829]},"properties":{"nom":"Domaine des Arbres - gîte le Saule","sub":"LodgingBusiness","cm":"49220#Montreuil-sur-Maine","web":"https://domainedesarbres.com/","uri":"https://data.datatourisme.fr/49/d0da84bb-e33c-31c4-876e-ac066c8ee8b6","dept":"49","reg":"pdl"}},{"type":"Feature","geometry":{"type":"Point","coordinates":[-0.7186,47.66829]},"properties":{"nom":"Domaine des Arbres - gîte l'Erable","sub":"LodgingBusiness","cm":"49220#Montreuil-sur-Maine","web":"https://domainedesarbres.com/contact-us/","uri":"https://data.datatourisme.fr/49/1ab37d74-970b-3ab9-a559-6988e459a7a6","dept":"49","reg":"pdl"}},{"type":"Feature","geometry":{"type":"Point","coordinates":[-0.7186,47.66829]},"properties":{"nom":"Domaine des Arbres - gîte le Noyer","sub":"LodgingBusiness","cm":"49220#Montreuil-sur-Maine","web":"https://domainedesarbres.com/contact-us/","uri":"https://data.datatourisme.fr/49/2f55ce86-ca25-3809-a854-e2257b043245","dept":"49","reg":"pdl"}},{"type":"Feature","geometry":{"type":"Point","coordinates":[-1.18451,47.33622]},"properties":{"nom":"Château de la Turmelière","sub":"CollectiveAccommodation","cm":"49530#Orée d'Anjou","web":"http://www.turmeliere.org/","uri":"https://data.datatourisme.fr/49/d144d372-66a5-3f1c-bec4-92d06a0d2474","dept":"49","reg":"pdl"}},{"type":"Feature","geometry":{"type":"Point","coordinates":[0.14278,47.49189]},"properties":{"nom":"Chambres d'hôtes Galmer","sub":"BedAndBreakfast","cm":"49490#Noyant-Villages","web":null,"uri":"https://data.datatourisme.fr/49/d26ed2e0-b31d-3f1a-8ea1-c176255d9917","dept":"49","reg":"pdl"}},{"type":"Feature","geometry":{"type":"Point","coordinates":[-0.57902,47.65014]},"properties":{"nom":"Gîte la Minguière","sub":"LodgingBusiness","cm":"49330#Les Hauts-d'Anjou","web":"http://www.laminguiere.fr/","uri":"https://data.datatourisme.fr/49/469bd853-4883-3c59-af94-84ec29b95a65","dept":"49","reg":"pdl"}},{"type":"Feature","geometry":{"type":"Point","coordinates":[-0.99435,47.10075]},"properties":{"nom":"Brit Azur Hôtel","sub":"Hotel","cm":"49450#Sèvremoine","web":"https://hotel-cholet.brithotel.fr/","uri":"https://data.datatourisme.fr/49/2efe5332-3304-338c-aa79-5c187e2ab165","dept":"49","reg":"pdl"}},{"type":"Feature","geometry":{"type":"Point","coordinates":[-1.11068,47.36559]},"properties":{"nom":"Cabanes sur pilotis au Camping des Babins","sub":"LodgingBusiness","cm":"49530#Orée d'Anjou","web":"https://camping-babins.fr/","uri":"https://data.datatourisme.fr/49/c4c76be5-b80b-3cee-bea6-83c90175b9cd","dept":"49","reg":"pdl"}},{"type":"Feature","geometry":{"type":"Point","coordinates":[-1.11068,47.36559]},"properties":{"nom":"Camping Les Babins","sub":"Camping","cm":"49530#Orée d'Anjou","web":"http://www.camping-babins.fr/","uri":"https://data.datatourisme.fr/49/c5cd2972-4d71-3dc2-8708-ad047029298b","dept":"49","reg":"pdl"}},{"type":"Feature","geometry":{"type":"Point","coordinates":[-0.73435,47.20136]},"properties":{"nom":"Chalets équipés au camping de Coulvée","sub":"LodgingBusiness","cm":"49120#Chemillé-en-Anjou","web":"http://camping-coulvee-chemille.com/","uri":"https://data.datatourisme.fr/49/c56d0396-7d7a-32bd-afa8-c947a79dcaac","dept":"49","reg":"pdl"}},{"type":"Feature","geometry":{"type":"Point","coordinates":[-0.73498,47.2025]},"properties":{"nom":"Tentes équipées au camping de Coulvée","sub":"LodgingBusiness","cm":"49120#Chemillé-en-Anjou","web":"http://camping-coulvee-chemille.com/","uri":"https://data.datatourisme.fr/49/f303d7b1-ae10-30aa-b495-caaf6730a072","dept":"49","reg":"pdl"}},{"type":"Feature","geometry":{"type":"Point","coordinates":[0.16395,47.46965]},"properties":{"nom":"Gîte La Bergerie au Lathan","sub":"LodgingBusiness","cm":"49490#Noyant-Villages","web":null,"uri":"https://data.datatourisme.fr/49/af954c27-d1fd-3e76-b6ec-87529b2497e3","dept":"49","reg":"pdl"}},{"type":"Feature","geometry":{"type":"Point","coordinates":[-0.16081,47.44667]},"properties":{"nom":"Gîtes Le Logis du Pressoir","sub":"LodgingBusiness","cm":"49250#Les Bois d'Anjou","web":"http://www.logisdupressoir.com/","uri":"https://data.datatourisme.fr/49/2de80429-7052-3a92-bb30-1f2bdfbad9a4","dept":"49","reg":"pdl"}},{"type":"Feature","geometry":{"type":"Point","coordinates":[-0.23477,47.12537]},"properties":{"nom":"Chambres d'hôtes Le Puy à Vins","sub":"BedAndBreakfast","cm":"49260#Le Puy-Notre-Dame","web":"https://www.lepuyavins.fr/","uri":"https://data.datatourisme.fr/49/a3c1fc21-875b-33fd-89b9-4d797d5399bc","dept":"49","reg":"pdl"}},{"type":"Feature","geometry":{"type":"Point","coordinates":[-0.07919,47.26014]},"properties":{"nom":"Hôtel Kyriad","sub":"Hotel","cm":"49400#Saumur","web":"https://saumur-centre.kyriad.com/fr-fr/?utm_content=partoo&utm_medium=seo-bgp&utm_source=google","uri":"https://data.datatourisme.fr/49/781b3940-c22e-3acf-84a2-4bcba83d65d2","dept":"49","reg":"pdl"}},{"type":"Feature","geometry":{"type":"Point","coordinates":[-0.22612,47.331]},"properties":{"nom":"Chambres d'hôtes Le Domaine de Joreau","sub":"BedAndBreakfast","cm":"49350#Gennes-Val-de-Loire","web":"https://www.domainedejoreau.fr/","uri":"https://data.datatourisme.fr/49/9f7cba9d-d388-395a-9a57-92b772764028","dept":"49","reg":"pdl"}},{"type":"Feature","geometry":{"type":"Point","coordinates":[-0.22612,47.331]},"properties":{"nom":"Gite  Douceur Angevine","sub":"LodgingBusiness","cm":"49350#Gennes-Val-de-Loire","web":"https://www.chambres-gite-saumur.com/","uri":"https://data.datatourisme.fr/49/87112533-d1ae-3c35-90a0-6e10f900bd95","dept":"49","reg":"pdl"}},{"type":"Feature","geometry":{"type":"Point","coordinates":[0.01298,47.29484]},"properties":{"nom":"Chambres d'hôtes La Thibaudière & spa","sub":"BedAndBreakfast","cm":"49650#Allonnes","web":"http://www.thibaudiere.fr/","uri":"https://data.datatourisme.fr/49/a03ed07d-b5d5-310b-b734-086989eb9900","dept":"49","reg":"pdl"}},{"type":"Feature","geometry":{"type":"Point","coordinates":[-0.02436,47.329]},"properties":{"nom":"Gite La Roche Brard","sub":"LodgingBusiness","cm":"49680#Neuillé","web":null,"uri":"https://data.datatourisme.fr/49/a1cdc448-004c-3b4c-92d3-6edf58835942","dept":"49","reg":"pdl"}},{"type":"Feature","geometry":{"type":"Point","coordinates":[-0.23587,47.67103]},"properties":{"nom":"Camping Les Portes de l'Anjou","sub":"Camping","cm":"49430#Durtal","web":"https://www.lesportesdelanjou.com/","uri":"https://data.datatourisme.fr/49/7843bb84-dc5d-301a-9c1a-ff78cdb2e800","dept":"49","reg":"pdl"}},{"type":"Feature","geometry":{"type":"Point","coordinates":[-0.683,47.60495]},"properties":{"nom":"Lodge sauna - côté rivière & spa","sub":"BedAndBreakfast","cm":"49220#Grez-Neuville","web":"http://www.cote-riviere.com/","uri":"https://data.datatourisme.fr/49/a21348f8-eb4c-3198-943e-95add1230ecf","dept":"49","reg":"pdl"}},{"type":"Feature","geometry":{"type":"Point","coordinates":[-0.68292,47.60456]},"properties":{"nom":"Lodge hammam - côté rivière & spa","sub":"BedAndBreakfast","cm":"49220#Grez-Neuville","web":"http://www.cote-riviere.com/","uri":"https://data.datatourisme.fr/49/32a30126-49a1-3b3b-8bb2-80a2e33f58c0","dept":"49","reg":"pdl"}},{"type":"Feature","geometry":{"type":"Point","coordinates":[-0.27336,47.39841]},"properties":{"nom":"Gîte Miroir de Loire","sub":"LodgingBusiness","cm":"49250#La Ménitré","web":"http://gite-miroirdeloire.fr/","uri":"https://data.datatourisme.fr/49/a297ad15-d304-3477-b4ca-d592df9d11dd","dept":"49","reg":"pdl"}},{"type":"Feature","geometry":{"type":"Point","coordinates":[-0.0795,47.25899]},"properties":{"nom":"London Fizz - Cocktails, Fléchettes, Brunch","sub":"HotelRestaurant","cm":"49400#Saumur","web":"https://www.lelondres.com/","uri":"https://data.datatourisme.fr/49/ee115870-7c98-338e-8e35-3d93d024e2c1","dept":"49","reg":"pdl"}},{"type":"Feature","geometry":{"type":"Point","coordinates":[-0.07935,47.25918]},"properties":{"nom":"The Originals Boutique, Le Londres Hôtel","sub":"Hotel","cm":"49400#Saumur","web":"https://www.lelondres.com/","uri":"https://data.datatourisme.fr/49/5db5e68a-5089-3434-8fd6-507245d16dc2","dept":"49","reg":"pdl"}},{"type":"Feature","geometry":{"type":"Point","coordinates":[-0.07935,47.25918]},"properties":{"nom":"The Originals Boutique, Le Londres Hôtel et Appartements","sub":"CollectiveAccommodation","cm":"49400#Saumur","web":"https://www.lelondres.com/","uri":"https://data.datatourisme.fr/49/2572ab93-6794-36ea-b5f2-c7d90392dcdb","dept":"49","reg":"pdl"}},{"type":"Feature","geometry":{"type":"Point","coordinates":[-0.76415,47.35411]},"properties":{"nom":"EVASION SUR TOUE CABANEE","sub":"LodgingBusiness","cm":"49290#Chalonnes-sur-Loire","web":"https://www.airbnb.fr/rooms/50187189?source_impression_id=p3_1710345309_PF%2FKHkQc29OtM4MB","uri":"https://data.datatourisme.fr/49/d9a21c2b-44b9-3d3e-aedc-52b1732a7459","dept":"49","reg":"pdl"}},{"type":"Feature","geometry":{"type":"Point","coordinates":[-0.27578,47.247]},"properties":{"nom":"Gite La Petite Carte","sub":"LodgingBusiness","cm":"49700#Dénezé-sous-Doué","web":null,"uri":"https://data.datatourisme.fr/49/46381d15-c916-38c5-82f0-7042056d2327","dept":"49","reg":"pdl"}},{"type":"Feature","geometry":{"type":"Point","coordinates":[-0.74713,47.00626]},"properties":{"nom":"Château Colbert","sub":"HotelRestaurant","cm":"49360#Maulévrier","web":"http://www.chateaucolbert.com/","uri":"https://data.datatourisme.fr/49/836b3549-1020-3df7-b0c8-5d74d208e269","dept":"49","reg":"pdl"}},{"type":"Feature","geometry":{"type":"Point","coordinates":[-0.74702,47.0064]},"properties":{"nom":"Château Colbert","sub":"Hotel","cm":"49360#Maulévrier","web":"http://www.chateaucolbert.com/","uri":"https://data.datatourisme.fr/49/9b92790b-95b8-3127-8f96-317749e79273","dept":"49","reg":"pdl"}},{"type":"Feature","geometry":{"type":"Point","coordinates":[-1.02088,47.68136]},"properties":{"nom":"Aire à la ferme auberge de La Touche","sub":"CampingAndCaravanning","cm":"49520#Ombrée d'Anjou","web":null,"uri":"https://data.datatourisme.fr/49/0c37f814-3946-3d56-8325-3f9285e51157","dept":"49","reg":"pdl"}},{"type":"Feature","geometry":{"type":"Point","coordinates":[-1.11879,47.36538]},"properties":{"nom":"Gîte La Maison Bonheur","sub":"LodgingBusiness","cm":"49530#Orée d'Anjou","web":"https://www.248-riverside.com/","uri":"https://data.datatourisme.fr/49/c0eb45e5-724d-35db-9fa6-d465b9459710","dept":"49","reg":"pdl"}},{"type":"Feature","geometry":{"type":"Point","coordinates":[-1.11879,47.36538]},"properties":{"nom":"Gîte La Maison Douceur","sub":"LodgingBusiness","cm":"49530#Orée d'Anjou","web":"https://www.248-riverside.com/","uri":"https://data.datatourisme.fr/49/06cef442-024d-3bb1-b1a0-08861c96d068","dept":"49","reg":"pdl"}},{"type":"Feature","geometry":{"type":"Point","coordinates":[-1.18451,47.33622]},"properties":{"nom":"Gîte de groupes Frênes","sub":"CollectiveAccommodation","cm":"49530#Orée d'Anjou","web":"https://www.turmeliere.org/","uri":"https://data.datatourisme.fr/49/899d3675-c9d4-33f7-92f0-58a5e5afab1a","dept":"49","reg":"pdl"}},{"type":"Feature","geometry":{"type":"Point","coordinates":[-1.18451,47.33622]},"properties":{"nom":"Gîte des Charmilles","sub":"LodgingBusiness","cm":"49530#Orée d'Anjou","web":"http://www.laturmeliere.org/","uri":"https://data.datatourisme.fr/49/3cb04f6e-4feb-3df2-9e43-07b3a209c1dd","dept":"49","reg":"pdl"}},{"type":"Feature","geometry":{"type":"Point","coordinates":[-1.18451,47.33622]},"properties":{"nom":"Gîte de groupe Tilleuls","sub":"CollectiveAccommodation","cm":"49530#Orée d'Anjou","web":"https://www.turmeliere.org/","uri":"https://data.datatourisme.fr/49/fcf4e777-e05f-37d4-a61c-a2d1b0aa56b1","dept":"49","reg":"pdl"}},{"type":"Feature","geometry":{"type":"Point","coordinates":[0.20548,47.58775]},"properties":{"nom":"Hébergement Groupe La chicaudière","sub":"CollectiveAccommodation","cm":"49490#Noyant-Villages","web":"https://lachicaudiere-78.webself.net/accueil","uri":"https://data.datatourisme.fr/49/0812f1a5-cd41-3aeb-94ec-93acadc9575e","dept":"49","reg":"pdl"}},{"type":"Feature","geometry":{"type":"Point","coordinates":[-0.48631,47.2101]},"properties":{"nom":"GÎTE DE LA GRAPPE D'OR","sub":"LodgingBusiness","cm":"49540#Aubigné-sur-Layon","web":"https://www.gite-anjou-france.fr/","uri":"https://data.datatourisme.fr/49/6fb8776d-44e9-3c10-bf9c-e00bae94e078","dept":"49","reg":"pdl"}},{"type":"Feature","geometry":{"type":"Point","coordinates":[-0.48394,47.40603]},"properties":{"nom":"GITE DE FRANCE LES PIMONTS","sub":"LodgingBusiness","cm":"49610#Les Garennes sur Loire","web":null,"uri":"https://data.datatourisme.fr/49/78e3253c-6265-35de-ab5c-d89efc53b0ae","dept":"49","reg":"pdl"}},{"type":"Feature","geometry":{"type":"Point","coordinates":[-0.11369,47.08478]},"properties":{"nom":"Chambres d'hôtes Manoir d'Orbé","sub":"BedAndBreakfast","cm":"49260#Antoigné","web":"https://www.manoir-orbe.fr/","uri":"https://data.datatourisme.fr/49/32b2031a-ad4d-3c9a-b0a2-dbc9694cc060","dept":"49","reg":"pdl"}},{"type":"Feature","geometry":{"type":"Point","coordinates":[-0.03891,47.16758]},"properties":{"nom":"Gite Château Fouquet","sub":"LodgingBusiness","cm":"49400#Bellevigne-les-Châteaux","web":"https://gitechateaufouquet.chezvotrehote.fr/","uri":"https://data.datatourisme.fr/49/3385488b-af7d-372c-9953-32130fee1b18","dept":"49","reg":"pdl"}},{"type":"Feature","geometry":{"type":"Point","coordinates":[-0.11176,47.13484]},"properties":{"nom":"Gite Le Logis d'Adrienne","sub":"LodgingBusiness","cm":"49260#Montreuil-Bellay","web":"https://www.le-logis-d-adrienne.fr/","uri":"https://data.datatourisme.fr/49/97ffef56-df0d-37e8-affd-b8fa700b2f5f","dept":"49","reg":"pdl"}},{"type":"Feature","geometry":{"type":"Point","coordinates":[-0.11176,47.13484]},"properties":{"nom":"Le Logis d'Adrienne - Le Studio","sub":"LodgingBusiness","cm":"49260#Montreuil-Bellay","web":"https://www.le-logis-d-adrienne.fr/","uri":"https://data.datatourisme.fr/49/168edc30-2a04-3e43-b4e6-d86c5359df4e","dept":"49","reg":"pdl"}},{"type":"Feature","geometry":{"type":"Point","coordinates":[-0.11176,47.13484]},"properties":{"nom":"Les gîtes du Logis d'Adrienne","sub":"LodgingBusiness","cm":"49260#Montreuil-Bellay","web":"https://www.le-logis-d-adrienne.fr/","uri":"https://data.datatourisme.fr/49/45922dcc-8bd5-3866-8ded-76f62afe2899","dept":"49","reg":"pdl"}},{"type":"Feature","geometry":{"type":"Point","coordinates":[-0.55785,47.14949]},"properties":{"nom":"L'Epinasserie (7 personnes)","sub":"LodgingBusiness","cm":"49310#Lys-Haut-Layon","web":"http://www.gite-epinasserie-anjou-tourisme.fr/","uri":"https://data.datatourisme.fr/49/3315a830-c4e5-34ca-8440-48a8b8f08850","dept":"49","reg":"pdl"}},{"type":"Feature","geometry":{"type":"Point","coordinates":[-0.49642,47.37078]},"properties":{"nom":"La Demeure de l'Aubance","sub":"BedAndBreakfast","cm":"49610#Saint-Melaine-sur-Aubance","web":"https://www.demeuredelaubance.fr/fr","uri":"https://data.datatourisme.fr/49/75cfbe34-38f4-3722-9ccf-88414f6cc677","dept":"49","reg":"pdl"}},{"type":"Feature","geometry":{"type":"Point","coordinates":[-0.8706,47.6862]},"properties":{"nom":"hôte-zen - studio cosy","sub":"LodgingBusiness","cm":"49500#Segré-en-Anjou Bleu","web":"https://www.hote-zen.fr/nos-logements","uri":"https://data.datatourisme.fr/49/001523b3-5408-3cdb-bc42-b55fd2279a02","dept":"49","reg":"pdl"}},{"type":"Feature","geometry":{"type":"Point","coordinates":[-0.8706,47.6862]},"properties":{"nom":"hôte-zen - T2 charmant","sub":"LodgingBusiness","cm":"49500#Segré-en-Anjou Bleu","web":"https://www.hote-zen.fr/","uri":"https://data.datatourisme.fr/49/70d404e3-dea4-3d3c-8493-1b7af8f35e01","dept":"49","reg":"pdl"}},{"type":"Feature","geometry":{"type":"Point","coordinates":[-0.8706,47.6862]},"properties":{"nom":"Hôte-zen - T2 lumineux","sub":"LodgingBusiness","cm":"49500#Segré-en-Anjou Bleu","web":"https://www.hote-zen.fr/nos-logements","uri":"https://data.datatourisme.fr/49/855c8980-b9db-31d9-a69f-cfed2ac33748","dept":"49","reg":"pdl"}},{"type":"Feature","geometry":{"type":"Point","coordinates":[-0.8706,47.6862]},"properties":{"nom":"Hôte-Zen - Duplex","sub":"LodgingBusiness","cm":"49500#Segré-en-Anjou Bleu","web":"https://www.hote-zen.fr/","uri":"https://data.datatourisme.fr/49/86889a5b-41d6-3be5-854e-e268f114a457","dept":"49","reg":"pdl"}},{"type":"Feature","geometry":{"type":"Point","coordinates":[-1.04683,47.26052]},"properties":{"nom":"Gite Le Logis à Mimine","sub":"LodgingBusiness","cm":"49110#Montrevault-sur-Èvre","web":"https://www.les-gites-a-mimine.com/fr/booking/room","uri":"https://data.datatourisme.fr/49/b4254514-5004-3c87-833d-f65a71131625","dept":"49","reg":"pdl"}},{"type":"Feature","geometry":{"type":"Point","coordinates":[-0.90931,47.39158]},"properties":{"nom":"Chambres d'hôtes Les Ateliers","sub":"BedAndBreakfast","cm":"49410#Mauges-sur-Loire","web":"https://www.chambresdhoteslesateliers.com/","uri":"https://data.datatourisme.fr/49/8ba2a0f1-3eef-38f3-99b1-25a91f731d12","dept":"49","reg":"pdl"}},{"type":"Feature","geometry":{"type":"Point","coordinates":[-0.61493,47.23071]},"properties":{"nom":"Gîte Le Plessis Beaudouin","sub":"LodgingBusiness","cm":"49670#Chemillé-en-Anjou","web":null,"uri":"https://data.datatourisme.fr/49/221e0b16-1840-386d-b948-cc4c231822a6","dept":"49","reg":"pdl"}},{"type":"Feature","geometry":{"type":"Point","coordinates":[-0.86156,47.39204]},"properties":{"nom":"Auberge de la Loire","sub":"HotelRestaurant","cm":"49570#Mauges-sur-Loire","web":"http://www.aubergedelaloire.com/","uri":"https://data.datatourisme.fr/49/2505d9b9-5868-3d30-ac87-62709ce32668","dept":"49","reg":"pdl"}},{"type":"Feature","geometry":{"type":"Point","coordinates":[-0.87057,47.39185]},"properties":{"nom":"Cabane du randonneur Camping la Promenade","sub":"LodgingBusiness","cm":"49570#Mauges-sur-Loire","web":"http://www.campinglapromenade.com/","uri":"https://data.datatourisme.fr/49/00cb019c-b3d7-354c-be2b-90d83cc8037a","dept":"49","reg":"pdl"}},{"type":"Feature","geometry":{"type":"Point","coordinates":[-0.5946,47.31246]},"properties":{"nom":"Gîte de Groupe Beaulieu-sur-Layon","sub":"CollectiveAccommodation","cm":"49750#Beaulieu-sur-Layon","web":"https://beaulieusurlayontourisme.fr/","uri":"https://data.datatourisme.fr/49/0051323a-b06e-3f12-a79c-4199f2315fdf","dept":"49","reg":"pdl"}},{"type":"Feature","geometry":{"type":"Point","coordinates":[-0.70091,47.36873]},"properties":{"nom":"GÎTE LA PETITE MAISON","sub":"LodgingBusiness","cm":"49170#La Possonnière","web":null,"uri":"https://data.datatourisme.fr/49/b4429e18-6554-3941-bf80-db54303e2f13","dept":"49","reg":"pdl"}},{"type":"Feature","geometry":{"type":"Point","coordinates":[-0.67871,47.32745]},"properties":{"nom":"Camping du Layon","sub":"Camping","cm":"49190#Val-du-Layon","web":"https://www.valdulayon.fr/","uri":"https://data.datatourisme.fr/49/b45a8b71-df35-3dfc-b04f-260f088a0f43","dept":"49","reg":"pdl"}},{"type":"Feature","geometry":{"type":"Point","coordinates":[-0.81794,47.48347]},"properties":{"nom":"Chambres d'hôtes la Mauss","sub":"BedAndBreakfast","cm":"49370#Bécon-les-Granits","web":"https://www.lamauss.fr/","uri":"https://data.datatourisme.fr/49/007e4f28-f294-39a7-bdd2-e371c32cb184","dept":"49","reg":"pdl"}},{"type":"Feature","geometry":{"type":"Point","coordinates":[-0.34641,47.38166]},"properties":{"nom":"GITE TROGLODYTIQUE DE LA ROCHE ETIAU","sub":"LodgingBusiness","cm":"49320#Brissac Loire Aubance","web":null,"uri":"https://data.datatourisme.fr/49/ef63103d-eaff-382e-b88a-71b9be0e5ad6","dept":"49","reg":"pdl"}},{"type":"Feature","geometry":{"type":"Point","coordinates":[-0.68033,47.33318]},"properties":{"nom":"Gîte des Forges","sub":"LodgingBusiness","cm":"49190#Val-du-Layon","web":null,"uri":"https://data.datatourisme.fr/49/f32861b3-33a6-3793-bf74-0de0459d34ca","dept":"49","reg":"pdl"}},{"type":"Feature","geometry":{"type":"Point","coordinates":[-0.58328,47.25087]},"properties":{"nom":"GÎTES DU CHÂTEAU DE LA VIAUDIÈRE","sub":"LodgingBusiness","cm":"49380#Bellevigne-en-Layon","web":"http://www.chateau-viaudiere.com/","uri":"https://data.datatourisme.fr/49/a60106f7-de3f-3d04-9e0c-d336e37ec70f","dept":"49","reg":"pdl"}},{"type":"Feature","geometry":{"type":"Point","coordinates":[-0.43645,47.39709]},"properties":{"nom":"GITE DE FRANCE BON AIR SUR LOIRE (BAMBOU)","sub":"LodgingBusiness","cm":"49320#Brissac Loire Aubance","web":null,"uri":"https://data.datatourisme.fr/49/dfda44c7-9c91-3449-b1de-8d8786e6fcec","dept":"49","reg":"pdl"}},{"type":"Feature","geometry":{"type":"Point","coordinates":[-0.43645,47.39709]},"properties":{"nom":"GITE BON AIR SUR LOIRE \"NOISETTE\"","sub":"LodgingBusiness","cm":"49320#Brissac Loire Aubance","web":null,"uri":"https://data.datatourisme.fr/49/3d29b0e6-204e-3c77-9afb-e2606a5dabbd","dept":"49","reg":"pdl"}},{"type":"Feature","geometry":{"type":"Point","coordinates":[0.08798,47.2988]},"properties":{"nom":"Gîte La Douceur","sub":"LodgingBusiness","cm":"49650#Brain-sur-Allonnes","web":null,"uri":"https://data.datatourisme.fr/49/f075e8e1-b213-3118-83a5-7dea92b7ab50","dept":"49","reg":"pdl"}},{"type":"Feature","geometry":{"type":"Point","coordinates":[-0.11842,47.19368]},"properties":{"nom":"Chambres d'hôtes troglodytiques Le Logis des Roches d'Antan","sub":"BedAndBreakfast","cm":"49260#Le Coudray-Macouard","web":"https://www.lelogisdesrochesdantan.wordpress.com/","uri":"https://data.datatourisme.fr/49/a62df2b5-da80-35cb-a837-abb66876977b","dept":"49","reg":"pdl"}},{"type":"Feature","geometry":{"type":"Point","coordinates":[-0.03968,47.24584]},"properties":{"nom":"Chambres d'hôtes Beaulieu La Source","sub":"BedAndBreakfast","cm":"49400#Saumur","web":"http://www.beaulieulasource.fr/","uri":"https://data.datatourisme.fr/49/a6e81d6a-b76d-3520-ac7c-80f989f28e18","dept":"49","reg":"pdl"}},{"type":"Feature","geometry":{"type":"Point","coordinates":[0.02873,47.223]},"properties":{"nom":"Chambres d'hôtes Le Balcon Bleu","sub":"BedAndBreakfast","cm":"49730#Turquant","web":"https://lebalconbleuturquant.com/","uri":"https://data.datatourisme.fr/49/def86819-5376-35f0-9245-1a657de71194","dept":"49","reg":"pdl"}},{"type":"Feature","geometry":{"type":"Point","coordinates":[-0.67029,47.24696]},"properties":{"nom":"Chambres d'hôtes Le Moulin de Drapras","sub":"BedAndBreakfast","cm":"49120#Chemillé-en-Anjou","web":"https://moulindedrapras.com/","uri":"https://data.datatourisme.fr/49/efe2dc55-f233-3f5f-bbf6-79bebe461065","dept":"49","reg":"pdl"}},{"type":"Feature","geometry":{"type":"Point","coordinates":[-1.11068,47.29062]},"properties":{"nom":"Gite La Picaudière","sub":"LodgingBusiness","cm":"49270#Montrevault-sur-Èvre","web":null,"uri":"https://data.datatourisme.fr/49/73868a97-58f0-3895-8191-8146131b9816","dept":"49","reg":"pdl"}},{"type":"Feature","geometry":{"type":"Point","coordinates":[-0.87053,47.38601]},"properties":{"nom":"Gîte Tout lui faut","sub":"LodgingBusiness","cm":"49570#Mauges-sur-Loire","web":"https://www.loire-licorne-49.fr/tout-lui-faut","uri":"https://data.datatourisme.fr/49/df7e4b17-24f1-32ba-b944-806827d2e710","dept":"49","reg":"pdl"}},{"type":"Feature","geometry":{"type":"Point","coordinates":[-0.72658,47.36023]},"properties":{"nom":"GÎTE LE BUISSON, ILE DE CHALONNES","sub":"LodgingBusiness","cm":"49290#Chalonnes-sur-Loire","web":null,"uri":"https://data.datatourisme.fr/49/1d152542-fd6a-3e10-99a2-63ba6529b340","dept":"49","reg":"pdl"}},{"type":"Feature","geometry":{"type":"Point","coordinates":[-0.44977,47.35579]},"properties":{"nom":"Chambres d'hôtes Confidences-Escale à Brissac","sub":"BedAndBreakfast","cm":"49320#Brissac Loire Aubance","web":"https://www.confidences-brissac.fr/","uri":"https://data.datatourisme.fr/49/813895f6-6ab9-3238-baf8-3088597f5f73","dept":"49","reg":"pdl"}},{"type":"Feature","geometry":{"type":"Point","coordinates":[-0.44977,47.35579]},"properties":{"nom":"Gîte de charme Confidences-Escale","sub":"LodgingBusiness","cm":"49320#Brissac Loire Aubance","web":"https://www.confidences-brissac.fr/","uri":"https://data.datatourisme.fr/49/a4b0b4af-e63d-3389-847c-1050c7bd3caf","dept":"49","reg":"pdl"}},{"type":"Feature","geometry":{"type":"Point","coordinates":[-0.83004,47.01903]},"properties":{"nom":"Camping La Nuit au Lac du Verdon","sub":"Camping","cm":"49280#La Tessoualle","web":"http://lanuitaulac.fr/","uri":"https://data.datatourisme.fr/49/49950a27-853c-3002-af2b-0b0a44c6675f","dept":"49","reg":"pdl"}},{"type":"Feature","geometry":{"type":"Point","coordinates":[-1.01286,47.54787]},"properties":{"nom":"Gîte des Allières","sub":"LodgingBusiness","cm":"49440#Val d'Erdre-Auxence","web":null,"uri":"https://data.datatourisme.fr/49/5f6efab5-a98e-3922-9e48-b2dfef2ec1bc","dept":"49","reg":"pdl"}},{"type":"Feature","geometry":{"type":"Point","coordinates":[0.17187,47.56389]},"properties":{"nom":"Les Granges d'Antan","sub":"LodgingBusiness","cm":"49490#Noyant-Villages","web":null,"uri":"https://data.datatourisme.fr/49/a1c8d508-6eda-37c7-86f8-c6e086ce5a6c","dept":"49","reg":"pdl"}},{"type":"Feature","geometry":{"type":"Point","coordinates":[-0.52517,47.29653]},"properties":{"nom":"GITE LE CLOS DES 3 ROIS","sub":"LodgingBusiness","cm":"49380#Bellevigne-en-Layon","web":"http://www.closdes3rois.fr/","uri":"https://data.datatourisme.fr/49/045397c8-934b-3734-b7f0-b16c2a161858","dept":"49","reg":"pdl"}},{"type":"Feature","geometry":{"type":"Point","coordinates":[-0.50162,47.26662]},"properties":{"nom":"CHAMBRES D'HOTES LE CLOS DES 3 ROIS","sub":"BedAndBreakfast","cm":"49380#Bellevigne-en-Layon","web":"http://closdes3rois.fr/","uri":"https://data.datatourisme.fr/49/0d6ec7ed-2328-3f67-a03c-3d9fa54abbdf","dept":"49","reg":"pdl"}},{"type":"Feature","geometry":{"type":"Point","coordinates":[-0.22959,47.344]},"properties":{"nom":"Camping Au Bord de Loire","sub":"Camping","cm":"49350#Gennes-Val-de-Loire","web":"https://camping-auborddeloire.com/","uri":"https://data.datatourisme.fr/49/03d4f0a0-360d-3ffd-8614-91d388bc3c21","dept":"49","reg":"pdl"}},{"type":"Feature","geometry":{"type":"Point","coordinates":[-0.00948,47.23657]},"properties":{"nom":"Gite Relais des Troglos","sub":"LodgingBusiness","cm":"49400#Souzay-Champigny","web":null,"uri":"https://data.datatourisme.fr/49/e5efb1e3-11fc-3540-b47b-d915a027fbd3","dept":"49","reg":"pdl"}},{"type":"Feature","geometry":{"type":"Point","coordinates":[-0.81952,47.0719]},"properties":{"nom":"Les Gîtes de l'Etang des Noues - Gîte La Maison de Chanvre (6 personnes)","sub":"LodgingBusiness","cm":"49300#Cholet","web":"http://lesgitesdeletangdesnoues.com/","uri":"https://data.datatourisme.fr/49/e6a8b1d8-59a4-315c-aa1e-bb7d8aca64a9","dept":"49","reg":"pdl"}},{"type":"Feature","geometry":{"type":"Point","coordinates":[-0.81948,47.07192]},"properties":{"nom":"Les Gîtes de l'Etang des Noues - Gîte La Maison de Coton (5 personnes)","sub":"LodgingBusiness","cm":"49300#Cholet","web":"http://lesgitesdeletangdesnoues.com/","uri":"https://data.datatourisme.fr/49/e2b89fa8-7580-3b14-b65e-e0fe2fd79f56","dept":"49","reg":"pdl"}},{"type":"Feature","geometry":{"type":"Point","coordinates":[-0.81944,47.07191]},"properties":{"nom":"Les Gîtes de l'Etang des Noues - Gîte La Petite Maison (4 personnes)","sub":"LodgingBusiness","cm":"49300#Cholet","web":"http://lesgitesdeletangdesnoues.com/","uri":"https://data.datatourisme.fr/49/7ace0d36-5435-3fbb-b0e4-b8bc9694279d","dept":"49","reg":"pdl"}},{"type":"Feature","geometry":{"type":"Point","coordinates":[-0.81948,47.07197]},"properties":{"nom":"Les Gîtes de l'Etang des Noues - Gîte La Maison De Lin (10 personnes)","sub":"LodgingBusiness","cm":"49300#Cholet","web":"http://lesgitesdeletangdesnoues.com/","uri":"https://data.datatourisme.fr/49/952843cb-a7e6-32f7-a997-df47c16c3892","dept":"49","reg":"pdl"}},{"type":"Feature","geometry":{"type":"Point","coordinates":[-0.8191,47.07202]},"properties":{"nom":"Les Gîtes de l'Etang des Noues","sub":"BedAndBreakfast","cm":"49300#Cholet","web":"http://www.lesgitesdeletangdesnoues.com/","uri":"https://data.datatourisme.fr/49/2d08d8d3-e7be-3ea7-a454-6eeb5d22de99","dept":"49","reg":"pdl"}},{"type":"Feature","geometry":{"type":"Point","coordinates":[-0.81948,47.07197]},"properties":{"nom":"Les Gîtes de l'Etang des Noues - La Tiny House (2 - 4 personnes)","sub":"LodgingBusiness","cm":"49300#Cholet","web":"http://lesgitesdeletangdesnoues.com/","uri":"https://data.datatourisme.fr/49/30ed8aa7-7953-3036-baba-2b6e034d8f09","dept":"49","reg":"pdl"}},{"type":"Feature","geometry":{"type":"Point","coordinates":[-0.23145,47.55524]},"properties":{"nom":"Gîte \"Margot\"","sub":"LodgingBusiness","cm":"49140#Jarzé Villages","web":"http://gites-melie-margot-anjou.jimdo.com/","uri":"https://data.datatourisme.fr/49/036463bd-0f74-3be7-a0e5-1bc8cf9093e9","dept":"49","reg":"pdl"}},{"type":"Feature","geometry":{"type":"Point","coordinates":[-0.36781,47.31853]},"properties":{"nom":"GITE RURAL 7 À 10 PERSONNES (GÎTE LA GRANGE ET GÎTE LA CLOSERIE)","sub":"LodgingBusiness","cm":"49320#Brissac Loire Aubance","web":null,"uri":"https://data.datatourisme.fr/49/f7d4c3ba-dae3-38e1-986f-76e7e1dbfd1e","dept":"49","reg":"pdl"}},{"type":"Feature","geometry":{"type":"Point","coordinates":[-0.39561,47.39262]},"properties":{"nom":"Manoir de Jouralem","sub":"BedAndBreakfast","cm":"49320#Blaison-Saint-Sulpice","web":"https://manoirdejouralem.com/fr/","uri":"https://data.datatourisme.fr/49/f8c7cabb-d629-39ab-9c99-7898b58626f1","dept":"49","reg":"pdl"}},{"type":"Feature","geometry":{"type":"Point","coordinates":[-0.72358,47.37714]},"properties":{"nom":"Chambres d'Hôtes au Fabuleux Festin","sub":"BedAndBreakfast","cm":"49170#La Possonnière","web":null,"uri":"https://data.datatourisme.fr/49/b19c55f7-b2ca-36c3-95f6-9833a66e91fa","dept":"49","reg":"pdl"}},{"type":"Feature","geometry":{"type":"Point","coordinates":[-0.00083,47.247]},"properties":{"nom":"Camping Domaine de la Brèche","sub":"Camping","cm":"49730#Varennes-sur-Loire","web":"https://domainedelabreche.com/","uri":"https://data.datatourisme.fr/49/691eb047-6efb-3c7b-b34a-b4d5e2c7f4af","dept":"49","reg":"pdl"}},{"type":"Feature","geometry":{"type":"Point","coordinates":[-0.07427,47.25837]},"properties":{"nom":"Hôtel Saint-Pierre Boutique Hôtel","sub":"Hotel","cm":"49400#Saumur","web":"https://saintpierresaumur.com/","uri":"https://data.datatourisme.fr/49/6985307b-33ed-3c87-92de-2deb07f9dec8","dept":"49","reg":"pdl"}},{"type":"Feature","geometry":{"type":"Point","coordinates":[-0.37029,47.19349]},"properties":{"nom":"Camping Les Grésillons","sub":"Camping","cm":"49700#Doué-en-Anjou","web":"https://camping-lesgresillons.fr/","uri":"https://data.datatourisme.fr/49/f844c0f9-fbea-384e-a246-95a6fd92f465","dept":"49","reg":"pdl"}},{"type":"Feature","geometry":{"type":"Point","coordinates":[-0.15907,47.132]},"properties":{"nom":"Camping Paradis Les Nobis d'Anjou","sub":"Camping","cm":"49260#Montreuil-Bellay","web":"https://www.campinglesnobis.com/","uri":"https://data.datatourisme.fr/49/9b324a8f-8aa2-30e1-aa7b-6aefac7b6246","dept":"49","reg":"pdl"}},{"type":"Feature","geometry":{"type":"Point","coordinates":[-0.16021,47.131]},"properties":{"nom":"Aire camping-cars de Montreuil-Bellay","sub":"CampingAndCaravanning","cm":"49260#Montreuil-Bellay","web":"https://www.ville-montreuil-bellay.fr/","uri":"https://data.datatourisme.fr/49/8b1c8b4a-d212-3934-8605-1697885287ef","dept":"49","reg":"pdl"}},{"type":"Feature","geometry":{"type":"Point","coordinates":[0.06394,47.215]},"properties":{"nom":"Gîte le Seize","sub":"LodgingBusiness","cm":"49730#Montsoreau","web":"https://www.vacance-montsoreau-loire.com/","uri":"https://data.datatourisme.fr/49/9ce5ffe2-bc19-3a24-ac63-6c269addd688","dept":"49","reg":"pdl"}},{"type":"Feature","geometry":{"type":"Point","coordinates":[-0.1573,47.23503]},"properties":{"nom":"Gite Hélène Boucher – En Rou Libre","sub":"LodgingBusiness","cm":"49400#Rou-Marson","web":"https://www.enroulibre.com/","uri":"https://data.datatourisme.fr/49/b1252f2c-2606-3db5-a262-6014f1b4f766","dept":"49","reg":"pdl"}},{"type":"Feature","geometry":{"type":"Point","coordinates":[-0.15733,47.23516]},"properties":{"nom":"Gite Cadre Noir – En Rou Libre","sub":"LodgingBusiness","cm":"49400#Rou-Marson","web":"https://www.enroulibre.com/","uri":"https://data.datatourisme.fr/49/d234424c-f6ea-3b04-baf9-bf21826c436c","dept":"49","reg":"pdl"}},{"type":"Feature","geometry":{"type":"Point","coordinates":[-0.15733,47.23516]},"properties":{"nom":"Gite Andromède – En Rou Libre","sub":"LodgingBusiness","cm":"49400#Rou-Marson","web":"https://www.enroulibre.com/","uri":"https://data.datatourisme.fr/49/5492a08b-0995-3b26-98fd-f7fc07c76fca","dept":"49","reg":"pdl"}},{"type":"Feature","geometry":{"type":"Point","coordinates":[-0.15733,47.23516]},"properties":{"nom":"Les Gites En Rou Libre","sub":"LodgingBusiness","cm":"49400#Rou-Marson","web":"https://www.enroulibre.com/","uri":"https://data.datatourisme.fr/49/f05ae6c8-4f5d-359b-bc1e-dc65f23d426d","dept":"49","reg":"pdl"}},{"type":"Feature","geometry":{"type":"Point","coordinates":[-0.32652,47.27288]},"properties":{"nom":"Gite Les Caves","sub":"LodgingBusiness","cm":"49700#Tuffalun","web":null,"uri":"https://data.datatourisme.fr/49/b1a4553c-1e72-324d-b0b2-413a2651f0b2","dept":"49","reg":"pdl"}},{"type":"Feature","geometry":{"type":"Point","coordinates":[-0.32644,47.27312]},"properties":{"nom":"Chambres d'hôtes Les Caves","sub":"BedAndBreakfast","cm":"49700#Tuffalun","web":null,"uri":"https://data.datatourisme.fr/49/59ec50e0-1099-3f90-ab61-fbf3c3fa43d9","dept":"49","reg":"pdl"}},{"type":"Feature","geometry":{"type":"Point","coordinates":[-1.21063,47.33811]},"properties":{"nom":"Gîte Chemin de Beauséjour","sub":"LodgingBusiness","cm":"49270#Orée d'Anjou","web":null,"uri":"https://data.datatourisme.fr/49/69cadce5-bdf3-38ba-ab54-eeef299b1616","dept":"49","reg":"pdl"}},{"type":"Feature","geometry":{"type":"Point","coordinates":[-0.72741,47.21008]},"properties":{"nom":"Aire d'accueil camping-car Ferme Cabri d'Anjou","sub":"CampingAndCaravanning","cm":"49120#Chemillé-en-Anjou","web":null,"uri":"https://data.datatourisme.fr/49/9ccc7f99-a788-34bf-9125-f468f8370bb3","dept":"49","reg":"pdl"}},{"type":"Feature","geometry":{"type":"Point","coordinates":[-1.32754,47.31438]},"properties":{"nom":"Camping Les Grenettes","sub":"Camping","cm":"49270#Orée d'Anjou","web":"https://www.oreedanjou.fr/campings-municipaux/","uri":"https://data.datatourisme.fr/49/b12da8a0-2269-3c80-8ec3-f250edee500a","dept":"49","reg":"pdl"}},{"type":"Feature","geometry":{"type":"Point","coordinates":[-0.92116,47.4026]},"properties":{"nom":"L'amour de la Loire","sub":"BedAndBreakfast","cm":"49123#Ingrandes-Le Fresne sur Loire","web":"http://www.lamourdelaloire.com/","uri":"https://data.datatourisme.fr/49/52c1878a-8845-3648-93fd-3585c3311519","dept":"49","reg":"pdl"}},{"type":"Feature","geometry":{"type":"Point","coordinates":[-0.01125,47.6056]},"properties":{"nom":"Gîte Cherry Cottage","sub":"LodgingBusiness","cm":"49150#Baugé-en-Anjou","web":null,"uri":"https://data.datatourisme.fr/49/66d4c6db-49ab-319d-9cdd-b7b0e2d60131","dept":"49","reg":"pdl"}},{"type":"Feature","geometry":{"type":"Point","coordinates":[-0.01125,47.6056]},"properties":{"nom":"Gîte Lavender Cottage","sub":"LodgingBusiness","cm":"49150#Baugé-en-Anjou","web":null,"uri":"https://data.datatourisme.fr/49/a31b1eac-7c53-3828-80d5-c12df8fac9eb","dept":"49","reg":"pdl"}},{"type":"Feature","geometry":{"type":"Point","coordinates":[-0.2012,47.57433]},"properties":{"nom":"Gîte La Monerie","sub":"LodgingBusiness","cm":"49150#Baugé-en-Anjou","web":null,"uri":"https://data.datatourisme.fr/49/69b3b1af-304a-3c3d-91ce-dae109c9b326","dept":"49","reg":"pdl"}},{"type":"Feature","geometry":{"type":"Point","coordinates":[-0.47685,47.37786]},"properties":{"nom":"MEUBLÉ DE TOURISME LE CLOS ROUSSET \"LA MAISON DU VIGNERON\"","sub":"LodgingBusiness","cm":"49610#Les Garennes sur Loire","web":"http://legrandbeaumont.com/","uri":"https://data.datatourisme.fr/49/7eb00083-3553-3a0e-8586-53f709074047","dept":"49","reg":"pdl"}},{"type":"Feature","geometry":{"type":"Point","coordinates":[-0.35604,47.38937]},"properties":{"nom":"GITE LES FLEURANTINES","sub":"LodgingBusiness","cm":"49320#Brissac Loire Aubance","web":"http://www.grande-ecuelle.fr/","uri":"https://data.datatourisme.fr/49/887d688d-26ed-3c5e-ac26-8b82be28b01d","dept":"49","reg":"pdl"}},{"type":"Feature","geometry":{"type":"Point","coordinates":[-0.06273,47.22091]},"properties":{"nom":"Gite Le Cottage","sub":"LodgingBusiness","cm":"49400#Varrains","web":"https://gite-lecottage-saumur.com/","uri":"https://data.datatourisme.fr/49/825cb175-a629-3ac2-a2e4-d948f2ad45e0","dept":"49","reg":"pdl"}},{"type":"Feature","geometry":{"type":"Point","coordinates":[0.06259,47.2148]},"properties":{"nom":"Hôtel Le Bussy","sub":"Hotel","cm":"49730#Montsoreau","web":"https://www.hotel-lebussy.fr/","uri":"https://data.datatourisme.fr/49/862deb98-fb0d-34df-aa83-cb230fb9fa18","dept":"49","reg":"pdl"}},{"type":"Feature","geometry":{"type":"Point","coordinates":[-0.2154,47.2]},"properties":{"nom":"Gite des Moulins","sub":"LodgingBusiness","cm":"49700#Doué-en-Anjou","web":"https://gites-douelafontaine.fr/","uri":"https://data.datatourisme.fr/49/bf34392b-5932-300c-ae90-dacdd28dc533","dept":"49","reg":"pdl"}},{"type":"Feature","geometry":{"type":"Point","coordinates":[-0.05553,47.32494]},"properties":{"nom":"Hôtel Saint-Paul","sub":"HotelTrade","cm":"49680#Vivy","web":"https://www.hotel-st-paul.fr/","uri":"https://data.datatourisme.fr/49/c0594218-a03f-3e5b-9634-856775ef71f9","dept":"49","reg":"pdl"}},{"type":"Feature","geometry":{"type":"Point","coordinates":[-0.05553,47.32494]},"properties":{"nom":"Restaurant Le Saint Paul","sub":"HotelRestaurant","cm":"49680#Vivy","web":"https://www.hotel-st-paul.fr/","uri":"https://data.datatourisme.fr/49/77d7582b-a4b0-3a26-9979-b1db6f05a09d","dept":"49","reg":"pdl"}},{"type":"Feature","geometry":{"type":"Point","coordinates":[-0.85157,47.53926]},"properties":{"nom":"Gîte des 4 Saisons","sub":"LodgingBusiness","cm":"49370#Val d'Erdre-Auxence","web":null,"uri":"https://data.datatourisme.fr/49/87219ee4-745c-3a1c-a275-a4943e48086f","dept":"49","reg":"pdl"}},{"type":"Feature","geometry":{"type":"Point","coordinates":[-0.7453,47.16947]},"properties":{"nom":"Gîte Camomille","sub":"LodgingBusiness","cm":"49120#Chemillé-en-Anjou","web":null,"uri":"https://data.datatourisme.fr/49/8254334b-7ba9-3b52-934e-e819011e5126","dept":"49","reg":"pdl"}},{"type":"Feature","geometry":{"type":"Point","coordinates":[-0.74504,47.16946]},"properties":{"nom":"Gîte Mélisse","sub":"LodgingBusiness","cm":"49120#Chemillé-en-Anjou","web":null,"uri":"https://data.datatourisme.fr/49/2f0006f9-80de-3388-81c1-c081dc9a2c94","dept":"49","reg":"pdl"}},{"type":"Feature","geometry":{"type":"Point","coordinates":[-0.9672,47.47333]},"properties":{"nom":"Gîte la coulée douce","sub":"LodgingBusiness","cm":"49123#Saint-Sigismond","web":null,"uri":"https://data.datatourisme.fr/49/30c9191b-aefb-3cad-a67a-c5b08218e33d","dept":"49","reg":"pdl"}},{"type":"Feature","geometry":{"type":"Point","coordinates":[-0.26383,47.24201]},"properties":{"nom":"Gite La Gentilhommière","sub":"LodgingBusiness","cm":"49700#Dénezé-sous-Doué","web":"http://www.gite-la-gentilhommiere.fr/","uri":"https://data.datatourisme.fr/49/3670b655-4cae-34b0-90ab-85d94d5f9cc4","dept":"49","reg":"pdl"}},{"type":"Feature","geometry":{"type":"Point","coordinates":[-0.77349,47.68224]},"properties":{"nom":"Gîte la Touche","sub":"LodgingBusiness","cm":"49500#Segré-en-Anjou Bleu","web":null,"uri":"https://data.datatourisme.fr/49/34d567e6-f4c2-35e6-9c9e-e0c9c3e87e48","dept":"49","reg":"pdl"}},{"type":"Feature","geometry":{"type":"Point","coordinates":[-0.87622,47.72564]},"properties":{"nom":"Gîte la Cour des Landes","sub":"LodgingBusiness","cm":"49500#Segré-en-Anjou Bleu","web":"http://gitenature-anjou.fr/","uri":"https://data.datatourisme.fr/49/639d8ec2-7ce4-3124-9ecc-3ec6567eca5e","dept":"49","reg":"pdl"}},{"type":"Feature","geometry":{"type":"Point","coordinates":[-0.46921,47.36061]},"properties":{"nom":"GITE DE FRANCE LES CELLIERS","sub":"LodgingBusiness","cm":"49320#Brissac Loire Aubance","web":"http://www.voyagedansletemps.net/gite","uri":"https://data.datatourisme.fr/49/5b51191b-03ec-38f7-b375-a50509281dae","dept":"49","reg":"pdl"}},{"type":"Feature","geometry":{"type":"Point","coordinates":[-0.40251,47.39558]},"properties":{"nom":"Gîte La Grange","sub":"LodgingBusiness","cm":"49320#Blaison-Saint-Sulpice","web":"http://lesmoulinsviaud.perso.neuf.fr/","uri":"https://data.datatourisme.fr/49/ede47b14-6c61-3116-9a9f-16bd3342e13d","dept":"49","reg":"pdl"}},{"type":"Feature","geometry":{"type":"Point","coordinates":[-0.45637,47.21228]},"properties":{"nom":"GITE LA TOUCHE","sub":"LodgingBusiness","cm":"49540#Terranjou","web":"http://www.gite-latouche.fr/","uri":"https://data.datatourisme.fr/49/b0a01eb4-7988-3482-aec8-213be12d22b0","dept":"49","reg":"pdl"}},{"type":"Feature","geometry":{"type":"Point","coordinates":[-0.07168,47.26504]},"properties":{"nom":"Hôtel Best Western Adagio","sub":"Hotel","cm":"49400#Saumur","web":"http://www.hoteladagio.com/","uri":"https://data.datatourisme.fr/49/fa8b9bd5-7316-3f81-8d52-cd929bf5b557","dept":"49","reg":"pdl"}},{"type":"Feature","geometry":{"type":"Point","coordinates":[-0.51282,47.16899]},"properties":{"nom":"Village Tonneaux de Tirpoil (de 2 à 17 personnes)","sub":"LodgingBusiness","cm":"49310#Montilliers","web":"https://www.villagetonneauxdetirpoil.com/","uri":"https://data.datatourisme.fr/49/e9df02b7-ce72-3091-8776-e80e7c240897","dept":"49","reg":"pdl"}},{"type":"Feature","geometry":{"type":"Point","coordinates":[-0.86667,47.69777]},"properties":{"nom":"Hôtel Ibis Styles Segré","sub":"HotelTrade","cm":"49500#Segré-en-Anjou Bleu","web":"https://all.accor.com/hotel/7006/index.fr.shtml","uri":"https://data.datatourisme.fr/49/5402f63d-a8b1-32c7-ad8b-baa242dd8391","dept":"49","reg":"pdl"}},{"type":"Feature","geometry":{"type":"Point","coordinates":[-0.90987,47.70687]},"properties":{"nom":"Gîte le Relais des Hirondelles","sub":"LodgingBusiness","cm":"49500#Segré-en-Anjou Bleu","web":"http://lerelaisdeshirondelles.fr/","uri":"https://data.datatourisme.fr/49/ebda5971-1a66-3cf2-a5c0-6fed59f80cfe","dept":"49","reg":"pdl"}},{"type":"Feature","geometry":{"type":"Point","coordinates":[-0.90987,47.70687]},"properties":{"nom":"Chambres d'hôtes le Relais des Hirondelles","sub":"BedAndBreakfast","cm":"49500#Segré-en-Anjou Bleu","web":"http://lerelaisdeshirondelles.fr/","uri":"https://data.datatourisme.fr/49/88e98f9f-8c74-34e2-9d0b-30e102518ae8","dept":"49","reg":"pdl"}},{"type":"Feature","geometry":{"type":"Point","coordinates":[-0.94208,47.45392]},"properties":{"nom":"Gîte la Louetière","sub":"LodgingBusiness","cm":"49123#Ingrandes-Le Fresne sur Loire","web":"http://www.gites-stsigismond.com/","uri":"https://data.datatourisme.fr/49/fad21106-0880-3832-9b04-cba439691055","dept":"49","reg":"pdl"}},{"type":"Feature","geometry":{"type":"Point","coordinates":[-0.07803,47.52737]},"properties":{"nom":"Gîte Les Maudines","sub":"LodgingBusiness","cm":"49150#Baugé-en-Anjou","web":"http://www.lesmaudines.com/","uri":"https://data.datatourisme.fr/49/5d583722-eb98-3361-a227-ae3b98984ee3","dept":"49","reg":"pdl"}},{"type":"Feature","geometry":{"type":"Point","coordinates":[-0.07627,47.51793]},"properties":{"nom":"Chambres d'hôtes Le Logis De La Chouette","sub":"BedAndBreakfast","cm":"49150#Baugé-en-Anjou","web":null,"uri":"https://data.datatourisme.fr/49/5514926d-7bc2-3d22-b560-82a269f57a8e","dept":"49","reg":"pdl"}},{"type":"Feature","geometry":{"type":"Point","coordinates":[-0.07575,47.51831]},"properties":{"nom":"Gîte du Logis de la Chouette","sub":"LodgingBusiness","cm":"49150#Baugé-en-Anjou","web":null,"uri":"https://data.datatourisme.fr/49/ef3bba85-c445-39d1-8687-5b9efb7318fc","dept":"49","reg":"pdl"}},{"type":"Feature","geometry":{"type":"Point","coordinates":[-0.1756,47.4911]},"properties":{"nom":"Gîte Les Charmilles","sub":"LodgingBusiness","cm":"49250#Les Bois d'Anjou","web":"https://www.facebook.com/pg/G%C3%AEte-Les-Charmilles-195038894202239/about/?ref=page_internal","uri":"https://data.datatourisme.fr/49/aef6d1ce-d712-37b0-aea5-26b04c68eb55","dept":"49","reg":"pdl"}},{"type":"Feature","geometry":{"type":"Point","coordinates":[-0.1756,47.4911]},"properties":{"nom":"Meublé Les Charmilles","sub":"LodgingBusiness","cm":"49250#Les Bois d'Anjou","web":null,"uri":"https://data.datatourisme.fr/49/80f6a757-748b-317e-943b-f28ecc2d35f0","dept":"49","reg":"pdl"}},{"type":"Feature","geometry":{"type":"Point","coordinates":[-0.1189,47.51456]},"properties":{"nom":"Gîte Le Petit Clos","sub":"LodgingBusiness","cm":"49150#Baugé-en-Anjou","web":null,"uri":"https://data.datatourisme.fr/49/ebe05891-382a-3f3e-9b87-06b119682d24","dept":"49","reg":"pdl"}},{"type":"Feature","geometry":{"type":"Point","coordinates":[-0.76234,47.35025]},"properties":{"nom":"CHAMBRES D'HÔTES LA ROCHE MARIE","sub":"BedAndBreakfast","cm":"49290#Chalonnes-sur-Loire","web":"http://www.chambredhote.chalonnessurloire.over-blog.com/","uri":"https://data.datatourisme.fr/49/0c2fc505-9549-3433-8da7-45a6668872cb","dept":"49","reg":"pdl"}},{"type":"Feature","geometry":{"type":"Point","coordinates":[-0.77269,47.34086]},"properties":{"nom":"Centre d'Accueil - Les Goulidons","sub":"CollectiveAccommodation","cm":"49290#Chalonnes-sur-Loire","web":"http://www.chalonnes-sur-loire.fr/","uri":"https://data.datatourisme.fr/49/8ae56099-d0fb-3b47-bfc9-9c61a44183a4","dept":"49","reg":"pdl"}},{"type":"Feature","geometry":{"type":"Point","coordinates":[-0.47725,47.3782]},"properties":{"nom":"MEUBLE DE TOURISME LE GRAND BEAUMONT \"CHÂTEAU ROUSSET\"","sub":"LodgingBusiness","cm":"49610#Les Garennes sur Loire","web":"http://legrandbeaumont.com/","uri":"https://data.datatourisme.fr/49/fa4dc94d-c5e2-3554-86f4-2c11d18bedba","dept":"49","reg":"pdl"}},{"type":"Feature","geometry":{"type":"Point","coordinates":[0.00647,47.43737]},"properties":{"nom":"Camping La Fortinerie","sub":"Camping","cm":"49390#Mouliherne","web":"https://www.campinglafortinerie.com/","uri":"https://data.datatourisme.fr/49/877d19de-266e-312f-ac61-19d501edfe75","dept":"49","reg":"pdl"}},{"type":"Feature","geometry":{"type":"Point","coordinates":[-0.00035,47.234]},"properties":{"nom":"Gite de Parnay","sub":"LodgingBusiness","cm":"49730#Parnay","web":"https://giteparnay.wixsite.com/giteparnay","uri":"https://data.datatourisme.fr/49/475a2689-a67c-3e62-8062-61bd2292ec41","dept":"49","reg":"pdl"}},{"type":"Feature","geometry":{"type":"Point","coordinates":[-0.00405,47.31109]},"properties":{"nom":"Gite La Recouvrance","sub":"LodgingBusiness","cm":"49650#Allonnes","web":null,"uri":"https://data.datatourisme.fr/49/8e7cb826-8e92-373d-948c-2663d52c2835","dept":"49","reg":"pdl"}},{"type":"Feature","geometry":{"type":"Point","coordinates":[-0.51034,47.16824]},