{"type":"FeatureCollection","features":[{"type":"Feature","geometry":{"type":"Point","coordinates":[2.99977,49.09754]},"properties":{"nom":"Le Bois de Rosoy","sub":"Camping","cm":"60620#Rosoy-en-Multien","web":"https://www.leboisderosoy.com/","uri":"https://data.datatourisme.fr/28/8d9bee99-aaa3-3029-9d7a-929d7a98bce1","dept":"60","reg":"hdf"}},{"type":"Feature","geometry":{"type":"Point","coordinates":[2.47957,49.19474]},"properties":{"nom":"Auberge du Jeu de Paume","sub":"HotelRestaurant","cm":"60500#Chantilly","web":"http://www.aubergedujeudepaumechantilly.fr/","uri":"https://data.datatourisme.fr/28/05c211dc-b532-37ed-a0b8-3a2bcf165810","dept":"60","reg":"hdf"}},{"type":"Feature","geometry":{"type":"Point","coordinates":[2.57123,49.13418]},"properties":{"nom":"La Cité Suspendue","sub":"HotelRestaurant","cm":"60128#Plailly","web":"https://www.parcasterix.fr/hotels/cite-suspendue","uri":"https://data.datatourisme.fr/28/082cf20a-636a-32b4-91e3-ccb5cad8a2bc","dept":"60","reg":"hdf"}},{"type":"Feature","geometry":{"type":"Point","coordinates":[2.42785,49.21142]},"properties":{"nom":"Camping le Pré des Moines","sub":"Camping","cm":"60270#Gouvieux","web":"http://www.camping-lepredesmoines.com/","uri":"https://data.datatourisme.fr/28/17ba5437-8058-36f7-b3c2-cdea69460fc8","dept":"60","reg":"hdf"}},{"type":"Feature","geometry":{"type":"Point","coordinates":[2.42923,49.19143]},"properties":{"nom":"Le Château de la Tour","sub":"HotelRestaurant","cm":"60270#Gouvieux","web":"http://www.lechateaudelatour.fr/","uri":"https://data.datatourisme.fr/28/8906d82e-0a35-329c-a385-58fda2e1f52e","dept":"60","reg":"hdf"}},{"type":"Feature","geometry":{"type":"Point","coordinates":[2.40934,49.19288]},"properties":{"nom":"Château de la Tour","sub":"Rental","cm":"60270#Gouvieux","web":"http://www.lechateaudelatour.fr/","uri":"https://data.datatourisme.fr/28/ff1cce9d-7834-3493-ad92-e6164a075b46","dept":"60","reg":"hdf"}},{"type":"Feature","geometry":{"type":"Point","coordinates":[2.52072,49.15453]},"properties":{"nom":"Le Relais d'Aumale","sub":"HotelRestaurant","cm":"60560#Orry-la-Ville","web":"http://www.relais-aumale.fr/","uri":"https://data.datatourisme.fr/28/8c343143-fe1b-344b-ab77-777c2d8ca534","dept":"60","reg":"hdf"}},{"type":"Feature","geometry":{"type":"Point","coordinates":[2.62247,49.20999]},"properties":{"nom":"Best Western Plus - Hôtel Escapade","sub":"HotelRestaurant","cm":"60300#Senlis","web":"http://www.hotel-escapadesenlis.com/","uri":"https://data.datatourisme.fr/28/b41f67b9-73a9-3d43-b64d-710770bbe9c9","dept":"60","reg":"hdf"}},{"type":"Feature","geometry":{"type":"Point","coordinates":[2.13879,49.23849]},"properties":{"nom":"Hôtel de la tabletterie","sub":"HotelRestaurant","cm":"60110#Méru","web":"https://be.synxis.com/?Hotel=79075&Chain=5301&promo=CHAMBRE/PETITDEJ<>https://be.synxis.com/?Hotel=79075&Chain=5301&promo=CHAMBRESEULE","uri":"https://data.datatourisme.fr/28/88895533-f914-3ab9-8693-96702f99e9e0","dept":"60","reg":"hdf"}},{"type":"Feature","geometry":{"type":"Point","coordinates":[2.13879,49.23849]},"properties":{"nom":"Restaurant de la Tabletterie","sub":"HotelRestaurant","cm":"60110#Méru","web":"https://tabletterie.fr/","uri":"https://data.datatourisme.fr/28/de01b046-862f-3b90-8950-8454235e5fba","dept":"60","reg":"hdf"}},{"type":"Feature","geometry":{"type":"Point","coordinates":[2.11238,49.43762]},"properties":{"nom":"ibis Beauvais","sub":"Hotel","cm":"60000#Beauvais","web":"https://all.accor.com/hotel/6889/index.fr.shtml","uri":"https://data.datatourisme.fr/28/05fbcda9-dda1-393c-be83-a3b14ab17074","dept":"60","reg":"hdf"}},{"type":"Feature","geometry":{"type":"Point","coordinates":[2.11655,49.40723]},"properties":{"nom":"Welcomotel Beauvais","sub":"HotelRestaurant","cm":"60000#Beauvais","web":"https://www.welcomotel.com/beauvais","uri":"https://data.datatourisme.fr/28/7f0948db-dceb-31bb-8902-da2b0a334cf5","dept":"60","reg":"hdf"}},{"type":"Feature","geometry":{"type":"Point","coordinates":[2.11779,49.42987]},"properties":{"nom":"Hostellerie Saint-Vincent","sub":"HotelRestaurant","cm":"60000#Beauvais","web":"https://www.stvincentbeauvais.fr/","uri":"https://data.datatourisme.fr/28/8561b6f5-a5f8-30eb-9453-7f04be8518fd","dept":"60","reg":"hdf"}},{"type":"Feature","geometry":{"type":"Point","coordinates":[2.07823,49.4326]},"properties":{"nom":"Mercure Beauvais Centre Cathédrale","sub":"HotelRestaurant","cm":"60000#Beauvais","web":"https://all.accor.com/hotel/B0Y0/index.fr.shtml#section-facilities","uri":"https://data.datatourisme.fr/28/9f2b5668-a863-34c9-8437-e26e398188b7","dept":"60","reg":"hdf"}},{"type":"Feature","geometry":{"type":"Point","coordinates":[2.07801,49.43247]},"properties":{"nom":"Mercure Beauvais Centre Cathédrale","sub":"Hotel","cm":"60000#Beauvais","web":"https://all.accor.com/hotel/B0Y0/index.fr.shtml","uri":"https://data.datatourisme.fr/28/445cec4a-8217-3f1b-a12e-268399586a1f","dept":"60","reg":"hdf"}},{"type":"Feature","geometry":{"type":"Point","coordinates":[2.80428,49.39699]},"properties":{"nom":"Hostellerie du Royal-Lieu","sub":"HotelRestaurant","cm":"60200#Compiègne","web":"https://hostellerieduroyallieu.com/","uri":"https://data.datatourisme.fr/28/89b73bd1-61e2-3099-8866-bd0958c59f3a","dept":"60","reg":"hdf"}},{"type":"Feature","geometry":{"type":"Point","coordinates":[2.29607,49.6309]},"properties":{"nom":"Le Chateau de la Butte","sub":"CollectiveAccommodation","cm":"60120#Breteuil","web":null,"uri":"https://data.datatourisme.fr/28/d5f1525b-5708-3025-87bf-fb8087a3c361","dept":"60","reg":"hdf"}},{"type":"Feature","geometry":{"type":"Point","coordinates":[2.29607,49.6309]},"properties":{"nom":"Le Chateau de la Butte - 15 personnes","sub":"CollectiveAccommodation","cm":"60120#Breteuil","web":null,"uri":"https://data.datatourisme.fr/28/8222bfab-d186-33f0-a232-6fdeed17c9ee","dept":"60","reg":"hdf"}},{"type":"Feature","geometry":{"type":"Point","coordinates":[2.07526,49.60919]},"properties":{"nom":"Le Moulin  Alidor","sub":"LodgingBusiness","cm":"60360#Crèvecœur-le-Grand","web":"https://www.gites-de-france-oise.fr/","uri":"https://data.datatourisme.fr/28/6206c67a-03fd-3a17-9819-7566338c1cbd","dept":"60","reg":"hdf"}},{"type":"Feature","geometry":{"type":"Point","coordinates":[2.07526,49.60919]},"properties":{"nom":"Château de la poussière","sub":"LodgingBusiness","cm":"60360#Crèvecœur-le-Grand","web":"https://www.gites-de-france-oise.fr/","uri":"https://data.datatourisme.fr/28/0ce2e783-d091-30f6-8147-e9994e3fa1e9","dept":"60","reg":"hdf"}},{"type":"Feature","geometry":{"type":"Point","coordinates":[2.00919,49.40416]},"properties":{"nom":"La RAINVILLOISE Gite de Rainvillers","sub":"LodgingBusiness","cm":"60155#Rainvillers","web":"https://www.gites-de-france-oise.fr/","uri":"https://data.datatourisme.fr/28/0d921000-2e7b-36b7-aa69-21ad3e5d18d1","dept":"60","reg":"hdf"}},{"type":"Feature","geometry":{"type":"Point","coordinates":[3.04393,49.41386]},"properties":{"nom":"Le Baptistère","sub":"BedAndBreakfast","cm":"60350#Attichy","web":"https://www.lebaptistere.com/","uri":"https://data.datatourisme.fr/28/6f052f71-be96-3e69-8daf-afe04a44061a","dept":"60","reg":"hdf"}},{"type":"Feature","geometry":{"type":"Point","coordinates":[2.52036,49.15497]},"properties":{"nom":"La table du Relais d'Aumale","sub":"HotelRestaurant","cm":"60560#Orry-la-Ville","web":"https://www.relais-aumale.fr/","uri":"https://data.datatourisme.fr/28/6264e37c-2568-3ad3-8b00-682993fc9518","dept":"60","reg":"hdf"}},{"type":"Feature","geometry":{"type":"Point","coordinates":[2.11616,49.43021]},"properties":{"nom":"Restaurant Hostellerie Saint-Vincent","sub":"HotelRestaurant","cm":"60000#Beauvais","web":"http://stvincentbeauvais.fr/","uri":"https://data.datatourisme.fr/28/66cefcaf-eec9-3a14-8833-57873ce10a39","dept":"60","reg":"hdf"}},{"type":"Feature","geometry":{"type":"Point","coordinates":[2.39079,49.38792]},"properties":{"nom":"Le LUCAS Restaurant - Clermotel","sub":"HotelRestaurant","cm":"60600#Agnetz","web":"http://www.clermotel.fr/","uri":"https://data.datatourisme.fr/28/15a69194-09a4-391a-9864-36da4e506f52","dept":"60","reg":"hdf"}},{"type":"Feature","geometry":{"type":"Point","coordinates":[2.47983,49.19447]},"properties":{"nom":"Auberge du Jeu de Paume","sub":"Hotel","cm":"60500#Chantilly","web":"http://www.aubergedujeudepaumechantilly.fr/fr","uri":"https://data.datatourisme.fr/19/3f2c59e9-f057-3b44-a567-67c04f7adff8","dept":"60","reg":"hdf"}},{"type":"Feature","geometry":{"type":"Point","coordinates":[2.4794,49.19453]},"properties":{"nom":"Le Jardin d'Hiver - Auberge du Jeu de Paume","sub":"HotelRestaurant","cm":"60500#Chantilly","web":"https://aubergedujeudepaumechantilly.fr/fr/lejardin-dhiver.html","uri":"https://data.datatourisme.fr/28/1f848c37-101f-32f6-9d3a-73ced907b196","dept":"60","reg":"hdf"}},{"type":"Feature","geometry":{"type":"Point","coordinates":[2.47981,49.19468]},"properties":{"nom":"Auberge du Jeu de Paume","sub":"Hotel","cm":"60500#Chantilly","web":"http://www.aubergedujeudepaumechantilly.fr/","uri":"https://data.datatourisme.fr/28/cf8748ff-cd36-3df8-af68-f707775e6724","dept":"60","reg":"hdf"}},{"type":"Feature","geometry":{"type":"Point","coordinates":[2.47067,49.19351]},"properties":{"nom":"Vue sur Chantilly","sub":"LodgingBusiness","cm":"60500#Chantilly","web":"http://richardmashiter.wixsite.com/vuesurchantilly","uri":"https://data.datatourisme.fr/28/e1cac069-9dac-359a-ad73-c29b17992f2e","dept":"60","reg":"hdf"}},{"type":"Feature","geometry":{"type":"Point","coordinates":[2.90782,49.22319]},"properties":{"nom":"Kyriad Crépy-en-Valois","sub":"Hotel","cm":"60800#Crépy-en-Valois","web":"https://crepy-en-valois.kyriad.com/","uri":"https://data.datatourisme.fr/28/e7772adb-c1c9-394d-8823-19dff348321d","dept":"60","reg":"hdf"}},{"type":"Feature","geometry":{"type":"Point","coordinates":[2.58307,49.21277]},"properties":{"nom":"La Maisonnette De Senlis","sub":"LodgingBusiness","cm":"60300#Senlis","web":"http://www.lamaisonnettedesenlis.com/","uri":"https://data.datatourisme.fr/28/ca48579d-ed08-3c39-bf2c-42c3bbc9f131","dept":"60","reg":"hdf"}},{"type":"Feature","geometry":{"type":"Point","coordinates":[2.58916,49.20594]},"properties":{"nom":"Le Petit Bellon","sub":"Hotel","cm":"60300#Senlis","web":"https://www.logishotels.com/fr/hotel/logis-hotel-le-petit-bellon-235364","uri":"https://data.datatourisme.fr/28/e43af9b6-81b1-3dfb-ad79-c2ba04f0d7ad","dept":"60","reg":"hdf"}},{"type":"Feature","geometry":{"type":"Point","coordinates":[1.88406,49.26518]},"properties":{"nom":"Hotel Saint Nicolas","sub":"Hotel","cm":"60240#Chaumont-en-Vexin","web":"https://www.hotelsaintnicolas.org/","uri":"https://data.datatourisme.fr/28/bc02d4ec-d8a7-351a-a83a-fc2afa60bb66","dept":"60","reg":"hdf"}},{"type":"Feature","geometry":{"type":"Point","coordinates":[1.8158,49.26161]},"properties":{"nom":"Gîte des Groux","sub":"LodgingBusiness","cm":"60240#Chambors","web":"https://www.gites-de-france-oise.fr/","uri":"https://data.datatourisme.fr/28/d0d00061-d327-3374-b487-9b0a28cff848","dept":"60","reg":"hdf"}},{"type":"Feature","geometry":{"type":"Point","coordinates":[1.97622,49.20895]},"properties":{"nom":"Les Hauts de Monneville 1","sub":"LodgingBusiness","cm":"60240#Monneville","web":null,"uri":"https://data.datatourisme.fr/28/d9fe8571-87a7-3192-aa42-c675349f0aed","dept":"60","reg":"hdf"}},{"type":"Feature","geometry":{"type":"Point","coordinates":[1.97622,49.20895]},"properties":{"nom":"Les Hauts de Monneville 2","sub":"LodgingBusiness","cm":"60240#Monneville","web":null,"uri":"https://data.datatourisme.fr/28/ccb05ca4-09e1-3424-8beb-91d2214121c0","dept":"60","reg":"hdf"}},{"type":"Feature","geometry":{"type":"Point","coordinates":[2.11518,49.35468]},"properties":{"nom":"Les glycines","sub":"BedAndBreakfast","cm":"60430#Saint-Sulpice","web":null,"uri":"https://data.datatourisme.fr/28/c4437226-42e7-3571-912b-c148ea792130","dept":"60","reg":"hdf"}},{"type":"Feature","geometry":{"type":"Point","coordinates":[2.10968,49.40891]},"properties":{"nom":"Première Classe Beauvais","sub":"Hotel","cm":"60000#Beauvais","web":"https://beauvais.premiereclasse.com/fr-fr/","uri":"https://data.datatourisme.fr/28/d1034d1c-0aeb-3f9e-884d-1b98f885f212","dept":"60","reg":"hdf"}},{"type":"Feature","geometry":{"type":"Point","coordinates":[2.56267,49.45997]},"properties":{"nom":"Gîte de Mme Minguet","sub":"LodgingBusiness","cm":"60190#Cressonsacq","web":null,"uri":"https://data.datatourisme.fr/28/b8fa5e02-4d83-32cd-87a2-d63a23536623","dept":"60","reg":"hdf"}},{"type":"Feature","geometry":{"type":"Point","coordinates":[2.63093,49.54576]},"properties":{"nom":"Gîte de Mr et Mme Delavaquerie","sub":"LodgingBusiness","cm":"60420#Méry-la-Bataille","web":"https://www.gites-de-france-oise.fr/","uri":"https://data.datatourisme.fr/28/ca09c45e-f4cf-3f4a-be11-b4cae1e7266f","dept":"60","reg":"hdf"}},{"type":"Feature","geometry":{"type":"Point","coordinates":[2.82952,49.41803]},"properties":{"nom":"Château de Compiègne","sub":"Rental","cm":"60200#Compiègne","web":"https://chateaudecompiegne.fr/louer-un-espace-de-reception","uri":"https://data.datatourisme.fr/28/a34891fc-65b2-3e04-a5b4-823475959767","dept":"60","reg":"hdf"}},{"type":"Feature","geometry":{"type":"Point","coordinates":[2.25747,49.41125]},"properties":{"nom":"Les Polux","sub":"LodgingBusiness","cm":"60510#Bresles","web":"https://www.gites-de-france-oise.fr/","uri":"https://data.datatourisme.fr/28/c976c598-ed0e-374a-998a-e7b95bde48ca","dept":"60","reg":"hdf"}},{"type":"Feature","geometry":{"type":"Point","coordinates":[1.84956,49.5345]},"properties":{"nom":"Le logis de Gerberoy","sub":"BedAndBreakfast","cm":"60380#Gerberoy","web":"http://lelogisdegerberoy.free.fr/","uri":"https://data.datatourisme.fr/28/cec18343-2bf7-3c34-8c12-e54a151253b5","dept":"60","reg":"hdf"}},{"type":"Feature","geometry":{"type":"Point","coordinates":[2.28532,49.44656]},"properties":{"nom":"Gîte de Madame Petit","sub":"LodgingBusiness","cm":"60510#Rémérangles","web":"https://www.gites-de-france-oise.fr/","uri":"https://data.datatourisme.fr/28/d3da0481-6773-3118-8732-9ab9e1c0e9ff","dept":"60","reg":"hdf"}},{"type":"Feature","geometry":{"type":"Point","coordinates":[2.28532,49.44656]},"properties":{"nom":"Le grand Gîte","sub":"LodgingBusiness","cm":"60510#Rémérangles","web":"https://www.gites-de-france-oise.fr/","uri":"https://data.datatourisme.fr/28/01af3755-441f-37a7-998b-4f9c35d7ee49","dept":"60","reg":"hdf"}},{"type":"Feature","geometry":{"type":"Point","coordinates":[2.9951,49.0964]},"properties":{"nom":"Domaine de Scipion","sub":"BedAndBreakfast","cm":"60620#Rosoy-en-Multien","web":"https://domainedescipion.jimdo.com/","uri":"https://data.datatourisme.fr/28/d4c000d8-e3bf-3d70-a6c5-a75ae0e45305","dept":"60","reg":"hdf"}},{"type":"Feature","geometry":{"type":"Point","coordinates":[2.85532,49.29076]},"properties":{"nom":"La Ceriseraie","sub":"LodgingBusiness","cm":"60129#Orrouy","web":"http://www.gite-laceriseraie-oise.com/","uri":"https://data.datatourisme.fr/28/d61ca9e0-1fe9-3970-9fa7-8e40dac17dce","dept":"60","reg":"hdf"}},{"type":"Feature","geometry":{"type":"Point","coordinates":[1.75483,49.44529]},"properties":{"nom":"Les Poneys et Les chevaux","sub":"LodgingBusiness","cm":"60850#Saint-Germer-de-Fly","web":"https://www.domainedegarenne.com/","uri":"https://data.datatourisme.fr/28/d880dc33-4514-3358-91ce-3fd22dcde262","dept":"60","reg":"hdf"}},{"type":"Feature","geometry":{"type":"Point","coordinates":[1.75483,49.44529]},"properties":{"nom":"Les Poneys","sub":"LodgingBusiness","cm":"60850#Saint-Germer-de-Fly","web":"https://www.domainedegarenne.com/","uri":"https://data.datatourisme.fr/28/8e8dd809-28a3-37b5-9b79-e7e4f4925f1d","dept":"60","reg":"hdf"}},{"type":"Feature","geometry":{"type":"Point","coordinates":[2.17045,49.69785]},"properties":{"nom":"Gîte du Moulin aux moines","sub":"LodgingBusiness","cm":"60120#Croissy-sur-Celle","web":null,"uri":"https://data.datatourisme.fr/28/dfc92b08-f728-3cb8-8282-e0756469853d","dept":"60","reg":"hdf"}},{"type":"Feature","geometry":{"type":"Point","coordinates":[2.09721,49.41993]},"properties":{"nom":"La Charcuterie Greber","sub":"BedAndBreakfast","cm":"60000#Beauvais","web":"http://www.charcuterie-greber.fr/","uri":"https://data.datatourisme.fr/28/bf22bf96-7d42-32f7-8809-a9626798f886","dept":"60","reg":"hdf"}},{"type":"Feature","geometry":{"type":"Point","coordinates":[2.97231,49.43104]},"properties":{"nom":"Gîte du Tordoir","sub":"CollectiveAccommodation","cm":"60170#Saint-Crépin-aux-Bois","web":null,"uri":"https://data.datatourisme.fr/28/5d2a0e27-b640-35be-8a00-5a79fb0cfaa4","dept":"60","reg":"hdf"}},{"type":"Feature","geometry":{"type":"Point","coordinates":[2.82306,49.41386]},"properties":{"nom":"La Charmeraie","sub":"LodgingBusiness","cm":"60200#Compiègne","web":"https://www.lacharmeraie.com/","uri":"https://data.datatourisme.fr/28/c1305cad-daca-3b82-a2e9-4f8ddc754047","dept":"60","reg":"hdf"}},{"type":"Feature","geometry":{"type":"Point","coordinates":[2.82306,49.41386]},"properties":{"nom":"Studio 5","sub":"LodgingBusiness","cm":"60200#Compiègne","web":"https://www.lacharmeraie.com/","uri":"https://data.datatourisme.fr/28/9265a90e-ab6d-3cad-b21f-e2c72fde5b14","dept":"60","reg":"hdf"}},{"type":"Feature","geometry":{"type":"Point","coordinates":[2.48388,49.2871]},"properties":{"nom":"L'antre deux terres","sub":"LodgingBusiness","cm":"60870#Villers-Saint-Paul","web":"https://www.gites-de-france-oise.fr/","uri":"https://data.datatourisme.fr/28/ea2382fc-4b1f-3111-974c-a3485d85339d","dept":"60","reg":"hdf"}},{"type":"Feature","geometry":{"type":"Point","coordinates":[2.08942,49.42988]},"properties":{"nom":"Le Rhino Rayé","sub":"BedAndBreakfast","cm":"60000#Beauvais","web":null,"uri":"https://data.datatourisme.fr/28/f073b38a-16e6-338d-a9bf-eca5d5354d0b","dept":"60","reg":"hdf"}},{"type":"Feature","geometry":{"type":"Point","coordinates":[2.249,49.16487]},"properties":{"nom":"L'école Buissonnière","sub":"BedAndBreakfast","cm":"60230#Chambly","web":null,"uri":"https://data.datatourisme.fr/28/f0815015-c811-32c9-b306-f6eba3809b73","dept":"60","reg":"hdf"}},{"type":"Feature","geometry":{"type":"Point","coordinates":[3.09485,49.6696]},"properties":{"nom":"l'école buissonniere","sub":"LodgingBusiness","cm":"60640#Guiscard","web":"https://www.gites-de-france-oise.fr/","uri":"https://data.datatourisme.fr/28/f5014d71-f31f-32da-bec2-1f1ecd4cebb5","dept":"60","reg":"hdf"}},{"type":"Feature","geometry":{"type":"Point","coordinates":[3.03631,49.35192]},"properties":{"nom":"La maison de Martin","sub":"LodgingBusiness","cm":"60350#Chelles","web":null,"uri":"https://data.datatourisme.fr/28/f6c4c0e8-e353-3c3e-b803-ed9803e7e9a0","dept":"60","reg":"hdf"}},{"type":"Feature","geometry":{"type":"Point","coordinates":[1.89864,49.52328]},"properties":{"nom":"Gîte de Mr et Mme Vereecke","sub":"LodgingBusiness","cm":"60112#Martincourt","web":"https://www.gites-de-france-oise.fr/","uri":"https://data.datatourisme.fr/28/f83124ee-9040-3fbe-a54a-fe6a97e7738a","dept":"60","reg":"hdf"}},{"type":"Feature","geometry":{"type":"Point","coordinates":[2.76,49.21]},"properties":{"nom":"Gîte de Cilia","sub":"LodgingBusiness","cm":"60800#Fresnoy-le-Luat","web":"http://www.gite-senlis-chantilly.com/","uri":"https://data.datatourisme.fr/28/f979748c-90c6-35df-b0e8-bdaf5d7d5b83","dept":"60","reg":"hdf"}},{"type":"Feature","geometry":{"type":"Point","coordinates":[2.76853,49.21069]},"properties":{"nom":"Chambre d'hôtes familiale de Cilia","sub":"BedAndBreakfast","cm":"60800#Fresnoy-le-Luat","web":"http://www.gite-senlis-chantilly.com/","uri":"https://data.datatourisme.fr/28/fafac288-5f23-3493-b49a-552bea7cd9fb","dept":"60","reg":"hdf"}},{"type":"Feature","geometry":{"type":"Point","coordinates":[2.79298,49.51316]},"properties":{"nom":"Le logis de Vananacurtis","sub":"LodgingBusiness","cm":"60490#Vandélicourt","web":"https://www.gites-de-france-oise.fr/","uri":"https://data.datatourisme.fr/28/ff4cbfea-8e41-3c13-bdb5-0d5deaaf809b","dept":"60","reg":"hdf"}},{"type":"Feature","geometry":{"type":"Point","coordinates":[2.00278,49.43243]},"properties":{"nom":"Le Gîte de l'Antre de Saint","sub":"LodgingBusiness","cm":"60650#Saint-Paul","web":null,"uri":"https://data.datatourisme.fr/28/7f7f1897-2d4b-3ef0-aaa6-02d75eaebb0a","dept":"60","reg":"hdf"}},{"type":"Feature","geometry":{"type":"Point","coordinates":[2.08243,49.58413]},"properties":{"nom":"Le gite du Petit Train","sub":"LodgingBusiness","cm":"60360#Rotangy","web":null,"uri":"https://data.datatourisme.fr/28/db658c4d-2e57-39f6-b43e-83354e5c2c88","dept":"60","reg":"hdf"}},{"type":"Feature","geometry":{"type":"Point","coordinates":[2.89111,49.62891]},"properties":{"nom":"Ecolo'gîte","sub":"LodgingBusiness","cm":"60310#Candor","web":null,"uri":"https://data.datatourisme.fr/28/cfaf8312-a9fd-30d8-a4a8-f48a182869c0","dept":"60","reg":"hdf"}},{"type":"Feature","geometry":{"type":"Point","coordinates":[2.17184,49.54506]},"properties":{"nom":"Gîte du pré","sub":"LodgingBusiness","cm":"60480#Maulers","web":"https://www.gites-de-france-oise.fr/","uri":"https://data.datatourisme.fr/28/bb252c04-43e7-3290-a67a-3c4b85b1ed0f","dept":"60","reg":"hdf"}},{"type":"Feature","geometry":{"type":"Point","coordinates":[2.72941,49.30966]},"properties":{"nom":"La Martinière","sub":"BedAndBreakfast","cm":"60410#Verberie","web":"http://www.lamartiniere-verberie.fr/","uri":"https://data.datatourisme.fr/28/bd6b6618-378c-38e0-bd48-7307dd20dc6e","dept":"60","reg":"hdf"}},{"type":"Feature","geometry":{"type":"Point","coordinates":[2.82671,49.65574]},"properties":{"nom":"l'Amédéenne","sub":"LodgingBusiness","cm":"60310#Amy","web":null,"uri":"https://data.datatourisme.fr/28/c1c1e2de-7d1a-3672-8a94-abbe4997edc7","dept":"60","reg":"hdf"}},{"type":"Feature","geometry":{"type":"Point","coordinates":[1.85463,49.42891]},"properties":{"nom":"Les petits  Eaux Ouïes","sub":"LodgingBusiness","cm":"60850#Cuigy-en-Bray","web":"https://www.gites-de-france-oise.fr/","uri":"https://data.datatourisme.fr/28/c2d43b77-122b-3d5c-9ee3-5e478d46ee6e","dept":"60","reg":"hdf"}},{"type":"Feature","geometry":{"type":"Point","coordinates":[1.85463,49.42891]},"properties":{"nom":"Villa des Eaux Ouïes","sub":"LodgingBusiness","cm":"60850#Cuigy-en-Bray","web":null,"uri":"https://data.datatourisme.fr/28/189151b6-6aca-38a9-b3c5-2307bb717487","dept":"60","reg":"hdf"}},{"type":"Feature","geometry":{"type":"Point","coordinates":[2.79709,49.60356]},"properties":{"nom":"Le Petit Roseau","sub":"LodgingBusiness","cm":"60310#Canny-sur-Matz","web":null,"uri":"https://data.datatourisme.fr/28/c314a634-4229-3151-a6b8-1158824b4dd3","dept":"60","reg":"hdf"}},{"type":"Feature","geometry":{"type":"Point","coordinates":[2.76201,49.51783]},"properties":{"nom":"Gîte du marquais","sub":"LodgingBusiness","cm":"60490#Marquéglise","web":"https://www.gites-de-france-oise.fr/","uri":"https://data.datatourisme.fr/28/c5c3994d-80e8-309b-ad65-84ffb0fdd9fe","dept":"60","reg":"hdf"}},{"type":"Feature","geometry":{"type":"Point","coordinates":[2.08898,49.42642]},"properties":{"nom":"Loueur et réparateur de vélos - BeauVélo","sub":"Rental","cm":"60000#Beauvais","web":"https://www.beauvelo.org/","uri":"https://data.datatourisme.fr/28/c432b780-1a74-3926-92f4-d60f850566d2","dept":"60","reg":"hdf"}},{"type":"Feature","geometry":{"type":"Point","coordinates":[2.27976,49.34652]},"properties":{"nom":"Villa les iris","sub":"BedAndBreakfast","cm":"60370#Saint-Félix","web":"http://www.villalesirisstfelix.fr/","uri":"https://data.datatourisme.fr/28/9d2a5a75-4d56-3915-b2db-88d3ad140f50","dept":"60","reg":"hdf"}},{"type":"Feature","geometry":{"type":"Point","coordinates":[2.60535,49.30033]},"properties":{"nom":"La Maison de Marie","sub":"LodgingBusiness","cm":"60700#Pont-Sainte-Maxence","web":null,"uri":"https://data.datatourisme.fr/28/dbee3cea-392e-32b8-94fe-d67b467deb69","dept":"60","reg":"hdf"}},{"type":"Feature","geometry":{"type":"Point","coordinates":[2.40398,49.40415]},"properties":{"nom":"Gîte du Haras","sub":"LodgingBusiness","cm":"60600#Airion","web":null,"uri":"https://data.datatourisme.fr/28/b2bf1030-90f7-3a38-b94d-e8a11f4f4610","dept":"60","reg":"hdf"}},{"type":"Feature","geometry":{"type":"Point","coordinates":[2.39064,49.38778]},"properties":{"nom":"Clermotel Hôtel & Restaurant","sub":"HotelRestaurant","cm":"60600#Agnetz","web":"https://www.clermotel.fr/","uri":"https://data.datatourisme.fr/28/d2384d1d-f776-3ccc-ab78-06c31a13fc37","dept":"60","reg":"hdf"}},{"type":"Feature","geometry":{"type":"Point","coordinates":[1.93323,49.1971]},"properties":{"nom":"En toute simplicité","sub":"LodgingBusiness","cm":"60240#Lavilletertre","web":null,"uri":"https://data.datatourisme.fr/28/9f016f79-06f8-3173-8075-6d9640182c6e","dept":"60","reg":"hdf"}},{"type":"Feature","geometry":{"type":"Point","coordinates":[2.59999,49.3164]},"properties":{"nom":"Le Presbytère","sub":"LodgingBusiness","cm":"60700#Pont-Sainte-Maxence","web":null,"uri":"https://data.datatourisme.fr/28/17f9e90d-68b7-3b56-92e4-befbf967d040","dept":"60","reg":"hdf"}},{"type":"Feature","geometry":{"type":"Point","coordinates":[2.59999,49.3164]},"properties":{"nom":"Le Grenier","sub":"LodgingBusiness","cm":"60700#Pont-Sainte-Maxence","web":null,"uri":"https://data.datatourisme.fr/28/9fd7ad5d-a939-3a4a-833c-f589c6622b7d","dept":"60","reg":"hdf"}},{"type":"Feature","geometry":{"type":"Point","coordinates":[2.59999,49.3164]},"properties":{"nom":"La Maisonnette","sub":"LodgingBusiness","cm":"60700#Pont-Sainte-Maxence","web":null,"uri":"https://data.datatourisme.fr/28/0aef0f43-548c-3a3f-a58e-e448b300feed","dept":"60","reg":"hdf"}},{"type":"Feature","geometry":{"type":"Point","coordinates":[2.07526,49.60919]},"properties":{"nom":"La cour d'honneur du château","sub":"LodgingBusiness","cm":"60360#Crèvecœur-le-Grand","web":"https://www.gites-de-france-oise.fr/","uri":"https://data.datatourisme.fr/28/cb20c71d-56b7-3ca2-9331-a87b6dd3b0e3","dept":"60","reg":"hdf"}},{"type":"Feature","geometry":{"type":"Point","coordinates":[2.74561,49.36922]},"properties":{"nom":"Gîte Le Meux","sub":"LodgingBusiness","cm":"60880#Le Meux","web":"http://www.gitelemeux.fr/","uri":"https://data.datatourisme.fr/28/f698eaf6-5813-3052-9407-558c63a78e5a","dept":"60","reg":"hdf"}},{"type":"Feature","geometry":{"type":"Point","coordinates":[2.74561,49.36922]},"properties":{"nom":"Gîte l'Ormeau","sub":"LodgingBusiness","cm":"60880#Le Meux","web":null,"uri":"https://data.datatourisme.fr/28/11012ec6-9fc0-3d9a-963a-5299dfa3ade3","dept":"60","reg":"hdf"}},{"type":"Feature","geometry":{"type":"Point","coordinates":[3.02231,49.4003]},"properties":{"nom":"Un Air de Campagne","sub":"BedAndBreakfast","cm":"60350#Couloisy","web":"http://www.unairdecampagne.net/","uri":"https://data.datatourisme.fr/28/fdfa986e-c6a3-3230-a0b7-466eeccd53be","dept":"60","reg":"hdf"}},{"type":"Feature","geometry":{"type":"Point","coordinates":[2.57713,49.48231]},"properties":{"nom":"Gîte de Mr Le Roy","sub":"LodgingBusiness","cm":"60190#La Neuville-Roy","web":"http://www.gite-rural-oise.fr/","uri":"https://data.datatourisme.fr/28/fbe93ad8-8ff5-3fea-9a59-0898b9c6b635","dept":"60","reg":"hdf"}},{"type":"Feature","geometry":{"type":"Point","coordinates":[2.4876,49.28344]},"properties":{"nom":"Campanile Villers Saint-Paul","sub":"HotelRestaurant","cm":"60870#Villers-Saint-Paul","web":"https://creil-villers-saint-paul.campanile.com/fr-fr/","uri":"https://data.datatourisme.fr/28/0b514bd4-abd6-3123-aeaa-6d9088601634","dept":"60","reg":"hdf"}},{"type":"Feature","geometry":{"type":"Point","coordinates":[2.42275,49.21457]},"properties":{"nom":"Auberge et Hôtel de l'Oise","sub":"HotelRestaurant","cm":"60340#Saint-Leu-d'Esserent","web":"https://www.hotel-de-loise.com/","uri":"https://data.datatourisme.fr/28/9aef946f-1a27-3e0e-9113-ba850eb4dcfe","dept":"60","reg":"hdf"}},{"type":"Feature","geometry":{"type":"Point","coordinates":[1.83676,49.41052]},"properties":{"nom":"Camping La Belle Etoile","sub":"Camping","cm":"60850#Le Coudray-Saint-Germer","web":null,"uri":"https://data.datatourisme.fr/28/91b686ba-218f-3aea-aab9-cbe90f316151","dept":"60","reg":"hdf"}},{"type":"Feature","geometry":{"type":"Point","coordinates":[2.42714,49.18466]},"properties":{"nom":"Le Social Club - Restaurants du Château Jeanne & The Forest","sub":"HotelRestaurant","cm":"60270#Gouvieux","web":"https://www.jeanneandtheforest.com/restaurants-bar#social-bar","uri":"https://data.datatourisme.fr/28/4bf07d9e-0c76-3f10-a6c3-f6c2f76f4c07","dept":"60","reg":"hdf"}},{"type":"Feature","geometry":{"type":"Point","coordinates":[2.42714,49.18466]},"properties":{"nom":"Le Social Bar - Bar du Château Jeanne & The Forest","sub":"HotelRestaurant","cm":"60270#Gouvieux","web":"https://www.jeanneandtheforest.com/restaurants-bar#social-bar","uri":"https://data.datatourisme.fr/28/5f780544-fdc9-3706-9c0b-784866ecb7af","dept":"60","reg":"hdf"}},{"type":"Feature","geometry":{"type":"Point","coordinates":[2.69113,49.1265]},"properties":{"nom":"Domaine d'Ermenonville","sub":"HotelRestaurant","cm":"60950#Ermenonville","web":"https://www.domainechateauermenonville.com/","uri":"https://data.datatourisme.fr/28/8411e603-e6e0-34f2-9599-7f7f8bb013c2","dept":"60","reg":"hdf"}},{"type":"Feature","geometry":{"type":"Point","coordinates":[2.69105,49.13023]},"properties":{"nom":"Domaine d'Ermenonville","sub":"HotelRestaurant","cm":"60950#Ermenonville","web":"http://www.domainechateauermenonville.com/","uri":"https://data.datatourisme.fr/28/f12f00c7-31fb-3e04-ac62-1690019a9331","dept":"60","reg":"hdf"}},{"type":"Feature","geometry":{"type":"Point","coordinates":[1.79118,49.28961]},"properties":{"nom":"Les Yourtes des Templiers","sub":"BedAndBreakfast","cm":"60590#Trie-Château","web":"https://www.levillagedestempliers.com/","uri":"https://data.datatourisme.fr/28/c20935d0-96a6-39ab-bfc5-e7390cd9928c","dept":"60","reg":"hdf"}},{"type":"Feature","geometry":{"type":"Point","coordinates":[1.85368,49.34614]},"properties":{"nom":"La Choupette","sub":"LodgingBusiness","cm":"60590#Le Vaumain","web":null,"uri":"https://data.datatourisme.fr/28/8639377a-4852-3771-9a90-5fa03871180b","dept":"60","reg":"hdf"}},{"type":"Feature","geometry":{"type":"Point","coordinates":[3.03631,49.35192]},"properties":{"nom":"La grande maison de Martin","sub":"LodgingBusiness","cm":"60350#Chelles","web":null,"uri":"https://data.datatourisme.fr/28/cc2d57a4-347b-3361-9190-38a986b64290","dept":"60","reg":"hdf"}},{"type":"Feature","geometry":{"type":"Point","coordinates":[2.04646,49.46376]},"properties":{"nom":"La Grange","sub":"CollectiveAccommodation","cm":"60000#Fouquenies","web":null,"uri":"https://data.datatourisme.fr/28/3aa96cf4-49ad-3254-b173-edede9dcc977","dept":"60","reg":"hdf"}},{"type":"Feature","geometry":{"type":"Point","coordinates":[2.23658,49.38144]},"properties":{"nom":"Le Clos du Mont César","sub":"BedAndBreakfast","cm":"60930#Bailleul-sur-Thérain","web":null,"uri":"https://data.datatourisme.fr/28/092b466a-cecb-3026-bbe4-b104d9e8633d","dept":"60","reg":"hdf"}},{"type":"Feature","geometry":{"type":"Point","coordinates":[2.35089,49.16037]},"properties":{"nom":"La Ferme du Couvent","sub":"LodgingBusiness","cm":"60820#Boran-sur-Oise","web":null,"uri":"https://data.datatourisme.fr/28/9ebe0d25-e4e6-3ec2-82c4-83a6daad73b9","dept":"60","reg":"hdf"}},{"type":"Feature","geometry":{"type":"Point","coordinates":[2.66845,49.32951]},"properties":{"nom":"Chateau Le Quesnoy","sub":"BedAndBreakfast","cm":"60710#Chevrières","web":"http://www.chateaulequesnoy.com/","uri":"https://data.datatourisme.fr/28/a230a6c7-e952-3b2d-a3a5-249ad6cae06d","dept":"60","reg":"hdf"}},{"type":"Feature","geometry":{"type":"Point","coordinates":[1.77416,49.57651]},"properties":{"nom":"La ferme d'Annie","sub":"LodgingBusiness","cm":"60380#Fontenay-Torcy","web":"https://www.gites-de-france-oise.fr/","uri":"https://data.datatourisme.fr/28/a6b08b8f-219b-384e-8576-846f461e1d3b","dept":"60","reg":"hdf"}},{"type":"Feature","geometry":{"type":"Point","coordinates":[1.75483,49.44529]},"properties":{"nom":"Les Chevaux","sub":"LodgingBusiness","cm":"60850#Saint-Germer-de-Fly","web":"https://www.domainedegarenne.com/","uri":"https://data.datatourisme.fr/28/a7c5531b-6f6c-34d5-b840-cd0046c2f5b2","dept":"60","reg":"hdf"}},{"type":"Feature","geometry":{"type":"Point","coordinates":[1.75483,49.44583]},"properties":{"nom":"Le chalet","sub":"LodgingBusiness","cm":"60850#Saint-Germer-de-Fly","web":"https://www.domainedegarenne.com/","uri":"https://data.datatourisme.fr/28/24a26645-9231-32b7-b430-6d9a485c04ed","dept":"60","reg":"hdf"}},{"type":"Feature","geometry":{"type":"Point","coordinates":[1.75483,49.44583]},"properties":{"nom":"Le grand chalet","sub":"LodgingBusiness","cm":"60850#Saint-Germer-de-Fly","web":"https://www.domainedegarenne.com/","uri":"https://data.datatourisme.fr/28/f6cb1c94-fc29-3a7d-a330-08b968461f21","dept":"60","reg":"hdf"}},{"type":"Feature","geometry":{"type":"Point","coordinates":[2.22722,49.56865]},"properties":{"nom":"Chez Francine et Xavier","sub":"BedAndBreakfast","cm":"60480#Froissy","web":"http://francineetxavier.free.fr/","uri":"https://data.datatourisme.fr/28/aa722c6e-81f7-3118-94e0-dc0be9eb7e7d","dept":"60","reg":"hdf"}},{"type":"Feature","geometry":{"type":"Point","coordinates":[2.73185,49.38998]},"properties":{"nom":"La Ferme","sub":"LodgingBusiness","cm":"60680#Jonquières","web":"http://gites-oise.fr/","uri":"https://data.datatourisme.fr/28/ad800e0d-6c2c-35a9-8b1d-25be032db1fb","dept":"60","reg":"hdf"}},{"type":"Feature","geometry":{"type":"Point","coordinates":[2.73108,49.17243]},"properties":{"nom":"Gite labaronnaise avec piscine chauffée","sub":"LodgingBusiness","cm":"60300#Baron","web":"http://labaronaise.jimdo.com/","uri":"https://data.datatourisme.fr/28/add2fbeb-90cd-3020-a1c7-c52bf69544b5","dept":"60","reg":"hdf"}},{"type":"Feature","geometry":{"type":"Point","coordinates":[1.8447,49.47647]},"properties":{"nom":"Le gite de Mme Hoorne","sub":"LodgingBusiness","cm":"60650#Senantes","web":null,"uri":"https://data.datatourisme.fr/28/b45d85cb-1aa6-3661-ad40-7f1e41e65c0a","dept":"60","reg":"hdf"}},{"type":"Feature","geometry":{"type":"Point","coordinates":[2.39747,49.28219]},"properties":{"nom":"Le Clos Barisseuse","sub":"Hotel","cm":"60660#Saint-Vaast-lès-Mello","web":"http://closbarisseuse.com/","uri":"https://data.datatourisme.fr/28/92923006-d57c-30be-b5f9-8c3b27fc5a52","dept":"60","reg":"hdf"}},{"type":"Feature","geometry":{"type":"Point","coordinates":[2.47368,49.24443]},"properties":{"nom":"B&B Hôtel Creil Chantilly","sub":"Hotel","cm":"60100#Creil","web":"https://www.hotel-bb.com/fr/hotel/creil-chantilly?utm_source=googlemaps&utm_medium=fichehotel&utm_campaign=yext","uri":"https://data.datatourisme.fr/28/a22b32bb-55bd-3352-a7de-af613a544532","dept":"60","reg":"hdf"}},{"type":"Feature","geometry":{"type":"Point","coordinates":[2.48829,49.2833]},"properties":{"nom":"Première Classe Creil - Villers-Saint-Paul","sub":"Hotel","cm":"60870#Villers-Saint-Paul","web":"https://creil-villers-saint-paul.premiereclasse.com/fr-fr/","uri":"https://data.datatourisme.fr/28/acb165f5-e742-3274-87d0-6a46cb0a1910","dept":"60","reg":"hdf"}},{"type":"Feature","geometry":{"type":"Point","coordinates":[3.00019,49.5815]},"properties":{"nom":"Hôtel le Cèdre","sub":"Hotel","cm":"60400#Noyon","web":"http://www.hotel-lecedre.com/","uri":"https://data.datatourisme.fr/28/9b36999f-e4a6-3f99-99de-b5fc621d2115","dept":"60","reg":"hdf"}},{"type":"Feature","geometry":{"type":"Point","coordinates":[1.89817,49.30076]},"properties":{"nom":"Le Puits d'Angle","sub":"BedAndBreakfast","cm":"60240#Thibivillers","web":"http://www.lepuitsdangle.com/","uri":"https://data.datatourisme.fr/28/99b82a19-e488-3dd1-b670-7ae2040e33b9","dept":"60","reg":"hdf"}},{"type":"Feature","geometry":{"type":"Point","coordinates":[2.88267,49.43682]},"properties":{"nom":"Villa du Châtelet","sub":"BedAndBreakfast","cm":"60750#Choisy-au-Bac","web":"http://villaduchatelet.com/","uri":"https://data.datatourisme.fr/28/8d56d216-f8f2-3638-af44-b7b8ad6fa1b6","dept":"60","reg":"hdf"}},{"type":"Feature","geometry":{"type":"Point","coordinates":[2.77903,49.39394]},"properties":{"nom":"Ibis Styles Compiègne","sub":"Hotel","cm":"60880#Jaux","web":"https://bit.ly/styles-compiegne","uri":"https://data.datatourisme.fr/28/b37dde07-3b3f-3039-8ddb-78b85525b2aa","dept":"60","reg":"hdf"}},{"type":"Feature","geometry":{"type":"Point","coordinates":[2.77449,49.40376]},"properties":{"nom":"Cinéma Majestic Compiègne","sub":"Rental","cm":"60880#Jaux","web":"https://www.majestic-compiegne.fr/","uri":"https://data.datatourisme.fr/28/f03d02d8-cbc4-30af-8cc3-3ef5b42fcd7b","dept":"60","reg":"hdf"}},{"type":"Feature","geometry":{"type":"Point","coordinates":[2.4228,49.21462]},"properties":{"nom":"Hôtel de l'Oise","sub":"HotelRestaurant","cm":"60340#Saint-Leu-d'Esserent","web":"http://www.hotel-de-loise.com/","uri":"https://data.datatourisme.fr/28/9dc2aaa5-9891-36ec-80cd-769dbbf593e2","dept":"60","reg":"hdf"}},{"type":"Feature","geometry":{"type":"Point","coordinates":[2.22953,49.15836]},"properties":{"nom":"Appartement de la princesse Murat","sub":"LodgingBusiness","cm":"60230#Chambly","web":"http://www.chateau-chambly.com/","uri":"https://data.datatourisme.fr/28/5eeef679-ee84-35b1-a135-578721fd0144","dept":"60","reg":"hdf"}},{"type":"Feature","geometry":{"type":"Point","coordinates":[1.75483,49.44529]},"properties":{"nom":"La Roulotte \"Ladies\"","sub":"BedAndBreakfast","cm":"60850#Saint-Germer-de-Fly","web":"https://www.domainedegarenne.com/","uri":"https://data.datatourisme.fr/28/6004fac2-371a-374e-aab2-3fde1ffa51a4","dept":"60","reg":"hdf"}},{"type":"Feature","geometry":{"type":"Point","coordinates":[1.75483,49.44529]},"properties":{"nom":"La Roulotte \"Crew\"","sub":"BedAndBreakfast","cm":"60850#Saint-Germer-de-Fly","web":"https://www.domainedegarenne.com/","uri":"https://data.datatourisme.fr/28/225da01f-f173-3ddd-a9cb-2c2a0c732ba5","dept":"60","reg":"hdf"}},{"type":"Feature","geometry":{"type":"Point","coordinates":[2.92635,49.16637]},"properties":{"nom":"L'Orée des bois","sub":"LodgingBusiness","cm":"60620#Betz","web":"https://www.gites-de-france-oise.fr/","uri":"https://data.datatourisme.fr/28/60919d30-6e48-3da6-b6c1-895ce824a4be","dept":"60","reg":"hdf"}},{"type":"Feature","geometry":{"type":"Point","coordinates":[2.73185,49.38998]},"properties":{"nom":"L'étable","sub":"LodgingBusiness","cm":"60680#Jonquières","web":"http://gites-oise.fr/","uri":"https://data.datatourisme.fr/28/60b2df62-8496-3040-a702-b0982ec20e7c","dept":"60","reg":"hdf"}},{"type":"Feature","geometry":{"type":"Point","coordinates":[2.73185,49.38998]},"properties":{"nom":"Le grand gite","sub":"LodgingBusiness","cm":"60680#Jonquières","web":"http://gites-oise.fr/","uri":"https://data.datatourisme.fr/28/fa6378c9-b69e-3b89-a828-3dae73cb7263","dept":"60","reg":"hdf"}},{"type":"Feature","geometry":{"type":"Point","coordinates":[2.73185,49.38998]},"properties":{"nom":"La Grange et l'Etable","sub":"LodgingBusiness","cm":"60680#Jonquières","web":"http://gites-oise.fr/","uri":"https://data.datatourisme.fr/28/092446f6-b38c-307a-9b31-0f42218eee0b","dept":"60","reg":"hdf"}},{"type":"Feature","geometry":{"type":"Point","coordinates":[2.73185,49.38998]},"properties":{"nom":"La Grange","sub":"LodgingBusiness","cm":"60680#Jonquières","web":"http://gites-oise.fr/","uri":"https://data.datatourisme.fr/28/17f03718-6397-343f-937d-19126666e4c5","dept":"60","reg":"hdf"}},{"type":"Feature","geometry":{"type":"Point","coordinates":[1.75497,49.58788]},"properties":{"nom":"Les Jardins de Beauve","sub":"BedAndBreakfast","cm":"60380#Héricourt-sur-Thérain","web":"http://www.jardinsdebeauve.sitew.fr/#Accueil.E","uri":"https://data.datatourisme.fr/28/60e0f312-5ae3-3d6b-8d22-f0eaa7d1cec7","dept":"60","reg":"hdf"}},{"type":"Feature","geometry":{"type":"Point","coordinates":[2.21686,49.36695]},"properties":{"nom":"Aux portes du Dolmen","sub":"LodgingBusiness","cm":"60134#Villers-Saint-Sépulcre","web":null,"uri":"https://data.datatourisme.fr/28/6a50dba8-d18e-3d49-8f78-8ec6035d168d","dept":"60","reg":"hdf"}},{"type":"Feature","geometry":{"type":"Point","coordinates":[2.51211,49.22307]},"properties":{"nom":"L'hébergerie","sub":"LodgingBusiness","cm":"60300#Apremont","web":null,"uri":"https://data.datatourisme.fr/28/722a210a-19da-39cd-b390-84641013485e","dept":"60","reg":"hdf"}},{"type":"Feature","geometry":{"type":"Point","coordinates":[2.07448,49.61446]},"properties":{"nom":"Gîte de Mme Becquet","sub":"LodgingBusiness","cm":"60360#Crèvecœur-le-Grand","web":"https://www.gites-de-france-oise.fr/","uri":"https://data.datatourisme.fr/28/75b98eb6-3858-3a20-b2e4-e6341a289e61","dept":"60","reg":"hdf"}},{"type":"Feature","geometry":{"type":"Point","coordinates":[2.85525,49.12259]},"properties":{"nom":"La Ruche","sub":"LodgingBusiness","cm":"60440#Chèvreville","web":"https://sennevieres.com/","uri":"https://data.datatourisme.fr/28/78b3f8d3-d115-3cc9-8b53-cd74c6ef73c1","dept":"60","reg":"hdf"}},{"type":"Feature","geometry":{"type":"Point","coordinates":[1.8733,49.63167]},"properties":{"nom":"La chambre aux hortensias","sub":"BedAndBreakfast","cm":"60210#Hautbos","web":null,"uri":"https://data.datatourisme.fr/28/7a00ce82-4a55-3cb6-909b-eaaebf4a6bf3","dept":"60","reg":"hdf"}},{"type":"Feature","geometry":{"type":"Point","coordinates":[1.8704,49.5165]},"properties":{"nom":"Papageno","sub":"LodgingBusiness","cm":"60650#Hanvoile","web":null,"uri":"https://data.datatourisme.fr/28/7dac8790-08b8-30ba-b500-b89be42d6a25","dept":"60","reg":"hdf"}},{"type":"Feature","geometry":{"type":"Point","coordinates":[2.71323,49.38174]},"properties":{"nom":"Le Clos du Moulin","sub":"LodgingBusiness","cm":"60680#Canly","web":null,"uri":"https://data.datatourisme.fr/28/09577d33-f7b7-3df0-9703-435fa54a9b52","dept":"60","reg":"hdf"}},{"type":"Feature","geometry":{"type":"Point","coordinates":[2.81362,49.3044]},"properties":{"nom":"Le Lezard Vert","sub":"LodgingBusiness","cm":"60320#Béthisy-Saint-Pierre","web":"https://lezardvert-bethisy.jimdofree.com/","uri":"https://data.datatourisme.fr/28/a2634bcf-5832-395c-85ff-48e8028e9337","dept":"60","reg":"hdf"}},{"type":"Feature","geometry":{"type":"Point","coordinates":[2.88795,49.2367]},"properties":{"nom":"L' appart","sub":"LodgingBusiness","cm":"60800#Crépy-en-Valois","web":"https://www.teyowellcome.fr/","uri":"https://data.datatourisme.fr/28/c2d21c1e-24dc-3f41-b249-c44bb0054537","dept":"60","reg":"hdf"}},{"type":"Feature","geometry":{"type":"Point","coordinates":[1.93745,49.65907]},"properties":{"nom":"Grand gîte de la Commanderie","sub":"LodgingBusiness","cm":"60210#Sommereux","web":"https://www.gites-de-france-oise.fr/","uri":"https://data.datatourisme.fr/28/f6ffa7a0-8f34-32f6-a19a-d11eb20925d0","dept":"60","reg":"hdf"}},{"type":"Feature","geometry":{"type":"Point","coordinates":[1.93745,49.65907]},"properties":{"nom":"La commanderie","sub":"LodgingBusiness","cm":"60210#Sommereux","web":"https://www.gites-de-france-oise.fr/","uri":"https://data.datatourisme.fr/28/a1da6751-82dc-3e5f-a9af-c16344fe7f0a","dept":"60","reg":"hdf"}},{"type":"Feature","geometry":{"type":"Point","coordinates":[1.93745,49.65907]},"properties":{"nom":"La commanderie","sub":"LodgingBusiness","cm":"60210#Sommereux","web":"https://www.gites-de-france-oise.fr/","uri":"https://data.datatourisme.fr/28/037e1c89-1b2c-3a72-af23-bcd9e6af81c0","dept":"60","reg":"hdf"}},{"type":"Feature","geometry":{"type":"Point","coordinates":[2.1686,49.2559]},"properties":{"nom":"La Fermette","sub":"LodgingBusiness","cm":"60570#Andeville","web":null,"uri":"https://data.datatourisme.fr/28/b70afd01-9039-3a2d-8202-d38b1da9d944","dept":"60","reg":"hdf"}},{"type":"Feature","geometry":{"type":"Point","coordinates":[2.81639,49.41783]},"properties":{"nom":"Aiden By Bestwestern T'Aim Hôtel","sub":"HotelRestaurant","cm":"60280#Margny-lès-Compiègne","web":"https://www.taimhotel.com/","uri":"https://data.datatourisme.fr/28/63c9dc22-ba17-3882-bab9-eee5e8a73b97","dept":"60","reg":"hdf"}},{"type":"Feature","geometry":{"type":"Point","coordinates":[2.40252,49.21234]},"properties":{"nom":"Camping de l'Abbatiale","sub":"Camping","cm":"60340#Saint-Leu-d'Esserent","web":"http://www.camping-abbatiale.com/","uri":"https://data.datatourisme.fr/28/5ec6c1a9-237e-3dd0-ae82-c6e31cddb1af","dept":"60","reg":"hdf"}},{"type":"Feature","geometry":{"type":"Point","coordinates":[1.9919,49.53682]},"properties":{"nom":"Le Moulin des Forges","sub":"HotelRestaurant","cm":"60860#Saint-Omer-en-Chaussée","web":"http://www.lemoulindesforges.com/","uri":"https://data.datatourisme.fr/28/44565d42-234a-3d5b-a8e3-39437e347879","dept":"60","reg":"hdf"}},{"type":"Feature","geometry":{"type":"Point","coordinates":[1.99182,49.53668]},"properties":{"nom":"Le Moulin des Forges","sub":"Rental","cm":"60860#Saint-Omer-en-Chaussée","web":"http://www.lemoulindesforges.com/","uri":"https://data.datatourisme.fr/28/f5efea17-8303-3890-8e78-8873df702392","dept":"60","reg":"hdf"}},{"type":"Feature","geometry":{"type":"Point","coordinates":[2.58213,49.09422]},"properties":{"nom":"Hôtel des Trois Hiboux","sub":"HotelRestaurant","cm":"60128#Plailly","web":"https://www.parcasterix.fr/hotels/trois-hiboux","uri":"https://data.datatourisme.fr/28/35f2b705-aab2-3bd7-9319-bb6b701776f5","dept":"60","reg":"hdf"}},{"type":"Feature","geometry":{"type":"Point","coordinates":[2.57226,49.13624]},"properties":{"nom":"Parc Astérix Conventions & Séminaires","sub":"Rental","cm":"60128#Plailly","web":"https://businessexperience.parcasterix.fr/","uri":"https://data.datatourisme.fr/28/9d33703b-7a99-38a5-83ec-eb689a847b18","dept":"60","reg":"hdf"}},{"type":"Feature","geometry":{"type":"Point","coordinates":[2.60344,49.20735]},"properties":{"nom":"Campanile Senlis","sub":"HotelRestaurant","cm":"60300#Senlis","web":"http://www.campanile.fr/","uri":"https://data.datatourisme.fr/28/38e951ea-99b5-3708-849a-6a3c233a3fdf","dept":"60","reg":"hdf"}},{"type":"Feature","geometry":{"type":"Point","coordinates":[2.46003,49.20391]},"properties":{"nom":"Campanile Chantilly","sub":"Hotel","cm":"60500#Chantilly","web":"https://chantilly.campanile.com/fr-fr/","uri":"https://data.datatourisme.fr/28/5a4b5256-e2f5-30f9-b9b7-d504ba912147","dept":"60","reg":"hdf"}},{"type":"Feature","geometry":{"type":"Point","coordinates":[2.41264,49.16662]},"properties":{"nom":"Hostellerie du Lys","sub":"HotelRestaurant","cm":"60260#Lamorlaye","web":"https://www.hostelleriedulys.com/fr/","uri":"https://data.datatourisme.fr/28/5db5189f-a87e-399e-99fd-9ab235cb7e04","dept":"60","reg":"hdf"}},{"type":"Feature","geometry":{"type":"Point","coordinates":[2.59019,49.20503]},"properties":{"nom":"La Porte Bellon","sub":"HotelRestaurant","cm":"60300#Senlis","web":"http://www.portebellon.fr/","uri":"https://data.datatourisme.fr/28/66204971-5b7d-3159-b3ae-e2f4f6233098","dept":"60","reg":"hdf"}},{"type":"Feature","geometry":{"type":"Point","coordinates":[2.59029,49.2051]},"properties":{"nom":"Hostellerie de La Porte Bellon","sub":"Hotel","cm":"60300#Senlis","web":"http://www.portebellon.fr/","uri":"https://data.datatourisme.fr/28/7743aa61-4275-3815-9bf0-b2c0cb9f56cf","dept":"60","reg":"hdf"}},{"type":"Feature","geometry":{"type":"Point","coordinates":[2.60028,49.20631]},"properties":{"nom":"Ibis Senlis","sub":"HotelRestaurant","cm":"60300#Senlis","web":"https://all.accor.com/hotel/0709/index.fr.shtml","uri":"https://data.datatourisme.fr/28/78389805-1eb0-3989-97ea-7e4f01009d53","dept":"60","reg":"hdf"}},{"type":"Feature","geometry":{"type":"Point","coordinates":[3.01902,49.50703]},"properties":{"nom":"Camping Les Araucarias","sub":"Camping","cm":"60170#Carlepont","web":"http://www.camping-les-araucarias.com/","uri":"https://data.datatourisme.fr/28/54eba4fc-c3c5-30ab-85f3-1b047ef349cf","dept":"60","reg":"hdf"}},{"type":"Feature","geometry":{"type":"Point","coordinates":[2.04714,49.20411]},"properties":{"nom":"Camping Le Bois Joli","sub":"Camping","cm":"60119#Hénonville","web":"https://www.parcduboisjoli.fr/","uri":"https://data.datatourisme.fr/28/5d5e31cb-4648-34b8-ace3-a8007e16ffe3","dept":"60","reg":"hdf"}},{"type":"Feature","geometry":{"type":"Point","coordinates":[2.48537,49.3189]},"properties":{"nom":"Camping la Faloise","sub":"Camping","cm":"60940#Angicourt","web":"https://www.caravaninglafaloise.com/","uri":"https://data.datatourisme.fr/28/327f134f-f593-3650-8641-91be78836aee","dept":"60","reg":"hdf"}},{"type":"Feature","geometry":{"type":"Point","coordinates":[2.51295,49.27544]},"properties":{"nom":"Camping La Sapinière","sub":"Camping","cm":"60550#Verneuil-en-Halatte","web":"http://www.campinglasapiniere.fr/","uri":"https://data.datatourisme.fr/28/6c83b9d3-6528-36b5-b287-67b096fb9c00","dept":"60","reg":"hdf"}},{"type":"Feature","geometry":{"type":"Point","coordinates":[2.11578,49.40744]},"properties":{"nom":"Campanile Beauvais","sub":"HotelRestaurant","cm":"60000#Beauvais","web":"https://beauvais.campanile.com/fr-fr/","uri":"https://data.datatourisme.fr/28/4d80d1c7-10b2-3bf8-ba94-3f9a5accb30c","dept":"60","reg":"hdf"}},{"type":"Feature","geometry":{"type":"Point","coordinates":[2.11096,49.40842]},"properties":{"nom":"Kyriad Beauvais Sud","sub":"HotelRestaurant","cm":"60000#Beauvais","web":"https://beauvais-sud.kyriad.com/fr-fr/","uri":"https://data.datatourisme.fr/28/53e9b25c-31cc-327a-a4dc-2d512005866d","dept":"60","reg":"hdf"}},{"type":"Feature","geometry":{"type":"Point","coordinates":[2.25775,49.40439]},"properties":{"nom":"Camping de la Trye","sub":"Camping","cm":"60510#Bresles","web":"http://www.camping-de-la-trye.com/","uri":"https://data.datatourisme.fr/28/58a630c3-2b6b-3636-bea5-2dd85b225ccf","dept":"60","reg":"hdf"}},{"type":"Feature","geometry":{"type":"Point","coordinates":[2.25804,49.40464]},"properties":{"nom":"Canoë Kayak Camping de la Trye","sub":"Rental","cm":"60510#Bresles","web":"https://www.camping-de-la-trye.com/","uri":"https://data.datatourisme.fr/28/89da9bf2-ccd4-3074-b3fe-c2ea1456520c","dept":"60","reg":"hdf"}},{"type":"Feature","geometry":{"type":"Point","coordinates":[2.25843,49.40485]},"properties":{"nom":"Aire de camping-cars Camping de la Trye","sub":"CampingAndCaravanning","cm":"60510#Bresles","web":"https://www.camping-de-la-trye.com/hebergements/emplacements/","uri":"https://data.datatourisme.fr/28/dceadcb0-7eca-36f3-9a20-bdd94fca330d","dept":"60","reg":"hdf"}},{"type":"Feature","geometry":{"type":"Point","coordinates":[2.11145,49.41011]},"properties":{"nom":"Ibis Styles","sub":"HotelRestaurant","cm":"60000#Beauvais","web":"https://all.accor.com/hotel/0350/index.fr.shtml","uri":"https://data.datatourisme.fr/28/6a60fd33-bb1f-3ba1-a200-95c6b82ca7f1","dept":"60","reg":"hdf"}},{"type":"Feature","geometry":{"type":"Point","coordinates":[3.05294,49.40691]},"properties":{"nom":"Camping de l'Aigrette","sub":"Camping","cm":"60350#Attichy","web":"https://campingdelaigrette.com/fr","uri":"https://data.datatourisme.fr/28/47d082f9-564e-3a63-8708-79261cfb633f","dept":"60","reg":"hdf"}},{"type":"Feature","geometry":{"type":"Point","coordinates":[2.97577,49.35438]},"properties":{"nom":"Camping Le Coeur de la Forêt","sub":"Camping","cm":"60350#Pierrefonds","web":"https://www.lecoeurdelaforet.fr/","uri":"https://data.datatourisme.fr/28/69f3687e-adc1-382f-b882-ca4096a004fb","dept":"60","reg":"hdf"}},{"type":"Feature","geometry":{"type":"Point","coordinates":[2.79047,49.39678]},"properties":{"nom":"Ibis Compiègne","sub":"HotelRestaurant","cm":"60200#Compiègne","web":"https://bit.ly/ibis-compiegne","uri":"https://data.datatourisme.fr/28/6e0453fe-29bd-34b8-a919-3a20c2449932","dept":"60","reg":"hdf"}},{"type":"Feature","geometry":{"type":"Point","coordinates":[2.59024,49.20512]},"properties":{"nom":"La Porte Bellon","sub":"HotelRestaurant","cm":"60300#Senlis","web":"https://www.portebellon.fr/","uri":"https://data.datatourisme.fr/28/d7f30685-dc06-39b4-997b-99c4f63faf07","dept":"60","reg":"hdf"}},{"type":"Feature","geometry":{"type":"Point","coordinates":[2.7643,49.311]},"properties":{"nom":"La Roche","sub":"LodgingBusiness","cm":"60410#Saintines","web":"https://www.laroche-saintines.com/","uri":"https://data.datatourisme.fr/28/09973cad-90dd-3204-b7ad-17fb94d641ea","dept":"60","reg":"hdf"}},{"type":"Feature","geometry":{"type":"Point","coordinates":[2.35371,49.28669]},"properties":{"nom":"Camping Parc naturel de week-end","sub":"Camping","cm":"60660#Cires-lès-Mello","web":"https://www.parcnatureldeweekend.fr/","uri":"https://data.datatourisme.fr/28/7ffb4ada-f528-36fd-a92c-61ecade7f752","dept":"60","reg":"hdf"}},{"type":"Feature","geometry":{"type":"Point","coordinates":[2.36629,49.27235]},"properties":{"nom":"Le château des saveurs","sub":"HotelRestaurant","cm":"60660#Mello","web":null,"uri":"https://data.datatourisme.fr/28/8b08472a-fadc-3386-b13b-fa78eafbd4c7","dept":"60","reg":"hdf"}},{"type":"Feature","geometry":{"type":"Point","coordinates":[1.99236,49.53656]},"properties":{"nom":"Le Moulin des Forges","sub":"HotelRestaurant","cm":"60860#Saint-Omer-en-Chaussée","web":"http://www.lemoulindesforges.com/","uri":"https://data.datatourisme.fr/28/9597aff6-fd13-36c4-a866-cb6609feea1c","dept":"60","reg":"hdf"}},{"type":"Feature","geometry":{"type":"Point","coordinates":[2.97731,49.34945]},"properties":{"nom":"Hôtel Le Beaudon","sub":"HotelRestaurant","cm":"60350#Pierrefonds","web":"http://www.hotel-pierrefonds.com/","uri":"https://data.datatourisme.fr/28/c3b4ec94-f03f-37b5-9336-3d551666ff60","dept":"60","reg":"hdf"}},{"type":"Feature","geometry":{"type":"Point","coordinates":[2.97731,49.34945]},"properties":{"nom":"Le Beaudon - Réunions & Séminaires","sub":"Rental","cm":"60350#Pierrefonds","web":"http://www.hotel-pierrefonds.com/","uri":"https://data.datatourisme.fr/28/2939aaf3-ce87-3b13-8937-be3d2152ffdd","dept":"60","reg":"hdf"}},{"type":"Feature","geometry":{"type":"Point","coordinates":[2.08331,49.43184]},"properties":{"nom":"Hôtel de la Cathédrale","sub":"HotelRestaurant","cm":"60000#Beauvais","web":"http://www.hoteldelacathedrale.fr/","uri":"https://data.datatourisme.fr/28/c96279e4-2253-34fa-96b9-eb093c2e3cea","dept":"60","reg":"hdf"}},{"type":"Feature","geometry":{"type":"Point","coordinates":[2.78543,49.38043]},"properties":{"nom":"Mercure Compiègne Sud","sub":"HotelRestaurant","cm":"60610#Lacroix-Saint-Ouen","web":"https://www.mercure-compiegne-sud.com/","uri":"https://data.datatourisme.fr/28/d6bd7b05-7195-3e21-a149-d6766911965d","dept":"60","reg":"hdf"}},{"type":"Feature","geometry":{"type":"Point","coordinates":[2.82381,49.42133]},"properties":{"nom":"Hôtel du Nord","sub":"HotelRestaurant","cm":"60200#Compiègne","web":"http://www.hoteldunordcompiegne.com/","uri":"https://data.datatourisme.fr/28/e9bfdbe2-6afd-3d02-918a-1f295d1d62bd","dept":"60","reg":"hdf"}},{"type":"Feature","geometry":{"type":"Point","coordinates":[2.82278,49.42135]},"properties":{"nom":"Hôtel du Nord","sub":"Hotel","cm":"60200#Compiègne","web":"http://www.hoteldunordcompiegne.com/","uri":"https://data.datatourisme.fr/28/22592b92-f2a5-3047-87a8-5b4b2e559c20","dept":"60","reg":"hdf"}},{"type":"Feature","geometry":{"type":"Point","coordinates":[2.61252,49.21823]},"properties":{"nom":"L'Aunette Cottage","sub":"Hotel","cm":"60300#Chamant","web":"http://launettecottage.fr/","uri":"https://data.datatourisme.fr/28/81259504-9161-3fe5-aea1-61750ae51398","dept":"60","reg":"hdf"}},{"type":"Feature","geometry":{"type":"Point","coordinates":[2.98924,49.58158]},"properties":{"nom":"Ibis Budget","sub":"Hotel","cm":"60400#Noyon","web":"https://www.accorhotels.com/fr/hotel-7283-ibis-budget-noyon/index.shtml","uri":"https://data.datatourisme.fr/28/7c2b1e98-2fa5-3bc2-a290-64ef6b3a0ab9","dept":"60","reg":"hdf"}},{"type":"Feature","geometry":{"type":"Point","coordinates":[1.78876,49.29025]},"properties":{"nom":"Les Yourtes des Templiers","sub":"BedAndBreakfast","cm":"60590#Trie-Château","web":"https://www.levillagedestempliers.com/","uri":"https://data.datatourisme.fr/28/7453d878-4f91-3b29-a441-2eda6fd35164","dept":"60","reg":"hdf"}},{"type":"Feature","geometry":{"type":"Point","coordinates":[1.82498,49.24949]},"properties":{"nom":"Gîte du Cornouiller","sub":"LodgingBusiness","cm":"60240#Delincourt","web":"https://www.gites-de-france-oise.fr/","uri":"https://data.datatourisme.fr/28/858a047c-7c9f-3ced-99f7-183776784f56","dept":"60","reg":"hdf"}},{"type":"Feature","geometry":{"type":"Point","coordinates":[2.07997,49.44514]},"properties":{"nom":"Au Nid du Thil Studio Jardin","sub":"LodgingBusiness","cm":"60000#Beauvais","web":"http://www.auniduthil.fr/","uri":"https://data.datatourisme.fr/28/68006ba5-a3e6-34a0-b632-d9a33423cd39","dept":"60","reg":"hdf"}},{"type":"Feature","geometry":{"type":"Point","coordinates":[2.07994,49.44517]},"properties":{"nom":"Au Nid du Thil Studio Rue","sub":"LodgingBusiness","cm":"60000#Beauvais","web":"http://www.auniduthil.fr/","uri":"https://data.datatourisme.fr/28/9d6f1694-240b-32b5-b89b-12d286294b01","dept":"60","reg":"hdf"}},{"type":"Feature","geometry":{"type":"Point","coordinates":[2.07999,49.44517]},"properties":{"nom":"Au nid du Thil","sub":"BedAndBreakfast","cm":"60000#Beauvais","web":"http://www.auniduthil.fr/","uri":"https://data.datatourisme.fr/28/bba388c5-1886-35ca-8960-7b3765d357b3","dept":"60","reg":"hdf"}},{"type":"Feature","geometry":{"type":"Point","coordinates":[2.11224,49.41018]},"properties":{"nom":"F1 Beauvais","sub":"Hotel","cm":"60000#Beauvais","web":"https://all.accor.com/hotel/2225/index.fr.shtml","uri":"https://data.datatourisme.fr/28/6f7af77e-e48a-3e99-9cdb-c4d01b407b90","dept":"60","reg":"hdf"}},{"type":"Feature","geometry":{"type":"Point","coordinates":[2.82485,49.41997]},"properties":{"nom":"Alfred Hotels","sub":"Hotel","cm":"60200#Compiègne","web":"https://alfredhotels.com/fr/compiegne","uri":"https://data.datatourisme.fr/28/61a7167c-fee0-3d50-b911-1e5d1bf223b7","dept":"60","reg":"hdf"}},{"type":"Feature","geometry":{"type":"Point","coordinates":[2.82346,49.41932]},"properties":{"nom":"Hôtel de Harlay","sub":"Hotel","cm":"60200#Compiègne","web":"https://hotel-compiegne.net/","uri":"https://data.datatourisme.fr/28/704a5393-6c88-3629-ae8d-cfb1041d7d59","dept":"60","reg":"hdf"}},{"type":"Feature","geometry":{"type":"Point","coordinates":[2.78589,49.38718]},"properties":{"nom":"Kyriad Prestige","sub":"Hotel","cm":"60200#Compiègne","web":"https://compiegne.kyriad.com/fr-fr","uri":"https://data.datatourisme.fr/28/820dcd8c-aece-387c-b820-45c477e9a169","dept":"60","reg":"hdf"}},{"type":"Feature","geometry":{"type":"Point","coordinates":[2.82521,49.41984]},"properties":{"nom":"Ibis Budget Compiègne Centre","sub":"Hotel","cm":"60200#Compiègne","web":"https://bit.ly/ibis-centre","uri":"https://data.datatourisme.fr/28/896a717e-9642-3eae-94ba-0330e6271b46","dept":"60","reg":"hdf"}},{"type":"Feature","geometry":{"type":"Point","coordinates":[2.28163,49.34846]},"properties":{"nom":"Le Chalet du Lac","sub":"BedAndBreakfast","cm":"60370#Saint-Félix","web":"http://www.villalesirisstfelix.fr/","uri":"https://data.datatourisme.fr/28/8aefb843-df99-37bb-bdb5-e912372b7584","dept":"60","reg":"hdf"}},{"type":"Feature","geometry":{"type":"Point","coordinates":[2.49434,49.28752]},"properties":{"nom":"Lin et l'hôte","sub":"LodgingBusiness","cm":"60870#Villers-Saint-Paul","web":"http://www.linetlhote.fr/","uri":"https://data.datatourisme.fr/28/90736a8c-56f8-3ec3-9ea6-da6ecc32945f","dept":"60","reg":"hdf"}},{"type":"Feature","geometry":{"type":"Point","coordinates":[2.31971,49.31913]},"properties":{"nom":"La Source Tranquille","sub":"LodgingBusiness","cm":"60250#Mouy","web":"http://www.lasourcetranquille.com/","uri":"https://data.datatourisme.fr/28/90e53c83-6f13-3984-8dc8-8c2fb1f1704e","dept":"60","reg":"hdf"}},{"type":"Feature","geometry":{"type":"Point","coordinates":[2.85525,49.12259]},"properties":{"nom":"La Pommeraie","sub":"LodgingBusiness","cm":"60440#Chèvreville","web":"https://sennevieres.com/","uri":"https://data.datatourisme.fr/28/913af85c-5dc0-32d3-990a-49826a5cfb06","dept":"60","reg":"hdf"}},{"type":"Feature","geometry":{"type":"Point","coordinates":[2.01499,49.57979]},"properties":{"nom":"Gîte de l'Aube Epine","sub":"LodgingBusiness","cm":"60690#Haute-Épine","web":"http://www.aubeepine.com/","uri":"https://data.datatourisme.fr/28/91b80f77-4ded-365d-a461-a3d817d2f24c","dept":"60","reg":"hdf"}},{"type":"Feature","geometry":{"type":"Point","coordinates":[2.19159,49.58225]},"properties":{"nom":"De Terre et de Chanvre","sub":"LodgingBusiness","cm":"60480#Puits-la-Vallée","web":"http://www.entredeuxvents.izispot.com/","uri":"https://data.datatourisme.fr/28/92df74bb-796c-30cf-bb13-cd4f6ae46490","dept":"60","reg":"hdf"}},{"type":"Feature","geometry":{"type":"Point","coordinates":[2.9668,49.40042]},"properties":{"nom":"A l'agréable séjour","sub":"LodgingBusiness","cm":"60350#Trosly-Breuil","web":"http://www.gite-trosly-breuil.com/","uri":"https://data.datatourisme.fr/28/9722978e-0003-366e-9576-4d314a6d4c8c","dept":"60","reg":"hdf"}},{"type":"Feature","geometry":{"type":"Point","coordinates":[2.83121,49.52964]},"properties":{"nom":"Les Setiers I - Rouge Factory","sub":"LodgingBusiness","cm":"60157#Élincourt-Sainte-Marguerite","web":null,"uri":"https://data.datatourisme.fr/28/973af8a2-824a-341f-b12b-afc86d5f9ccf","dept":"60","reg":"hdf"}},{"type":"Feature","geometry":{"type":"Point","coordinates":[1.87102,49.58139]},"properties":{"nom":"Gîte du tilleul","sub":"LodgingBusiness","cm":"60380#Morvillers","web":"https://www.gites-de-france-oise.fr/","uri":"https://data.datatourisme.fr/28/9adff815-2255-344a-be8e-07a09db8b931","dept":"60","reg":"hdf"}},{"type":"Feature","geometry":{"type":"Point","coordinates":[2.6769,49.49193]},"properties":{"nom":"Gîte de l'Aronde","sub":"LodgingBusiness","cm":"60190#Gournay-sur-Aronde","web":null,"uri":"https://data.datatourisme.fr/28/9cfab186-1d41-3fc1-a097-8a1c90f3f24e","dept":"60","reg":"hdf"}},{"type":"Feature","geometry":{"type":"Point","coordinates":[2.4265,49.22457]},"properties":{"nom":"Campix","sub":"Camping","cm":"60340#Saint-Leu-d'Esserent","web":"http://www.campingcampix.com/","uri":"https://data.datatourisme.fr/28/cc2a02e5-f710-3148-926f-033f11ec5028","dept":"60","reg":"hdf"}},{"type":"Feature","geometry":{"type":"Point","coordinates":[2.49983,49.28876]},"properties":{"nom":"Ibis Creil-Villers Saint Paul","sub":"HotelRestaurant","cm":"60870#Villers-Saint-Paul","web":"https://all.accor.com/hotel/5951/index.fr.shtml?dateIn=&nights=&compositions=1&stayplus=false#origin=ibis","uri":"https://data.datatourisme.fr/28/f0c53300-1479-3191-9b09-6692ee0251ea","dept":"60","reg":"hdf"}},{"type":"Feature","geometry":{"type":"Point","coordinates":[2.49964,49.28869]},"properties":{"nom":"Ibis Villers Saint Paul","sub":"Hotel","cm":"60870#Villers-Saint-Paul","web":"http://www.ibishotel.com/","uri":"https://data.datatourisme.fr/28/7257363b-2fad-359d-9dea-8faec0831af6","dept":"60","reg":"hdf"}},{"type":"Feature","geometry":{"type":"Point","coordinates":[2.49961,49.28859]},"properties":{"nom":"Ibis Creil Sur Oise","sub":"HotelRestaurant","cm":"60870#Villers-Saint-Paul","web":"https://all.accor.com/hotel/5951/index.fr.shtml","uri":"https://data.datatourisme.fr/28/dbf3908b-bd3c-3f63-a677-4475263ae33a","dept":"60","reg":"hdf"}},{"type":"Feature","geometry":{"type":"Point","coordinates":[2.515,49.19738]},"properties":{"nom":"Le Grand Pavillon Chantilly","sub":"HotelRestaurant","cm":"60500#Vineuil-Saint-Firmin","web":"https://legrandpavillonchantilly.com/fr/","uri":"https://data.datatourisme.fr/28/c1e597aa-bc75-30a7-a8c1-8594e90d515b","dept":"60","reg":"hdf"}},{"type":"Feature","geometry":{"type":"Point","coordinates":[2.42722,49.18471]},"properties":{"nom":"Château Jeanne & The Forest - Château de Montvillargenne","sub":"HotelRestaurant","cm":"60270#Gouvieux","web":"https://www.jeanneandtheforest.com/","uri":"https://data.datatourisme.fr/28/d098af4f-8426-3e9f-82e5-7977b995bd80","dept":"60","reg":"hdf"}},{"type":"Feature","geometry":{"type":"Point","coordinates":[2.42714,49.18466]},"properties":{"nom":"Château Jeanne & the Forest","sub":"Hotel","cm":"60270#Gouvieux","web":"https://www.jeanneandtheforest.com/?gad_source=1&gclid=Cj0KCQiA7OqrBhD9ARIsAK3UXh2WCg9npFimxbN0UY2K_GbRaGdgu1SRfsxllSq0xeFv5hMsjuzuFQkaAmHcEALw_wcB","uri":"https://data.datatourisme.fr/28/23884de9-0342-391b-befd-80a04f13b5c2","dept":"60","reg":"hdf"}},{"type":"Feature","geometry":{"type":"Point","coordinates":[2.40211,49.20145]},"properties":{"nom":"Hostellerie du Pavillon Saint Hubert","sub":"HotelRestaurant","cm":"60270#Gouvieux","web":"https://www.pavillon-saint-hubert.com/","uri":"https://data.datatourisme.fr/28/d70c6bb0-ad97-38d3-861b-e4043aa89ff5","dept":"60","reg":"hdf"}},{"type":"Feature","geometry":{"type":"Point","coordinates":[2.40384,49.19945]},"properties":{"nom":"Domaine Saint Michel","sub":"Camping","cm":"60270#Gouvieux","web":null,"uri":"https://data.datatourisme.fr/28/f70af1f6-bc8f-30f4-9d9a-a15be7a92dfe","dept":"60","reg":"hdf"}},{"type":"Feature","geometry":{"type":"Point","coordinates":[2.53451,49.1276]},"properties":{"nom":"InterContinental Chantilly Château Mont Royal","sub":"HotelRestaurant","cm":"60520#La Chapelle-en-Serval","web":"https://chantilly.intercontinental.com/","uri":"https://data.datatourisme.fr/28/fcb14f2e-6a3f-33f7-b8f2-fb40e832996b","dept":"60","reg":"hdf"}},{"type":"Feature","geometry":{"type":"Point","coordinates":[1.84604,49.24437]},"properties":{"nom":"Domaine de Saint-Germer","sub":"Hotel","cm":"60240#Reilly","web":"http://www.stgermer.reilly.fr/","uri":"https://data.datatourisme.fr/28/4d1589bf-7bf0-32ea-a364-ac605fec745c","dept":"60","reg":"hdf"}},{"type":"Feature","geometry":{"type":"Point","coordinates":[1.99061,49.26259]},"properties":{"nom":"Le Moulin de la Noué","sub":"Camping","cm":"60240#Senots","web":"http://www.camping-lemoulindelanoue.com/","uri":"https://data.datatourisme.fr/28/e834a61c-286d-3f21-8702-57c6c2a4c3a3","dept":"60","reg":"hdf"}},{"type":"Feature","geometry":{"type":"Point","coordinates":[2.85413,49.2362]},"properties":{"nom":"Casa Juno","sub":"LodgingBusiness","cm":"60800#Duvy","web":"https://casa-juno.com/","uri":"https://data.datatourisme.fr/28/5c37b6d2-3574-325a-b991-873441ea8c98","dept":"60","reg":"hdf"}},{"type":"Feature","geometry":{"type":"Point","coordinates":[2.72634,49.3107]},"properties":{"nom":"Le Clos des Tilleuls","sub":"BedAndBreakfast","cm":"60410#Verberie","web":"http://chambre-hotes-verberie-oise.com/","uri":"https://data.datatourisme.fr/28/15335c6e-e8e0-327e-9f36-e12532d12f0f","dept":"60","reg":"hdf"}},{"type":"Feature","geometry":{"type":"Point","coordinates":[1.82009,49.33512]},"properties":{"nom":"Gîte aux hirondelles","sub":"LodgingBusiness","cm":"60590#Flavacourt","web":null,"uri":"https://data.datatourisme.fr/28/161cce6a-fa8d-38fc-b5d3-0357a7e321c9","dept":"60","reg":"hdf"}},{"type":"Feature","geometry":{"type":"Point","coordinates":[2.71166,49.55211]},"properties":{"nom":"Gîte du verger","sub":"LodgingBusiness","cm":"60490#Cuvilly","web":"https://www.gites-de-france-oise.fr/","uri":"https://data.datatourisme.fr/28/166d1335-036c-3455-a98c-46043fa208d7","dept":"60","reg":"hdf"}},{"type":"Feature","geometry":{"type":"Point","coordinates":[2.71166,49.55211]},"properties":{"nom":"Gîte l'Orangerie","sub":"LodgingBusiness","cm":"60490#Cuvilly","web":"https://www.gites-de-france-oise.fr/","uri":"https://data.datatourisme.fr/28/8044a640-3886-3b46-95ce-ea643557b834","dept":"60","reg":"hdf"}},{"type":"Feature","geometry":{"type":"Point","coordinates":[2.69781,49.12769]},"properties":{"nom":"Le Cornouiller","sub":"LodgingBusiness","cm":"60950#Ermenonville","web":null,"uri":"https://data.datatourisme.fr/28/17130c82-5ef3-362d-b246-5288671ccffe","dept":"60","reg":"hdf"}},{"type":"Feature","geometry":{"type":"Point","coordinates":[1.76881,49.56803]},"properties":{"nom":"Gîte de Torcy","sub":"LodgingBusiness","cm":"60380#Fontenay-Torcy","web":"https://www.gites-de-france-oise.fr/","uri":"https://data.datatourisme.fr/28/1ad8979b-d7fa-3475-8e15-59503f288dd1","dept":"60","reg":"hdf"}},{"type":"Feature","geometry":{"type":"Point","coordinates":[2.14276,49.52946]},"properties":{"nom":"Au2 Maison d'Hôtes","sub":"BedAndBreakfast","cm":"60480#Muidorge","web":"http://www.au2-maisondhotes.com/","uri":"https://data.datatourisme.fr/28/1cb560e3-d3ac-3fe0-862c-7f5110ed0156","dept":"60","reg":"hdf"}},{"type":"Feature","geometry":{"type":"Point","coordinates":[2.16936,49.37424]},"properties":{"nom":"Gîte les Merlettes","sub":"LodgingBusiness","cm":"60430#Abbecourt","web":"http://www.gite-lesmerlettes-beauvais-oise.fr/","uri":"https://data.datatourisme.fr/28/22a7ac52-54c6-3e8a-af82-31aaef2e99ba","dept":"60","reg":"hdf"}},{"type":"Feature","geometry":{"type":"Point","coordinates":[1.76624,49.57074]},"properties":{"nom":"La Normandine","sub":"LodgingBusiness","cm":"60380#Fontenay-Torcy","web":"https://www.gites-de-france-oise.fr/","uri":"https://data.datatourisme.fr/28/233e78d5-4486-39e1-9d9d-a9e29bd2932b","dept":"60","reg":"hdf"}},{"type":"Feature","geometry":{"type":"Point","coordinates":[2.01979,49.39477]},"properties":{"nom":"Cottage Nature","sub":"LodgingBusiness","cm":"60155#Saint-Léger-en-Bray","web":"http://www.domaineducolombier.com/","uri":"https://data.datatourisme.fr/28/2610bd90-7ec6-3a10-8149-22c4c2b5c6ef","dept":"60","reg":"hdf"}},{"type":"Feature","geometry":{"type":"Point","coordinates":[2.02014,49.39429]},"properties":{"nom":"Eco-Cottage","sub":"LodgingBusiness","cm":"60155#Saint-Léger-en-Bray","web":"http://www.domaineducolombier.com/","uri":"https://data.datatourisme.fr/28/2879a801-4594-335b-b26d-15c91867afd2","dept":"60","reg":"hdf"}},{"type":"Feature","geometry":{"type":"Point","coordinates":[2.01926,49.39529]},"properties":{"nom":"Le Colombier","sub":"LodgingBusiness","cm":"60155#Saint-Léger-en-Bray","web":"http://www.domaineducolombier.com/","uri":"https://data.datatourisme.fr/28/8577a451-654e-3be5-bd2d-6ac8d2e9da58","dept":"60","reg":"hdf"}},{"type":"Feature","geometry":{"type":"Point","coordinates":[2.01875,49.39495]},"properties":{"nom":"Château de Saint Léger en Bray","sub":"LodgingBusiness","cm":"60155#Saint-Léger-en-Bray","web":"http://www.domaineducolombier.com/","uri":"https://data.datatourisme.fr/28/2d7842e1-ff71-316f-b8f8-cf0cbf5bc27d","dept":"60","reg":"hdf"}},{"type":"Feature","geometry":{"type":"Point","coordinates":[2.78998,49.60574]},"properties":{"nom":"Ferme de Canny","sub":"BedAndBreakfast","cm":"60310#Canny-sur-Matz","web":null,"uri":"https://data.datatourisme.fr/28/333536e5-3d7a-39eb-938f-a14eb3f2a12d","dept":"60","reg":"hdf"}},{"type":"Feature","geometry":{"type":"Point","coordinates":[2.93076,49.55499]},"properties":{"nom":"La barrique","sub":"LodgingBusiness","cm":"60400#Ville","web":"https://www.gites-de-france-oise.fr/","uri":"https://data.datatourisme.fr/28/3345c3de-60c0-3044-974e-9efae3292650","dept":"60","reg":"hdf"}},{"type":"Feature","geometry":{"type":"Point","coordinates":[2.75978,49.37671]},"properties":{"nom":"Les Merles","sub":"LodgingBusiness","cm":"60880#Armancourt","web":null,"uri":"https://data.datatourisme.fr/28/35b26719-be2f-3b14-896e-39919e317004","dept":"60","reg":"hdf"}},{"type":"Feature","geometry":{"type":"Point","coordinates":[1.99174,49.70203]},"properties":{"nom":"Gîte de Mr et Mme Mille-Nollet","sub":"LodgingBusiness","cm":"60210#Dargies","web":"https://www.gites-de-france-oise.fr/","uri":"https://data.datatourisme.fr/28/37793322-e91b-3257-b9ef-ae5a3e23fdbf","dept":"60","reg":"hdf"}},{"type":"Feature","geometry":{"type":"Point","coordinates":[3.10018,49.65784]},"properties":{"nom":"Gîte du bois bonnard","sub":"LodgingBusiness","cm":"60640#Guiscard","web":"https://www.gites-de-france-oise.fr/","uri":"https://data.datatourisme.fr/28/3b6e071c-a61d-30fb-8f2e-1a50b886e6f9","dept":"60","reg":"hdf"}},{"type":"Feature","geometry":{"type":"Point","coordinates":[2.28532,49.44656]},"properties":{"nom":"Gîte de Mr et Mme Petit","sub":"LodgingBusiness","cm":"60510#Rémérangles","web":"https://www.gites-de-france-oise.fr/","uri":"https://data.datatourisme.fr/28/3bf191ad-ec0d-3727-b327-4f4a57be0d45","dept":"60","reg":"hdf"}},{"type":"Feature","geometry":{"type":"Point","coordinates":[2.80835,49.2193]},"properties":{"nom":"La ferme du raguet","sub":"BedAndBreakfast","cm":"60800#Auger-Saint-Vincent","web":"http://www.lafermeduraguet.fr/","uri":"https://data.datatourisme.fr/28/426b634b-6e50-3775-b312-d1101e8d6019","dept":"60","reg":"hdf"}},{"type":"Feature","geometry":{"type":"Point","coordinates":[2.67406,49.57052]},"properties":{"nom":"Le Marronnier","sub":"LodgingBusiness","cm":"60490#Mortemer","web":null,"uri":"https://data.datatourisme.fr/28/44b23741-f5e8-36ea-86fa-99c22ab24c7c","dept":"60","reg":"hdf"}},{"type":"Feature","geometry":{"type":"Point","coordinates":[2.67957,49.57039]},"properties":{"nom":"Gîte de Mr Flon","sub":"LodgingBusiness","cm":"60490#Mortemer","web":"https://www.gites-de-france-oise.fr/","uri":"https://data.datatourisme.fr/28/48242c5f-150a-32d4-8bd6-bf93f2ebec84","dept":"60","reg":"hdf"}},{"type":"Feature","geometry":{"type":"Point","coordinates":[2.16629,49.26237]},"properties":{"nom":"Le clos Saint-Pierre","sub":"LodgingBusiness","cm":"60570#Andeville","web":"https://www.gites-de-france-oise.fr/","uri":"https://data.datatourisme.fr/28/48badc4a-1156-335c-9a7f-a835e438ad62","dept":"60","reg":"hdf"}},{"type":"Feature","geometry":{"type":"Point","coordinates":[2.73358,49.17259]},"properties":{"nom":"Les Marronniers","sub":"LodgingBusiness","cm":"60300#Baron","web":"https://www.legitelesmarronniers.fr/","uri":"https://data.datatourisme.fr/28/097bf76d-3c2d-3ab5-83a5-8d784d8fcfe2","dept":"60","reg":"hdf"}},{"type":"Feature","geometry":{"type":"Point","coordinates":[2.46579,49.19393]},"properties":{"nom":"Le Chantilly","sub":"Hotel","cm":"60500#Chantilly","web":"http://www.hotel-lechantilly.com/","uri":"https://data.datatourisme.fr/28/22f0cbe8-6ca0-3ce7-bacc-e820586e150c","dept":"60","reg":"hdf"}},{"type":"Feature","geometry":{"type":"Point","coordinates":[2.46289,49.19034]},"properties":{"nom":"Best Western Plus - Hôtel du Parc","sub":"Hotel","cm":"60500#Chantilly","web":"http://www.hotel-parc-chantilly.com/","uri":"https://data.datatourisme.fr/28/23206a6c-b0d9-33b5-81b3-b75a73364b27","dept":"60","reg":"hdf"}},{"type":"Feature","geometry":{"type":"Point","coordinates":[2.46295,49.19039]},"properties":{"nom":"Hôtel du Parc Best Western Chantilly","sub":"Hotel","cm":"60500#Chantilly","web":"http://www.hotel-parc-chantilly.com/","uri":"https://data.datatourisme.fr/28/caafeea2-2b03-3b0f-ae22-8b245b527f61","dept":"60","reg":"hdf"}},{"type":"Feature","geometry":{"type":"Point","coordinates":[2.60566,49.20758]},"properties":{"nom":"Ibis Budget Senlis","sub":"Hotel","cm":"60300#Senlis","web":"https://all.accor.com/hotel/3180/index.fr.shtml?dateIn=&nights=&compositions=1&stayplus=false#origin=ibis","uri":"https://data.datatourisme.fr/28/36f9bd1f-fac9-399e-b738-8965856c414b","dept":"60","reg":"hdf"}},{"type":"Feature","geometry":{"type":"Point","coordinates":[2.46004,49.20301]},"properties":{"nom":"Kyriad Chantilly","sub":"Hotel","cm":"60500#Chantilly","web":"http://www.kyriad-chantilly.fr/fr","uri":"https://data.datatourisme.fr/28/43990cc4-2143-3e15-890e-e1f6e11d6636","dept":"60","reg":"hdf"}},{"type":"Feature","geometry":{"type":"Point","coordinates":[1.9016,49.30447]},"properties":{"nom":"La Cabane à Chouette","sub":"LodgingBusiness","cm":"60240#Thibivillers","web":null,"uri":"https://data.datatourisme.fr/28/02a5fc5c-8185-39a0-a839-3e0865e52856","dept":"60","reg":"hdf"}},{"type":"Feature","geometry":{"type":"Point","coordinates":[1.83167,49.20528]},"properties":{"nom":"Les fleurs en liberté","sub":"LodgingBusiness","cm":"60240#Serans","web":"https://fleursenliberte.fr/","uri":"https://data.datatourisme.fr/28/161fcabe-3381-35eb-b0c4-3fc93657112a","dept":"60","reg":"hdf"}},{"type":"Feature","geometry":{"type":"Point","coordinates":[1.85609,49.18402]},"properties":{"nom":"Gite du Haut Clocher","sub":"LodgingBusiness","cm":"60240#Hadancourt-le-Haut-Clocher","web":null,"uri":"https://data.datatourisme.fr/28/378f5a06-f0ec-3857-be43-b522995931fa","dept":"60","reg":"hdf"}},{"type":"Feature","geometry":{"type":"Point","coordinates":[2.42973,49.19003]},"properties":{"nom":"L'Écrin, le restaurant du Château de la Tour","sub":"HotelRestaurant","cm":"60270#Gouvieux","web":"https://www.lechateaudelatour.fr/fr/restaurant-bar-gouvieux-chantilly/presentation","uri":"https://data.datatourisme.fr/28/c9aa3acd-526b-307a-99d6-c403c409b74f","dept":"60","reg":"hdf"}},{"type":"Feature","geometry":{"type":"Point","coordinates":[2.42973,49.19003]},"properties":{"nom":"La Causerie, le bar du Château de la Tour","sub":"HotelRestaurant","cm":"60270#Gouvieux","web":"https://www.lechateaudelatour.fr/fr/restaurant-bar-gouvieux-chantilly/presentation","uri":"https://data.datatourisme.fr/28/c9c02d21-c7c6-3137-b401-95c786d6a1f3","dept":"60","reg":"hdf"}},{"type":"Feature","geometry":{"type":"Point","coordinates":[3.00072,49.58017]},"properties":{"nom":"Gîte de la Ronsardière","sub":"LodgingBusiness","cm":"60400#Noyon","web":"http://tourisme.noyon.free.fr/","uri":"https://data.datatourisme.fr/28/d3168a49-192f-3f33-98ea-048e2bd6dcb2","dept":"60","reg":"hdf"}},{"type":"Feature","geometry":{"type":"Point","coordinates":[2.86504,49.08142]},"properties":{"nom":"La Résidence 03 (BRE603)","sub":"LodgingBusiness","cm":"60440#Brégy","web":"https://www.teyowellcome.fr/","uri":"https://data.datatourisme.fr/28/903dd661-3762-3700-adbc-6934873e96af","dept":"60","reg":"hdf"}},{"type":"Feature","geometry":{"type":"Point","coordinates":[2.86504,49.08142]},"properties":{"nom":"La Résidence 09 (BRE609)","sub":"LodgingBusiness","cm":"60440#Brégy","web":"https://www.teyowellcome.fr/","uri":"https://data.datatourisme.fr/28/9cd7ae10-6cc9-3c92-be2f-61660d6065a7","dept":"60","reg":"hdf"}},{"type":"Feature","geometry":{"type":"Point","coordinates":[2.86504,49.08142]},"properties":{"nom":"La Résidence 01 (BRE601)","sub":"LodgingBusiness","cm":"60440#Brégy","web":"https://www.teyowellcome.fr/","uri":"https://data.datatourisme.fr/28/b9ae1e93-042f-3c02-89da-3b8bc127dc3f","dept":"60","reg":"hdf"}},{"type":"Feature","geometry":{"type":"Point","coordinates":[2.86504,49.08142]},"properties":{"nom":"La Résidence 10 (BRE610)","sub":"LodgingBusiness","cm":"60440#Brégy","web":"https://www.teyowellcome.fr/","uri":"https://data.datatourisme.fr/28/c298f0b4-337c-3d4f-9930-8117071bd5fc","dept":"60","reg":"hdf"}},{"type":"Feature","geometry":{"type":"Point","coordinates":[2.86504,49.08142]},"properties":{"nom":"La Résidence 07 (BRE607)","sub":"LodgingBusiness","cm":"60440#Brégy","web":"https://www.teyowellcome.fr/","uri":"https://data.datatourisme.fr/28/d5e32490-089e-37cd-bc6f-a69fa9a7b2c3","dept":"60","reg":"hdf"}},{"type":"Feature","geometry":{"type":"Point","coordinates":[2.86504,49.08142]},"properties":{"nom":"La Résidence 04 (BRE604)","sub":"LodgingBusiness","cm":"60440#Brégy","web":"https://www.teyowellcome.fr/","uri":"https://data.datatourisme.fr/28/e5dc67f9-cd4f-344d-99e2-782770d0e269","dept":"60","reg":"hdf"}},{"type":"Feature","geometry":{"type":"Point","coordinates":[2.86504,49.08142]},"properties":{"nom":"La Résidence 05 (BRE605)","sub":"LodgingBusiness","cm":"60440#Brégy","web":"https://www.teyowellcome.fr/","uri":"https://data.datatourisme.fr/28/eef0ac10-dd83-3dfd-ab43-b6b6d9bc07ee","dept":"60","reg":"hdf"}},{"type":"Feature","geometry":{"type":"Point","coordinates":[2.86504,49.08142]},"properties":{"nom":"La Résidence 08 (BRE608)","sub":"LodgingBusiness","cm":"60440#Brégy","web":"https://www.teyowellcome.fr/","uri":"https://data.datatourisme.fr/28/f006a750-1e1f-37df-93fe-e663b7998362","dept":"60","reg":"hdf"}},{"type":"Feature","geometry":{"type":"Point","coordinates":[2.86504,49.08142]},"properties":{"nom":"La Résidence 06 (BRE606)","sub":"LodgingBusiness","cm":"60440#Brégy","web":"https://www.teyowellcome.fr/","uri":"https://data.datatourisme.fr/28/46108189-9f1c-339d-b75d-f39dc6b8b609","dept":"60","reg":"hdf"}},{"type":"Feature","geometry":{"type":"Point","coordinates":[2.86504,49.08142]},"properties":{"nom":"La Résidence 02 (BRE602)","sub":"LodgingBusiness","cm":"60440#Brégy","web":"https://www.teyowellcome.fr/","uri":"https://data.datatourisme.fr/28/70280e69-c932-35ae-b585-8f2e72d7a9f3","dept":"60","reg":"hdf"}},{"type":"Feature","geometry":{"type":"Point","coordinates":[2.86504,49.08142]},"properties":{"nom":"La Résidence 11 (BRE611)","sub":"LodgingBusiness","cm":"60440#Brégy","web":"https://www.teyowellcome.fr/","uri":"https://data.datatourisme.fr/28/5cd47ae1-d11d-3e56-99b2-80b1ca3e230b","dept":"60","reg":"hdf"}},{"type":"Feature","geometry":{"type":"Point","coordinates":[2.16149,49.28643]},"properties":{"nom":"Chez le Petit Peintre","sub":"LodgingBusiness","cm":"60570#Laboissière-en-Thelle","web":null,"uri":"https://data.datatourisme.fr/28/1b4ff160-7b3c-3236-a63f-994d469ffb0f","dept":"60","reg":"hdf"}},{"type":"Feature","geometry":{"type":"Point","coordinates":[3.01569,49.5997]},"properties":{"nom":"La Petite Maison","sub":"LodgingBusiness","cm":"60400#Noyon","web":null,"uri":"https://data.datatourisme.fr/28/a59af1ce-3ebd-3668-83e0-c6e8eac801ac","dept":"60","reg":"hdf"}},{"type":"Feature","geometry":{"type":"Point","coordinates":[3.01139,49.48265]},"properties":{"nom":"La Maison Basse","sub":"LodgingBusiness","cm":"60170#Tracy-le-Val","web":"http://www.domaineduboissaintmard.fr/","uri":"https://data.datatourisme.fr/28/9aca8db4-0d54-3503-80ce-6b3005e19f3d","dept":"60","reg":"hdf"}},{"type":"Feature","geometry":{"type":"Point","coordinates":[2.79985,49.41813]},"properties":{"nom":"Les Tourterelles : Gîte des Tourterelles","sub":"LodgingBusiness","cm":"60280#Venette","web":"http://gite-compiegne-tourterelles.com/","uri":"https://data.datatourisme.fr/28/104a7e9e-3a35-300b-8b92-75c824185d50","dept":"60","reg":"hdf"}},{"type":"Feature","geometry":{"type":"Point","coordinates":[2.79985,49.41813]},"properties":{"nom":"Les Tourterelles : Gîte de Corbeaulieu","sub":"LodgingBusiness","cm":"60280#Venette","web":"http://gite-compiegne-tourterelles.com/","uri":"https://data.datatourisme.fr/28/9cb53a78-6a4c-3b51-b6a4-efceedb2915b","dept":"60","reg":"hdf"}},{"type":"Feature","geometry":{"type":"Point","coordinates":[2.79985,49.41813]},"properties":{"nom":"Les Tourterelles : Gîte des Carreaux","sub":"LodgingBusiness","cm":"60280#Venette","web":"http://gite-compiegne-tourterelles.com/","uri":"https://data.datatourisme.fr/28/fe6db54a-dd28-3513-b50b-62d0d414495a","dept":"60","reg":"hdf"}},{"type":"Feature","geometry":{"type":"Point","coordinates":[2.8037,49.29624]},"properties":{"nom":"Le Moulin Joli","sub":"LodgingBusiness","cm":"60320#Béthisy-Saint-Pierre","web":"https://www.gites-de-france-oise.fr/","uri":"https://data.datatourisme.fr/28/0cc58a90-1784-39c1-8c5a-bf6058715464","dept":"60","reg":"hdf"}},{"type":"Feature","geometry":{"type":"Point","coordinates":[2.8037,49.29624]},"properties":{"nom":"La Maison  du Moulin Joli","sub":"LodgingBusiness","cm":"60320#Béthisy-Saint-Pierre","web":"https://www.gites-de-france-oise.fr/","uri":"https://data.datatourisme.fr/28/94ccb1fa-08e1-31f0-b83a-4df7aa68c31d","dept":"60","reg":"hdf"}},{"type":"Feature","geometry":{"type":"Point","coordinates":[3.06276,49.6355]},"properties":{"nom":"Gite de la Cidrerie","sub":"LodgingBusiness","cm":"60640#Quesmy","web":"https://www.chateaudequesmy.com/","uri":"https://data.datatourisme.fr/28/e8f949cb-0584-3e5c-af99-8fb48bff16fa","dept":"60","reg":"hdf"}},{"type":"Feature","geometry":{"type":"Point","coordinates":[3.06276,49.6355]},"properties":{"nom":"Gite de l'étang","sub":"LodgingBusiness","cm":"60640#Quesmy","web":"https://www.chateaudequesmy.com/","uri":"https://data.datatourisme.fr/28/afdfa3e7-a13c-3bc7-b392-4c2871cb6704","dept":"60","reg":"hdf"}},{"type":"Feature","geometry":{"type":"Point","coordinates":[3.06276,49.6355]},"properties":{"nom":"Gite de la Piscine","sub":"CollectiveAccommodation","cm":"60640#Quesmy","web":"https://www.chateaudequesmy.com/","uri":"https://data.datatourisme.fr/28/e1a7712e-3374-3afd-b3b2-e2d9e5a1c4f4","dept":"60","reg":"hdf"}},{"type":"Feature","geometry":{"type":"Point","coordinates":[3.01968,49.36887]},"properties":{"nom":"Moulin Royale","sub":"BedAndBreakfast","cm":"60350#Saint-Étienne-Roilaye","web":"https://moulinroyale.com/","uri":"https://data.datatourisme.fr/28/3765bc25-0517-35f9-bb3e-3e09606e305e","dept":"60","reg":"hdf"}},{"type":"Feature","geometry":{"type":"Point","coordinates":[1.96355,49.4642]},"properties":{"nom":"Au Tio Potier","sub":"LodgingBusiness","cm":"60650#Savignies","web":"https://www.gites-de-france-oise.fr/","uri":"https://data.datatourisme.fr/28/d5a7df6d-ae51-35e2-bc18-0c9f749dfc52","dept":"60","reg":"hdf"}},{"type":"Feature","geometry":{"type":"Point","coordinates":[2.9813,49.2387]},"properties":{"nom":"Lavoir 8","sub":"LodgingBusiness","cm":"60117#Vaumoise","web":"https://www.teyowellcome.fr/","uri":"https://data.datatourisme.fr/28/2cfcdeaf-0e98-330c-b556-47f8c3d1e1a1","dept":"60","reg":"hdf"}},{"type":"Feature","geometry":{"type":"Point","coordinates":[2.9813,49.2387]},"properties":{"nom":"Lavoir 9","sub":"LodgingBusiness","cm":"60117#Vaumoise","web":"https://www.teyowellcome.fr/","uri":"https://data.datatourisme.fr/28/9c6b81db-b473-37b2-8f38-6249af9e559b","dept":"60","reg":"hdf"}},{"type":"Feature","geometry":{"type":"Point","coordinates":[2.9813,49.2387]},"properties":{"nom":"Lavoir 6","sub":"LodgingBusiness","cm":"60117#Vaumoise","web":"https://www.teyowellcome.fr/","uri":"https://data.datatourisme.fr/28/bdb1bbac-e5c1-32d4-b472-02e1aa97711d","dept":"60","reg":"hdf"}},{"type":"Feature","geometry":{"type":"Point","coordinates":[2.9813,49.2387]},"properties":{"nom":"Lavoir 7","sub":"LodgingBusiness","cm":"60117#Vaumoise","web":"https://www.teyowellcome.fr/","uri":"https://data.datatourisme.fr/28/cd2bde07-dcff-3a41-a0e4-032db5edfefb","dept":"60","reg":"hdf"}},{"type":"Feature","geometry":{"type":"Point","coordinates":[2.9813,49.2387]},"properties":{"nom":"Lavoir 5","sub":"LodgingBusiness","cm":"60117#Vaumoise","web":"https://www.teyowellcome.fr/","uri":"https://data.datatourisme.fr/28/f39e3257-02b1-3eb6-b3d2-8c39fa17ed70","dept":"60","reg":"hdf"}},{"type":"Feature","geometry":{"type":"Point","coordinates":[1.8879,49.26578]},"properties":{"nom":"La Petite Chaumontoise","sub":"LodgingBusiness","cm":"60240#Chaumont-en-Vexin","web":null,"uri":"https://data.datatourisme.fr/28/d8413d1f-5148-31d3-a053-117529858201","dept":"60","reg":"hdf"}},{"type":"Feature","geometry":{"type":"Point","coordinates":[1.82008,49.28619]},"properties":{"nom":"Chez Robins, la maison","sub":"LodgingBusiness","cm":"60590#Trie-Château","web":"http://www.chezrobins.com/","uri":"https://data.datatourisme.fr/28/1772d33d-52cc-39a6-a21b-6082f42dc5aa","dept":"60","reg":"hdf"}},{"type":"Feature","geometry":{"type":"Point","coordinates":[1.82,49.28609]},"properties":{"nom":"Chez Robins, Le Duplex","sub":"LodgingBusiness","cm":"60590#Trie-Château","web":"http://www.chezrobins.com/","uri":"https://data.datatourisme.fr/28/0d92aa43-7f2f-37fd-a8be-a03ea62c8d43","dept":"60","reg":"hdf"}},{"type":"Feature","geometry":{"type":"Point","coordinates":[2.79729,49.4135]},"properties":{"nom":"Ô Cocon Spa","sub":"LodgingBusiness","cm":"60280#Venette","web":"https://ococonspa.com/","uri":"https://data.datatourisme.fr/28/8917dfdd-3831-3833-abd9-f60132720ab5","dept":"60","reg":"hdf"}},{"type":"Feature","geometry":{"type":"Point","coordinates":[2.11853,49.46378]},"properties":{"nom":"Ibis budget Beauvais aéroport","sub":"Hotel","cm":"60000#Tillé","web":"https://all.accor.com/hotel/B632/index.fr.shtml","uri":"https://data.datatourisme.fr/28/75fcb33e-65a6-3f19-ae3b-128951f97375","dept":"60","reg":"hdf"}},{"type":"Feature","geometry":{"type":"Point","coordinates":[2.91839,49.33102]},"properties":{"nom":"Re-pause pieds","sub":"BedAndBreakfast","cm":"60127#Morienval","web":null,"uri":"https://data.datatourisme.fr/28/56a72e0f-d96b-3406-9b97-d0b05e7ab1ab","dept":"60","reg":"hdf"}},{"type":"Feature","geometry":{"type":"Point","coordinates":[2.85471,49.1214]},"properties":{"nom":"Le gite bleu","sub":"LodgingBusiness","cm":"60440#Chèvreville","web":null,"uri":"https://data.datatourisme.fr/28/79111d71-885c-3e2e-a19b-e24834a072fb","dept":"60","reg":"hdf"}},{"type":"Feature","geometry":{"type":"Point","coordinates":[2.85478,49.12117]},"properties":{"nom":"Le gite rouge","sub":"LodgingBusiness","cm":"60440#Chèvreville","web":null,"uri":"https://data.datatourisme.fr/28/8f2f1042-27f2-3df0-9110-d0b1e78d2ae3","dept":"60","reg":"hdf"}},{"type":"Feature","geometry":{"type":"Point","coordinates":[2.96607,49.14677]},"properties":{"nom":"Le Bois du Valois","sub":"LodgingBusiness","cm":"60620#Betz","web":null,"uri":"https://data.datatourisme.fr/28/01aec1da-fffe-3bca-8c59-c997178ab8d4","dept":"60","reg":"hdf"}},{"type":"Feature","geometry":{"type":"Point","coordinates":[2.62884,49.36155]},"properties":{"nom":"Le Coulon","sub":"LodgingBusiness","cm":"60190#Sacy-le-Petit","web":null,"uri":"https://data.datatourisme.fr/28/b7267a2c-75a4-311a-a757-131af17bb2a6","dept":"60","reg":"hdf"}},{"type":"Feature","geometry":{"type":"Point","coordinates":[2.62884,49.36155]},"properties":{"nom":"Le P'tit Coulon","sub":"LodgingBusiness","cm":"60190#Sacy-le-Petit","web":null,"uri":"https://data.datatourisme.fr/28/9d9df871-ab6c-3dec-bdd3-48a2349a591b","dept":"60","reg":"hdf"}},{"type":"Feature","geometry":{"type":"Point","coordinates":[2.39923,49.38097]},"properties":{"nom":"Au Cèdre Bleu","sub":"BedAndBreakfast","cm":"60600#Clermont","web":null,"uri":"https://data.datatourisme.fr/28/d2c3c71f-caae-3292-91e5-e6bfbe68a079","dept":"60","reg":"hdf"}},{"type":"Feature","geometry":{"type":"Point","coordinates":[2.30158,49.34213]},"properties":{"nom":"Domaine du Château vert","sub":"Camping","cm":"60250#Hondainville","web":"https://www.domaineduchateauvert.fr/","uri":"https://data.datatourisme.fr/28/aaacf0bc-eb5e-333b-bdba-546bcf902132","dept":"60","reg":"hdf"}},{"type":"Feature","geometry":{"type":"Point","coordinates":[2.27947,49.5078]},"properties":{"nom":"Le Prieuré  Saint Rémy","sub":"LodgingBusiness","cm":"60480#Montreuil-sur-Brêche","web":null,"uri":"https://data.datatourisme.fr/28/bf99d9cd-6a07-3c57-a9e3-94d06c5adcb8","dept":"60","reg":"hdf"}},{"type":"Feature","geometry":{"type":"Point","coordinates":[2.91375,49.65856]},"properties":{"nom":"Maison familiale et rurale","sub":"CollectiveAccommodation","cm":"60310#Beaulieu-les-Fontaines","web":null,"uri":"https://data.datatourisme.fr/28/c1b4beeb-93be-313c-a1a1-19ec396eda64","dept":"60","reg":"hdf"}},{"type":"Feature","geometry":{"type":"Point","coordinates":[2.70832,49.56726]},"properties":{"nom":"Camping de Sorel","sub":"Camping","cm":"60490#Orvillers-Sorel","web":"http://www.aestiva.fr/","uri":"https://data.datatourisme.fr/28/e8af4bf1-8754-38f2-aba4-066b0cdb656c","dept":"60","reg":"hdf"}},{"type":"Feature","geometry":{"type":"Point","coordinates":[2.5714,49.13568]},"properties":{"nom":"Les Quais de Lutèce","sub":"HotelRestaurant","cm":"60128#Plailly","web":"https://www.parcasterix.fr/hotels/quais-lutece","uri":"https://data.datatourisme.fr/28/4afe3afe-bbcb-3d11-83a8-b04dd2feb34a","dept":"60","reg":"hdf"}},{"type":"Feature","geometry":{"type":"Point","coordinates":[2.03724,49.42194]},"properties":{"nom":"Les 3 Thèmes","sub":"BedAndBreakfast","cm":"60000#Goincourt","web":null,"uri":"https://data.datatourisme.fr/28/d535c233-de7a-35d8-9691-d836f0ad7738","dept":"60","reg":"hdf"}},{"type":"Feature","geometry":{"type":"Point","coordinates":[2.6787,49.46526]},"properties":{"nom":"Maisonnette de campagne","sub":"LodgingBusiness","cm":"60190#Hémévillers","web":"https://www.airbnb.fr/rooms/48143675","uri":"https://data.datatourisme.fr/28/4091e642-3184-36fd-a610-7226ec7300cf","dept":"60","reg":"hdf"}},{"type":"Feature","geometry":{"type":"Point","coordinates":[2.72765,49.38997]},"properties":{"nom":"Gite de Maya","sub":"LodgingBusiness","cm":"60680#Jonquières","web":null,"uri":"https://data.datatourisme.fr/28/12688d3e-2e33-3b14-874e-62632b17d1d1","dept":"60","reg":"hdf"}},{"type":"Feature","geometry":{"type":"Point","coordinates":[3.03671,49.35103]},"properties":{"nom":"Chez Florence et Roland","sub":"BedAndBreakfast","cm":"60350#Chelles","web":null,"uri":"https://data.datatourisme.fr/28/012b8d11-2c5e-3694-8cc7-63327a65d6ae","dept":"60","reg":"hdf"}},{"type":"Feature","geometry":{"type":"Point","coordinates":[2.1621,49.59152]},"properties":{"nom":"Gîte de la neuve rue","sub":"LodgingBusiness","cm":"60480#Oursel-Maison","web":"https://www.gites-de-france-oise.fr/","uri":"https://data.datatourisme.fr/28/0627ab69-6cc0-356a-bb29-85e980649b37","dept":"60","reg":"hdf"}},{"type":"Feature","geometry":{"type":"Point","coordinates":[3.01321,49.62372]},"properties":{"nom":"Le rimber","sub":"LodgingBusiness","cm":"60400#Crisolles","web":"https://www.gites-de-france-oise.fr/","uri":"https://data.datatourisme.fr/28/089e8da6-7d41-35ed-9257-9d8800fb2f9f","dept":"60","reg":"hdf"}},{"type":"Feature","geometry":{"type":"Point","coordinates":[2.6505,49.3008]},"properties":{"nom":"Les Gaudins","sub":"LodgingBusiness","cm":"60700#Pontpoint","web":"https://www.cybevasion.fr/gites-les-gaudins-pontpoint-e41896.html","uri":"https://data.datatourisme.fr/28/0edf7fd7-caaf-3fb4-9755-ff7bbf6d84e3","dept":"60","reg":"hdf"}},{"type":"Feature","geometry":{"type":"Point","coordinates":[2.45917,49.15312]},"properties":{"nom":"L'Orée de Chantilly","sub":"LodgingBusiness","cm":"60260#Lamorlaye","web":null,"uri":"https://data.datatourisme.fr/28/0f88641f-1d17-33f1-9fd8-616f4269bc2c","dept":"60","reg":"hdf"}},{"type":"Feature","geometry":{"type":"Point","coordinates":[1.75248,49.41186]},"properties":{"nom":"Gîte d'Ambre","sub":"LodgingBusiness","cm":"60850#Saint-Pierre-es-Champs","web":"https://www.gites-de-france-oise.fr/","uri":"https://data.datatourisme.fr/28/13170340-ff89-37d0-92a2-22b1c7eb1661","dept":"60","reg":"hdf"}},{"type":"Feature","geometry":{"type":"Point","coordinates":[1.83,49.5]},"properties":{"nom":"La verte prairie","sub":"LodgingBusiness","cm":"60650#Senantes","web":null,"uri":"https://data.datatourisme.fr/28/14d962c4-9bfd-3557-81ba-f8c8331ba55f","dept":"60","reg":"hdf"}},{"type":"Feature","geometry":{"type":"Point","coordinates":[2.61258,49.30149]},"properties":{"nom":"L'Abbaye Royale du Moncel","sub":"Rental","cm":"60700#Pontpoint","web":"https://www.abbayedumoncel.fr/","uri":"https://data.datatourisme.fr/28/5b573da5-5a58-3ef9-98e3-b8212797b6b0","dept":"60","reg":"hdf"}},{"type":"Feature","geometry":{"type":"Point","coordinates":[1.7901,49.28894]},"properties":{"nom":"Gîte des Templiers","sub":"LodgingBusiness","cm":"60590#Trie-Château","web":"https://www.levillagedestempliers.com/","uri":"https://data.datatourisme.fr/28/43f4bf9f-8220-3cca-9d43-78deb8470269","dept":"60","reg":"hdf"}},{"type":"Feature","geometry":{"type":"Point","coordinates":[2.01945,49.21175]},"properties":{"nom":"Le Clos des vignes","sub":"HotelRestaurant","cm":"60119#Neuville-Bosc","web":"http://www.leclosdesvignes.fr/","uri":"https://data.datatourisme.fr/28/49278184-330f-305c-8c55-7fbbacfe1c80","dept":"60","reg":"hdf"}},{"type":"Feature","geometry":{"type":"Point","coordinates":[2.09748,49.45215]},"properties":{"nom":"The Original City Hôtel","sub":"Hotel","cm":"60000#Beauvais","web":"http://www.cityhotel.fr/","uri":"https://data.datatourisme.fr/28/27bf13df-dc83-333b-8b09-8281a3b3de4b","dept":"60","reg":"hdf"}},{"type":"Feature","geometry":{"type":"Point","coordinates":[2.11005,49.40793]},"properties":{"nom":"B&B Hôtel Beauvais","sub":"Hotel","cm":"60000#Allonne","web":"https://www.hotel-bb.com/fr/hotel/beauvais","uri":"https://data.datatourisme.fr/28/4217d09d-f269-3bca-9b6c-1645def1f6c7","dept":"60","reg":"hdf"}},{"type":"Feature","geometry":{"type":"Point","coordinates":[2.86776,49.48399]},"properties":{"nom":"B&B Compiègne Thourotte","sub":"Hotel","cm":"60150#Thourotte","web":"https://www.hotel-bb.com/fr/hotel/compiegne-thourotte","uri":"https://data.datatourisme.fr/28/028ed93e-e2b1-3249-955b-73dcd6cedc05","dept":"60","reg":"hdf"}},{"type":"Feature","geometry":{"type":"Point","coordinates":[2.77648,49.40996]},"properties":{"nom":"Hôtel F1 Compiègne - Venette","sub":"Hotel","cm":"60280#Venette","web":"https://all.accor.com/hotel/2423/index.fr.shtml","uri":"https://data.datatourisme.fr/28/2575970d-f8d3-3a80-8c22-e05a9e9691a3","dept":"60","reg":"hdf"}},{"type":"Feature","geometry":{"type":"Point","coordinates":[2.42861,49.50888]},"properties":{"nom":"Le Manoir Enchanté","sub":"LodgingBusiness","cm":"60130#Saint-Just-en-Chaussée","web":"http://gite-compiegne-chantilly.jimdofree.com/","uri":"https://data.datatourisme.fr/28/150c2443-fd0b-392e-8fc2-5916f8730acb","dept":"60","reg":"hdf"}},{"type":"Feature","geometry":{"type":"Point","coordinates":[2.52953,49.61001]},"properties":{"nom":"Clos de Royaucourt","sub":"BedAndBreakfast","cm":"60420#Royaucourt","web":"http://www.closderoyaucourt.com/","uri":"https://data.datatourisme.fr/28/275dc9f0-4f09-358a-98f1-1de35eccc62e","dept":"60","reg":"hdf"}},{"type":"Feature","geometry":{"type":"Point","coordinates":[1.83406,49.48645]},"properties":{"nom":"Le logis bleu","sub":"LodgingBusiness","cm":"60650#Senantes","web":"http://gitesenantes.free.fr/","uri":"https://data.datatourisme.fr/28/8693d653-482c-3349-aed5-a9d61749ac17","dept":"60","reg":"hdf"}},{"type":"Feature","geometry":{"type":"Point","coordinates":[2.196,49.18429]},"properties":{"nom":"Demeure de Famille","sub":"LodgingBusiness","cm":"60540#Belle-Église","web":"https://www.gites-de-france-oise.fr/","uri":"https://data.datatourisme.fr/28/870efe3e-36af-36aa-8bf7-0c575d976f93","dept":"60","reg":"hdf"}},{"type":"Feature","geometry":{"type":"Point","coordinates":[3.05376,49.59161]},"properties":{"nom":"L'orée du bois","sub":"LodgingBusiness","cm":"60400#Salency","web":"https://www.gites-de-france-oise.fr/","uri":"https://data.datatourisme.fr/28/876de131-5d72-3830-8e9a-c73329566453","dept":"60","reg":"hdf"}},{"type":"Feature","geometry":{"type":"Point","coordinates":[1.8704,49.5165]},"properties":{"nom":"La Longère du Bout Hargneux","sub":"BedAndBreakfast","cm":"60650#Hanvoile","web":null,"uri":"https://data.datatourisme.fr/28/879a6b1d-308a-3c52-9c67-7c5e3758f926","dept":"60","reg":"hdf"}},{"type":"Feature","geometry":{"type":"Point","coordinates":[2.06277,49.68047]},"properties":{"nom":"Le Jacobus","sub":"LodgingBusiness","cm":"60210#Beaudéduit","web":null,"uri":"https://data.datatourisme.fr/28/4a04c5cf-e9e4-3dab-bf66-99ccfbb59d26","dept":"60","reg":"hdf"}},{"type":"Feature","geometry":{"type":"Point","coordinates":[2.39148,49.38909]},"properties":{"nom":"Halt Hôtel Clermont Agnetz (The Original's)","sub":"Hotel","cm":"60600#Agnetz","web":"https://www.theoriginalshotels.com/hotels/halt-hotel-clermont","uri":"https://data.datatourisme.fr/28/4e4a237c-728f-3a82-a6b1-321b22986558","dept":"60","reg":"hdf"}},{"type":"Feature","geometry":{"type":"Point","coordinates":[2.90844,49.34908]},"properties":{"nom":"Le bout du monde","sub":"LodgingBusiness","cm":"60350#Saint-Jean-aux-Bois","web":"http://www.lebdm.com/","uri":"https://data.datatourisme.fr/28/4f80ff87-7123-3da1-8c0c-e0a37028a95d","dept":"60","reg":"hdf"}},{"type":"Feature","geometry":{"type":"Point","coordinates":[2.969,49.61052]},"properties":{"nom":"La Marguerite 60","sub":"BedAndBreakfast","cm":"60400#Beaurains-lès-Noyon","web":"https://www.lamarguerite60.com/","uri":"https://data.datatourisme.fr/28/578c5895-3970-36b1-a0bb-657c1dab6a25","dept":"60","reg":"hdf"}},{"type":"Feature","geometry":{"type":"Point","coordinates":[2.90141,49.5527]},"properties":{"nom":"Le Jardin Morel - l'Esprit Maison de Campagne !","sub":"LodgingBusiness","cm":"60310#Cannectancourt","web":null,"uri":"https://data.datatourisme.fr/28/596d5839-f028-3ec9-a167-d6a05fdb0bb3","dept":"60","reg":"hdf"}},{"type":"Feature","geometry":{"type":"Point","coordinates":[2.92032,49.2982]},"properties":{"nom":"L'instant - La Vue","sub":"LodgingBusiness","cm":"60127#Morienval","web":"http://www.instant-morienval.com/","uri":"https://data.datatourisme.fr/28/5b4fb9b4-5ad7-3db3-b33f-e4b3b3b48885","dept":"60","reg":"hdf"}},{"type":"Feature","geometry":{"type":"Point","coordinates":[2.97786,49.34854]},