{"type":"FeatureCollection","features":[{"type":"Feature","geometry":{"type":"Point","coordinates":[4.66201,46.42962]},"properties":{"nom":"La Maison des Gardes - Chambres d'hôtes","sub":"BedAndBreakfast","cm":"71250#Cluny","web":"http://www.lamaisondesgardes.com/<>https://www.lamaisondesgardes.fr/bnb/","uri":"https://data.datatourisme.fr/6/374178ae-4e4a-3c8f-a099-c58de494ad94","dept":"71","reg":"bfc"}},{"type":"Feature","geometry":{"type":"Point","coordinates":[4.66538,46.42511]},"properties":{"nom":"Hostellerie d'Héloïse","sub":"HotelRestaurant","cm":"71250#Cluny","web":"http://www.hostelleriedheloise.com/<>https://www.facebook.com/HostellerieDHeloise?fref=pb&hc_location=profile_browser<>https://www.instagram.com/hostelleriedheloise/<>https://311179.weebnb.com/book/bnb/bnb-1-1","uri":"https://data.datatourisme.fr/6/9556b164-93b1-3397-9a74-3a3beeb03d31","dept":"71","reg":"bfc"}},{"type":"Feature","geometry":{"type":"Point","coordinates":[4.66538,46.42513]},"properties":{"nom":"Restaurant de l'Hostellerie d'Héloïse","sub":"HotelRestaurant","cm":"71250#Cluny","web":"http://www.hostelleriedheloise.com/<>https://www.facebook.com/HostellerieDHeloise?fref=pb&hc_location=profile_browser<>https://www.instagram.com/hostelleriedheloise/","uri":"https://data.datatourisme.fr/6/78662774-d0e7-32ce-9a94-68739dbb5445","dept":"71","reg":"bfc"}},{"type":"Feature","geometry":{"type":"Point","coordinates":[4.90303,46.58478]},"properties":{"nom":"Les Vignerons de Mancey - Parcours pédagogique","sub":"Rental","cm":"71700#Tournus","web":"https://www.lesvigneronsdemancey.fr/<>https://www.facebook.com/vigneronsdemancey<>https://www.instagram.com/lesvigneronsdemancey/","uri":"https://data.datatourisme.fr/6/09bd71bc-4b33-3d30-8177-8a703f848239","dept":"71","reg":"bfc"}},{"type":"Feature","geometry":{"type":"Point","coordinates":[4.29188,46.96463]},"properties":{"nom":"Camping d'Autun","sub":"Camping","cm":"71400#Autun","web":"https://www.campingautun.fr/","uri":"https://data.datatourisme.fr/6/ae29fb44-d0a3-3ca9-86d1-f258e91c25a4","dept":"71","reg":"bfc"}},{"type":"Feature","geometry":{"type":"Point","coordinates":[3.75371,46.61985]},"properties":{"nom":"Camping de Bourbon-Lancy","sub":"Camping","cm":"71140#Bourbon-Lancy","web":"https://www.facebook.com/campingdebourbonlancy<>https://www.terracamps.com/camping-nature/camping-de-bourbon-lancy","uri":"https://data.datatourisme.fr/6/b773832b-5515-3dd3-975d-5984aa95776a","dept":"71","reg":"bfc"}},{"type":"Feature","geometry":{"type":"Point","coordinates":[4.43997,46.65689]},"properties":{"nom":"Le Montcuchot","sub":"LodgingBusiness","cm":"71300#Gourdon","web":"https://www.gitelemontcuchot.fr/<>https://www.gitelemontcuchot.fr/bnb/bnb-1-1","uri":"https://data.datatourisme.fr/6/adb21e57-99d6-3c1e-8368-a8d22fdd5a92","dept":"71","reg":"bfc"}},{"type":"Feature","geometry":{"type":"Point","coordinates":[4.79048,46.25494]},"properties":{"nom":"Ibis Mâcon Sud Crêches","sub":"HotelRestaurant","cm":"71570#Crêches-sur-Saône","web":"https://all.accor.com/hotel/0670/index.fr.shtml","uri":"https://data.datatourisme.fr/6/bebe2811-527d-3601-bd34-f31363b3f5ba","dept":"71","reg":"bfc"}},{"type":"Feature","geometry":{"type":"Point","coordinates":[4.84534,46.78178]},"properties":{"nom":"Bike and Wine Tours by Active Tours","sub":"Rental","cm":"71150#Rully","web":"http://www.bourgogne-evasion.fr/<>https://bourgogne-evasion.fr/produit/journee-velo-et-vin-en-cote-de-beaune/<>https://www.facebook.com/ActiveToursFrance/","uri":"https://data.datatourisme.fr/6/4a877ce3-6be5-368d-af6c-2acf2b05e796","dept":"71","reg":"bfc"}},{"type":"Feature","geometry":{"type":"Point","coordinates":[5.26454,46.88166]},"properties":{"nom":"Gîte de Séjour de l'Écomusée de la Bresse bourguignonne","sub":"CollectiveAccommodation","cm":"71270#Pierre-de-Bresse","web":"http://www.ecomusee-bresse71.fr/accueil/<>https://www.facebook.com/ecomuseebressebourguignonne/<>https://www.instagram.com/ecomuseedelabresse/","uri":"https://data.datatourisme.fr/6/e5b6f086-7f91-3827-a28e-6fc2ef512b50","dept":"71","reg":"bfc"}},{"type":"Feature","geometry":{"type":"Point","coordinates":[4.91452,46.55734]},"properties":{"nom":"Zig Zag Vélos","sub":"Rental","cm":"71700#Tournus","web":"http://www.zigzagvelos.fr/","uri":"https://data.datatourisme.fr/6/6caa5846-2705-361b-8b7f-154018eb60ee","dept":"71","reg":"bfc"}},{"type":"Feature","geometry":{"type":"Point","coordinates":[4.7419,46.86811]},"properties":{"nom":"La Cabotte Rullyotine","sub":"LodgingBusiness","cm":"71150#Rully","web":"https://www.gitesbourgognedusud.com/","uri":"https://data.datatourisme.fr/6/8ae17e57-9b17-39bf-9928-b193079455f7","dept":"71","reg":"bfc"}},{"type":"Feature","geometry":{"type":"Point","coordinates":[4.66877,46.43103]},"properties":{"nom":"Camping Saint-Vital","sub":"Camping","cm":"71250#Cluny","web":"https://www.campingsaintvital.fr/<>https://www.campingsaintvital.fr/bnb/bnb-1-1<>https://www.facebook.com/SaintVitalCluny","uri":"https://data.datatourisme.fr/6/c22c81e8-4187-3e90-b47c-11c2a28be522","dept":"71","reg":"bfc"}},{"type":"Feature","geometry":{"type":"Point","coordinates":[4.66789,46.4312]},"properties":{"nom":"Piscine Municipale de Cluny","sub":"Rental","cm":"71250#Cluny","web":"https://cluny.fr/piscine-municipale/","uri":"https://data.datatourisme.fr/6/bd8496ef-15cd-339c-81e5-7b94ae55e3cb","dept":"71","reg":"bfc"}},{"type":"Feature","geometry":{"type":"Point","coordinates":[4.58559,46.46043]},"properties":{"nom":"Gîte des Quatre Chemins","sub":"LodgingBusiness","cm":"71250#La Vineuse sur Fregande","web":"https://gitedesquatrechemins.fr/<>https://www.gitedesquatrechemins.fr/bnb/bnb-1-1","uri":"https://data.datatourisme.fr/6/b5d26903-c216-3cd9-b87f-0fc6349943af","dept":"71","reg":"bfc"}},{"type":"Feature","geometry":{"type":"Point","coordinates":[4.89003,46.56324]},"properties":{"nom":"Des Histoires d'Anges Côté Jardin","sub":"BedAndBreakfast","cm":"71700#Tournus","web":"http://www.deshistoiresdanges.fr/<>https://fr-fr.facebook.com/pages/category/Bed-and-Breakfast/Des-Histoires-dAnges-334655340303253/<>https://311555.weebnb.com/book/bnb/bnb-4-4","uri":"https://data.datatourisme.fr/6/252e5f69-ec16-3485-9aae-6d3468be88e4","dept":"71","reg":"bfc"}},{"type":"Feature","geometry":{"type":"Point","coordinates":[4.8899,46.56329]},"properties":{"nom":"Des Histoires d'Anges Côté Jardin (Gîte)","sub":"LodgingBusiness","cm":"71700#Tournus","web":"https://www.deshistoiresdanges.fr/","uri":"https://data.datatourisme.fr/6/975f632b-a907-3343-873c-3df51ee63809","dept":"71","reg":"bfc"}},{"type":"Feature","geometry":{"type":"Point","coordinates":[4.8385,46.79637]},"properties":{"nom":"Hôtel Ibis Chalon Nord","sub":"Hotel","cm":"71100#Chalon-sur-Saône","web":"http://www.ibishotel.com/","uri":"https://data.datatourisme.fr/6/9e4d36b6-24db-38dc-91b6-baed43d5f497","dept":"71","reg":"bfc"}},{"type":"Feature","geometry":{"type":"Point","coordinates":[4.80835,46.28759]},"properties":{"nom":"Le Moulin de Saint-Vérand","sub":"HotelRestaurant","cm":"71570#Saint-Vérand","web":"http://www.moulindesaintverand.fr/<>https://secure.reservit.com/fo/booking/2/774/dates?specialMode=default&langcode=FR<>https://www.logishotels.com/fr/hotel/logis-moulin-de-saint-verand-774","uri":"https://data.datatourisme.fr/6/a2ef242f-e4c5-30f9-9259-7e0219672560","dept":"71","reg":"bfc"}},{"type":"Feature","geometry":{"type":"Point","coordinates":[4.80835,46.28759]},"properties":{"nom":"Restaurant Le Moulin de Saint Vérand","sub":"HotelRestaurant","cm":"71570#Saint-Vérand","web":"http://www.moulindesaintverand.fr/","uri":"https://data.datatourisme.fr/6/22f303ae-c7da-3a98-9325-9f2959bad862","dept":"71","reg":"bfc"}},{"type":"Feature","geometry":{"type":"Point","coordinates":[4.67957,46.35812]},"properties":{"nom":"L'Escale à Jeux","sub":"LodgingBusiness","cm":"71960#Sologny","web":"https://www.escaleajeux-sudbourgogne.fr/<>https://www.escaleajeux.fr/info<>https://ludogite.fr/escale/","uri":"https://data.datatourisme.fr/6/a4574dd8-37c8-3f48-b831-b39511815c7e","dept":"71","reg":"bfc"}},{"type":"Feature","geometry":{"type":"Point","coordinates":[4.66171,46.4291]},"properties":{"nom":"Gîte des Charmilles","sub":"LodgingBusiness","cm":"71250#Cluny","web":"http://lamaisondesgardes.com/fr/accueil/<>https://www.lamaisondesgardes.fr/bnb/<>https://www.facebook.com/lamaisondesgardes/","uri":"https://data.datatourisme.fr/6/3c18fd12-9b3f-3803-adae-bcbd40d38a00","dept":"71","reg":"bfc"}},{"type":"Feature","geometry":{"type":"Point","coordinates":[4.87224,46.78432]},"properties":{"nom":"Camping du Pont de Bourgogne","sub":"Camping","cm":"71380#Saint-Marcel","web":"http://www.camping-chalon.com/<>http://www.facebook.com/pages/Camping-du-Pont-de-Bourgogne/100345186719423?fref=ts","uri":"https://data.datatourisme.fr/6/fb920686-71b4-38e2-ab0f-97ae495664b1","dept":"71","reg":"bfc"}},{"type":"Feature","geometry":{"type":"Point","coordinates":[4.83354,46.79328]},"properties":{"nom":"Hôtel Première Classe Chalon-sur-Saône","sub":"Hotel","cm":"71100#Chalon-sur-Saône","web":null,"uri":"https://data.datatourisme.fr/6/007f4a90-ee22-3c46-a2f9-491c04fc3118","dept":"71","reg":"bfc"}},{"type":"Feature","geometry":{"type":"Point","coordinates":[4.89438,46.76701]},"properties":{"nom":"Château de la Villeneuve","sub":"BedAndBreakfast","cm":"71380#Saint-Marcel","web":"http://www.chateau-de-la-villeneuve.com/<>https://fr-fr.facebook.com/ilussiaud/","uri":"https://data.datatourisme.fr/6/0fbba988-09df-3a4d-a4d2-1b8a599db014","dept":"71","reg":"bfc"}},{"type":"Feature","geometry":{"type":"Point","coordinates":[4.83693,46.79478]},"properties":{"nom":"Hôtel Ibis Budget Chalon-sur-Saône Nord","sub":"Hotel","cm":"71100#Chalon-sur-Saône","web":"http://www.ibis.com/fr/hotel-9881-ibis-budget-chalon-sur-saone-nord-opening-july-2015/index.shtml","uri":"https://data.datatourisme.fr/6/2c47b373-df61-3321-b107-f08d1ab439f6","dept":"71","reg":"bfc"}},{"type":"Feature","geometry":{"type":"Point","coordinates":[4.42672,46.80653]},"properties":{"nom":"Suite 24 - Appart Ethnique","sub":"LodgingBusiness","cm":"71200#Le Creusot","web":"http://www.suite24-apparts.com/<>https://311445.weebnb.com/book/bnb/bnb-4-4","uri":"https://data.datatourisme.fr/6/8de061eb-a8ec-32b0-abd0-fbf3ae1bfbc6","dept":"71","reg":"bfc"}},{"type":"Feature","geometry":{"type":"Point","coordinates":[4.42672,46.80653]},"properties":{"nom":"Suite 24 - Studio Paillote","sub":"LodgingBusiness","cm":"71200#Le Creusot","web":"http://www.suite24-apparts.com/<>https://311445.weebnb.com/book/bnb/bnb-1-1","uri":"https://data.datatourisme.fr/6/b95f7488-e7df-370f-8175-ced3d54167c5","dept":"71","reg":"bfc"}},{"type":"Feature","geometry":{"type":"Point","coordinates":[4.42672,46.80653]},"properties":{"nom":"Suite 24 - Appart rétro","sub":"LodgingBusiness","cm":"71200#Le Creusot","web":"http://www.suite24-apparts.com/<>https://311445.weebnb.com/book/bnb/bnb-5-5","uri":"https://data.datatourisme.fr/6/68a7df8e-fb34-39db-857d-ec2591b8222d","dept":"71","reg":"bfc"}},{"type":"Feature","geometry":{"type":"Point","coordinates":[4.42672,46.80653]},"properties":{"nom":"Suite 24 - Studio boudoir bohème","sub":"LodgingBusiness","cm":"71200#Le Creusot","web":"http://www.suite24-apparts.com/<>https://311445.weebnb.com/book/bnb/bnb-2-2","uri":"https://data.datatourisme.fr/6/4f350c88-2676-3f0b-af6e-7a4da651287e","dept":"71","reg":"bfc"}},{"type":"Feature","geometry":{"type":"Point","coordinates":[4.42663,46.80643]},"properties":{"nom":"Studio jardin","sub":"LodgingBusiness","cm":"71200#Le Creusot","web":"https://www.suite24-apparts.com/<>https://311445.weebnb.com/book/bnb/bnb-3-3","uri":"https://data.datatourisme.fr/6/5f9973d6-41e8-3201-a6b8-f1465d036cb7","dept":"71","reg":"bfc"}},{"type":"Feature","geometry":{"type":"Point","coordinates":[4.72431,46.82642]},"properties":{"nom":"Les Maisons de Chamirey  - La Maison du Clos du Roi","sub":"LodgingBusiness","cm":"71640#Mercurey","web":"http://www.lesmaisonsdechamirey.com/<>https://www.facebook.com/lesmaisonsdechamireymercurey/<>https://www.instagram.com/lesmaisonsdechamirey/","uri":"https://data.datatourisme.fr/6/62355d42-c08e-3e96-80a9-a7c3755061c4","dept":"71","reg":"bfc"}},{"type":"Feature","geometry":{"type":"Point","coordinates":[4.75424,46.87978]},"properties":{"nom":"Rullyoloft","sub":"LodgingBusiness","cm":"71150#Rully","web":"https://www.gitesbourgognedusud.com/","uri":"https://data.datatourisme.fr/6/177e2df6-b78e-3916-a52c-fb8e15759846","dept":"71","reg":"bfc"}},{"type":"Feature","geometry":{"type":"Point","coordinates":[4.19129,47.0127]},"properties":{"nom":"Camping Les Deux Rivières","sub":"Camping","cm":"71400#La Celle-en-Morvan","web":"http://www.camping-morvan.fr/<>https://www.facebook.com/les2rivieres/?eid=ARC5YpECxygrrmSfvDa3jE9hT2BDZSttSomBv56InZzIzfld9Ii63jLLYz-HWH_PK-7ABN56bA-2FrN3","uri":"https://data.datatourisme.fr/6/733dca44-5164-3607-9206-f5636178ea2b","dept":"71","reg":"bfc"}},{"type":"Feature","geometry":{"type":"Point","coordinates":[4.59738,46.47192]},"properties":{"nom":"Gîte du Poirier","sub":"LodgingBusiness","cm":"71250#La Vineuse sur Fregande","web":"http://www.gitedupoirier.jimdo.com/<>https://www.gitedupoirier-sudbourgogne.fr/bnb/bnb-1-1","uri":"https://data.datatourisme.fr/6/75134b39-44c3-3358-ba9e-6e515900c2b4","dept":"71","reg":"bfc"}},{"type":"Feature","geometry":{"type":"Point","coordinates":[4.60489,46.86871]},"properties":{"nom":"Camping / Village Vacances La Bonne Vie","sub":"CampingAndCaravanning","cm":"71490#Saint-Maurice-lès-Couches","web":"https://camping-labonnevie.com/<>https://311914.weebnb.com/book/bnb/bnb-1-1","uri":"https://data.datatourisme.fr/6/58bed71c-d929-36fe-a5dd-6aa73de62d48","dept":"71","reg":"bfc"}},{"type":"Feature","geometry":{"type":"Point","coordinates":[4.83447,46.79396]},"properties":{"nom":"Hôtel Ibis Europe - Restaurant \"Le Gourmand\"","sub":"HotelRestaurant","cm":"71100#Chalon-sur-Saône","web":"http://www.hotel-ibis-chalon.com/","uri":"https://data.datatourisme.fr/6/5f92270f-00e9-3fff-bbf2-d3f83417ad73","dept":"71","reg":"bfc"}},{"type":"Feature","geometry":{"type":"Point","coordinates":[4.83447,46.79396]},"properties":{"nom":"Restaurant Le Gourmand","sub":"HotelRestaurant","cm":"71100#Chalon-sur-Saône","web":"http://www.restaurantlegourmand.fr/","uri":"https://data.datatourisme.fr/6/ea115222-94f3-320f-8a4d-fbac7dccd74a","dept":"71","reg":"bfc"}},{"type":"Feature","geometry":{"type":"Point","coordinates":[4.90131,46.60047]},"properties":{"nom":"Le Pavillon de Venières 1","sub":"LodgingBusiness","cm":"71700#Boyer","web":"https://www.airbnb.fr/rooms/37621961","uri":"https://data.datatourisme.fr/6/6c0a8fa5-13c7-3d10-b564-3bb6d8269d4c","dept":"71","reg":"bfc"}},{"type":"Feature","geometry":{"type":"Point","coordinates":[4.83335,46.79179]},"properties":{"nom":"Hôtel Restaurant Campanile Chalon sur Saône","sub":"HotelRestaurant","cm":"71100#Chalon-sur-Saône","web":"https://chalon-sur-saone.campanile.com/fr-fr/","uri":"https://data.datatourisme.fr/6/6cf37966-cf61-3819-b9dd-e376911454c2","dept":"71","reg":"bfc"}},{"type":"Feature","geometry":{"type":"Point","coordinates":[4.8414,46.76022]},"properties":{"nom":"B&B Chalon-sur-Saône Sud","sub":"Hotel","cm":"71100#Saint-Rémy","web":"https://m.facebook.com/BB-H%C3%B4tels-Chalon-sur-Sa%C3%B4ne-Sud-71100-SAINT-REMY-1805778349713259/<>https://www.hotel-bb.com/fr/hotel/chalon-sur-saone-sud?utm_source=googlemaps&utm_medium=fichehotel&utm_campaign=yext","uri":"https://data.datatourisme.fr/6/d08b906f-d6ce-391d-aa54-4ea10567ab3e","dept":"71","reg":"bfc"}},{"type":"Feature","geometry":{"type":"Point","coordinates":[4.69671,46.88662]},"properties":{"nom":"Auberge du Camp Romain","sub":"HotelRestaurant","cm":"71150#Chassey-le-Camp","web":"http://www.auberge-du-camp-romain.com/<>https://www.logishotels.com/fr/hotel/logis-auberge-du-camp-romain-2271","uri":"https://data.datatourisme.fr/6/9903f8e3-4690-386f-a871-9d5083214981","dept":"71","reg":"bfc"}},{"type":"Feature","geometry":{"type":"Point","coordinates":[4.69671,46.88662]},"properties":{"nom":"Restaurant de l'Auberge du Camp Romain","sub":"HotelRestaurant","cm":"71150#Chassey-le-Camp","web":"http://www.auberge-du-camp-romain.com/","uri":"https://data.datatourisme.fr/6/c1e78ba7-fa0d-32e0-96b6-e90486e02cd9","dept":"71","reg":"bfc"}},{"type":"Feature","geometry":{"type":"Point","coordinates":[4.72378,46.82518]},"properties":{"nom":"Les Maisons de Chamirey  - La Maison du Grand Four","sub":"LodgingBusiness","cm":"71640#Mercurey","web":"http://www.lesmaisonsdechamirey.com/<>https://www.facebook.com/lesmaisonsdechamireymercurey/<>https://les-maisons-de-chamirey.amenitiz.io/fr/booking/room<>https://www.instagram.com/p/DQ7RNITCI0w/","uri":"https://data.datatourisme.fr/6/98949f6c-3651-31c2-b6e0-498589bc181b","dept":"71","reg":"bfc"}},{"type":"Feature","geometry":{"type":"Point","coordinates":[4.48038,46.3069]},"properties":{"nom":"Enquête game à la Maison des Patrimoines","sub":"Rental","cm":"71520#Matour","web":"https://www.matour.fr/vie-culturelle-et-loisirs/maison-des-patrimoines/famille","uri":"https://data.datatourisme.fr/6/842e8836-3d04-3221-8b1c-42e9f2c19fed","dept":"71","reg":"bfc"}},{"type":"Feature","geometry":{"type":"Point","coordinates":[4.91561,46.55829]},"properties":{"nom":"Cycl'Auto Vandroux","sub":"Rental","cm":"71700#Tournus","web":"https://app.getlokki.com/Cycl'auto%20Vandroux<>https://www.facebook.com/pages/CyclAuto-Vandroux/1564462270453702?fref=ts","uri":"https://data.datatourisme.fr/6/f95f5e10-6047-3c14-9e59-dc28a36b85bc","dept":"71","reg":"bfc"}},{"type":"Feature","geometry":{"type":"Point","coordinates":[4.86123,46.51005]},"properties":{"nom":"Eno Dégust'","sub":"Rental","cm":"71700#Chardonnay","web":"http://www.evenement-vin-bourgogne.com/<>https://www.facebook.com/pages/Enoculture/1406258339636600?fref=ts<>https://www.instagram.com/enoculture/?utm_medium=copy_link","uri":"https://data.datatourisme.fr/6/4d75343c-79ee-35c8-9d68-ff412a1b421a","dept":"71","reg":"bfc"}},{"type":"Feature","geometry":{"type":"Point","coordinates":[4.83193,46.77245]},"properties":{"nom":"Hôtel Le Saint-Rémy Chalon Sud","sub":"Hotel","cm":"71100#Saint-Rémy","web":"http://www.lesaintremy.com/<>https://www.contact-hotel.com/reserver-hotel-france/1195/hotel-le-saint-remy-saint-remy.htm","uri":"https://data.datatourisme.fr/6/dc3554fd-a59a-325c-95f8-0f2199c3fd48","dept":"71","reg":"bfc"}},{"type":"Feature","geometry":{"type":"Point","coordinates":[4.844,46.7527]},"properties":{"nom":"Appart'City","sub":"Hotel","cm":"71100#Chalon-sur-Saône","web":"http://www.appartcity.com/","uri":"https://data.datatourisme.fr/6/b3016c2b-a576-3104-9f16-59f6d464c7db","dept":"71","reg":"bfc"}},{"type":"Feature","geometry":{"type":"Point","coordinates":[4.14195,46.44235]},"properties":{"nom":"Delfotel - SARL PETARD","sub":"HotelRestaurant","cm":"71600#Hautefond","web":"http://www.delfotel.fr/<>https://www.logishotels.com/fr/hotel/logis-hotel-delfotel-15443","uri":"https://data.datatourisme.fr/6/bac6cd7a-7b39-3ee3-820e-f00c7e305348","dept":"71","reg":"bfc"}},{"type":"Feature","geometry":{"type":"Point","coordinates":[4.50596,46.98579]},"properties":{"nom":"Camping du Pont Vert","sub":"Camping","cm":"71360#Épinac","web":"https://www.campingdupontvert-epinac.com/<>https://reservation.secureholiday.net/fr/3185/","uri":"https://data.datatourisme.fr/6/d08f7845-295a-3acf-9259-780dacefe40a","dept":"71","reg":"bfc"}},{"type":"Feature","geometry":{"type":"Point","coordinates":[4.50599,46.98644]},"properties":{"nom":"Base de loisirs de la Drée","sub":"Rental","cm":"71360#Épinac","web":"https://www.epinac.fr/","uri":"https://data.datatourisme.fr/6/a015ef63-4fc6-3627-8025-ec36bf0d0ecf","dept":"71","reg":"bfc"}},{"type":"Feature","geometry":{"type":"Point","coordinates":[4.5074,46.98665]},"properties":{"nom":"Aire de service pour camping-car au Camping du Pont Vert","sub":"CampingAndCaravanning","cm":"71360#Épinac","web":null,"uri":"https://data.datatourisme.fr/6/89859b88-0515-3b9a-9b1e-21d46c64aa62","dept":"71","reg":"bfc"}},{"type":"Feature","geometry":{"type":"Point","coordinates":[4.29803,46.94694]},"properties":{"nom":"Meublé \"Chez Reine\"","sub":"LodgingBusiness","cm":"71400#Autun","web":null,"uri":"https://data.datatourisme.fr/6/cf516707-0758-3b4c-b4bf-e70ba6d839f5","dept":"71","reg":"bfc"}},{"type":"Feature","geometry":{"type":"Point","coordinates":[4.74169,46.17696]},"properties":{"nom":"L’Explor’Games ®, l’Enigme du Hameau Duboeuf","sub":"Rental","cm":"71570#Romanèche-Thorins","web":"https://www.duboeuf.com/fr/le-parc/","uri":"https://data.datatourisme.fr/6/2470f30a-12aa-39d7-95d4-c33a24ae4192","dept":"71","reg":"bfc"}},{"type":"Feature","geometry":{"type":"Point","coordinates":[4.1397,46.67993]},"properties":{"nom":"La Roulotte de Campagne accès PMR","sub":"BedAndBreakfast","cm":"71320#Toulon-sur-Arroux","web":"https://311441.weebnb.com/book/bnb/bnb-1-1<>http://destination-insolite.com/","uri":"https://data.datatourisme.fr/6/8a644407-83a1-36cb-8c7b-4f34adae721d","dept":"71","reg":"bfc"}},{"type":"Feature","geometry":{"type":"Point","coordinates":[4.1397,46.67993]},"properties":{"nom":"Les Roulottes de Campagne","sub":"BedAndBreakfast","cm":"71320#Toulon-sur-Arroux","web":"https://311441.weebnb.com/book/bnb/bnb-2-2<>http://destination-insolite.com/","uri":"https://data.datatourisme.fr/6/00b90efd-16bd-3d01-9462-f84dd2e82b0f","dept":"71","reg":"bfc"}},{"type":"Feature","geometry":{"type":"Point","coordinates":[4.1397,46.67993]},"properties":{"nom":"Le Vaisseau","sub":"BedAndBreakfast","cm":"71320#Toulon-sur-Arroux","web":"https://www.divertiparc.com/<>https://311441.weebnb.com/book/bnb/bnb-5-5","uri":"https://data.datatourisme.fr/6/1ff4df26-f6b2-30c9-a570-e93e2fa2a578","dept":"71","reg":"bfc"}},{"type":"Feature","geometry":{"type":"Point","coordinates":[4.1397,46.6799]},"properties":{"nom":"Jeu de piste au village","sub":"Rental","cm":"71320#Toulon-sur-Arroux","web":"https://www.divertiparc.com/","uri":"https://data.datatourisme.fr/6/1c0fb107-6072-3cb8-a5b0-cbcd55b4ca67","dept":"71","reg":"bfc"}},{"type":"Feature","geometry":{"type":"Point","coordinates":[4.74356,46.77674]},"properties":{"nom":"Le Clos des Acacias","sub":"BedAndBreakfast","cm":"71640#Givry","web":"https://leclosdesacacias-givry.jimdofree.com/","uri":"https://data.datatourisme.fr/6/06df5f29-8e6b-32b0-8bb3-512a748913db","dept":"71","reg":"bfc"}},{"type":"Feature","geometry":{"type":"Point","coordinates":[3.77275,46.61845]},"properties":{"nom":"Majorelle","sub":"LodgingBusiness","cm":"71140#Bourbon-Lancy","web":null,"uri":"https://data.datatourisme.fr/6/81a0a2ee-6f7a-3d2a-83c0-05d65cb4afc5","dept":"71","reg":"bfc"}},{"type":"Feature","geometry":{"type":"Point","coordinates":[4.28906,46.95188]},"properties":{"nom":"Centre International de Séjour - Espace Saint EX","sub":"Hostel","cm":"71400#Autun","web":"http://www.espacesaintex.org/","uri":"https://data.datatourisme.fr/6/e87db34d-896e-3fdd-9e70-54ea59e0068d","dept":"71","reg":"bfc"}},{"type":"Feature","geometry":{"type":"Point","coordinates":[4.51311,46.76279]},"properties":{"nom":"La Galapierre","sub":"LodgingBusiness","cm":"71210#Écuisses","web":"http://www.gite-galapierre.fr/","uri":"https://data.datatourisme.fr/6/53ab9793-0fa2-366a-8fe6-2d97c790c004","dept":"71","reg":"bfc"}},{"type":"Feature","geometry":{"type":"Point","coordinates":[4.08253,46.97254]},"properties":{"nom":"Gîte des Fleurs","sub":"CollectiveAccommodation","cm":"71990#Saint-Prix","web":"http://www.gitedesfleurs.com/<>http://www.facebook.com/morvan.gitedesfleurs","uri":"https://data.datatourisme.fr/6/9db5eea9-c310-3ba1-8659-c6587ceb870e","dept":"71","reg":"bfc"}},{"type":"Feature","geometry":{"type":"Point","coordinates":[4.91166,46.944]},"properties":{"nom":"Inspirations","sub":"BedAndBreakfast","cm":"71350#Saint-Loup-Géanges","web":"https://www.inspirations.zink.ovh/<>https://www.inspirations.zink.ovh/reservation-en-ligne.html<>https://www.facebook.com/Inspirations71350/<>https://www.instagram.com/inspirations71350/","uri":"https://data.datatourisme.fr/6/967df036-04f1-32c3-8cfe-159c7916b53f","dept":"71","reg":"bfc"}},{"type":"Feature","geometry":{"type":"Point","coordinates":[4.12779,46.38506]},"properties":{"nom":"Hôtel La Reconce","sub":"HotelRestaurant","cm":"71600#Poisson","web":"http://www.hotelreconce.com/","uri":"https://data.datatourisme.fr/6/7a38ef1c-2572-3d4b-b634-f7b5302fdf46","dept":"71","reg":"bfc"}},{"type":"Feature","geometry":{"type":"Point","coordinates":[4.85587,46.78456]},"properties":{"nom":"Hôtel des Jacobines","sub":"Hotel","cm":"71100#Chalon-sur-Saône","web":"http://www.hotel-lesjacobines.com/","uri":"https://data.datatourisme.fr/6/2fe64c3d-8926-3645-86f9-7fbccbbe02ee","dept":"71","reg":"bfc"}},{"type":"Feature","geometry":{"type":"Point","coordinates":[4.40346,46.81202]},"properties":{"nom":"Lodges du Parc des Combes - Chalet 3","sub":"LodgingBusiness","cm":"71200#Le Creusot","web":"https://parcdescombes.com/<>https://311606.weebnb.com/book/bnb","uri":"https://data.datatourisme.fr/6/918b0b72-dcbe-39b8-93a4-40eee8efc554","dept":"71","reg":"bfc"}},{"type":"Feature","geometry":{"type":"Point","coordinates":[4.40339,46.81193]},"properties":{"nom":"Lodges du Parc des Combes - Chalet 1","sub":"LodgingBusiness","cm":"71200#Le Creusot","web":"https://parcdescombes.com/<>https://311606.weebnb.com/book/bnb","uri":"https://data.datatourisme.fr/6/b4abb54a-c6a9-3c20-9afb-49e0697610fb","dept":"71","reg":"bfc"}},{"type":"Feature","geometry":{"type":"Point","coordinates":[4.40175,46.81143]},"properties":{"nom":"Lodges du Parc des Combes - Chalet 2","sub":"LodgingBusiness","cm":"71200#Le Creusot","web":"https://parcdescombes.com/<>https://311606.weebnb.com/book/bnb","uri":"https://data.datatourisme.fr/6/ca5eedda-8faa-347e-96b9-6cd170fbf356","dept":"71","reg":"bfc"}},{"type":"Feature","geometry":{"type":"Point","coordinates":[4.83647,46.3066]},"properties":{"nom":"Hôtel du Nord, Mâcon Centre","sub":"Hotel","cm":"71000#Mâcon","web":"https://hoteldunord-macon.fr/<>https://www.hoteldunord-macon.fr/tarifs-reservation<>https://311278.weebnb.com/book/bnb","uri":"https://data.datatourisme.fr/6/b32c9441-49ae-3196-ae5d-d6cffca08415","dept":"71","reg":"bfc"}},{"type":"Feature","geometry":{"type":"Point","coordinates":[4.755,46.87964]},"properties":{"nom":"L'Indus","sub":"LodgingBusiness","cm":"71150#Rully","web":"https://www.gitesbourgognedusud.com/","uri":"https://data.datatourisme.fr/6/344148a9-8139-39a9-9d86-6a5b53637350","dept":"71","reg":"bfc"}},{"type":"Feature","geometry":{"type":"Point","coordinates":[4.69183,46.89827]},"properties":{"nom":"Au n° 12 de la Montée des Sources","sub":"LodgingBusiness","cm":"71150#Chassey-le-Camp","web":"https://giteregionbeaune.jimdofree.com/","uri":"https://data.datatourisme.fr/6/379282b0-0c13-3a7a-96da-1afb12c83940","dept":"71","reg":"bfc"}},{"type":"Feature","geometry":{"type":"Point","coordinates":[4.11233,46.21468]},"properties":{"nom":"La yourte de Terre Amoureuse","sub":"BedAndBreakfast","cm":"71340#Mailly","web":"http://www.terreamoureuse.fr/<>https://www.instagram.com/terreamoureuse/<>http://www.facebook.com/pages/Terre-Amoureuse-Chambre-dh%C3%B4te-%C3%A9cologique-et-solidaire/276982868987003?ref=hl","uri":"https://data.datatourisme.fr/6/2b89e100-85b7-3453-8c63-0997ccf7a6d9","dept":"71","reg":"bfc"}},{"type":"Feature","geometry":{"type":"Point","coordinates":[4.11232,46.21461]},"properties":{"nom":"Terre Amoureuse - Lieu d'accueil et de production","sub":"BedAndBreakfast","cm":"71340#Mailly","web":"http://www.terreamoureuse.fr/<>https://www.instagram.com/terreamoureuse/<>https://www.facebook.com/Terre-Amoureuse-Chambre-dh%C3%B4te-%C3%A9cologique-et-solidaire-276982868987003/?eid=ARAo6AhE88daLXxy5hfc9U-RutkEwF4W6Q3JXy8uQrN37UMb5t0Tn9qIgZ2vjvwe_unbUG44U9z54fSv&timeline_context_item_type=intro_card_work&timeline_context_item_source=100002962908746&fref=tag","uri":"https://data.datatourisme.fr/6/3ce4369a-6fa3-37a4-b378-958d079deff1","dept":"71","reg":"bfc"}},{"type":"Feature","geometry":{"type":"Point","coordinates":[3.76552,46.62388]},"properties":{"nom":"L'Echappée Verte","sub":"LodgingBusiness","cm":"71140#Bourbon-Lancy","web":"https://tourisme-bourbonlancy.com/hebergements/lechappee-verte/","uri":"https://data.datatourisme.fr/6/2e55cbbb-2dc7-3dc8-a094-5a20227f1d85","dept":"71","reg":"bfc"}},{"type":"Feature","geometry":{"type":"Point","coordinates":[4.60226,46.30659]},"properties":{"nom":"Hôtel-Restaurant Le Marronnier","sub":"HotelRestaurant","cm":"71520#Tramayes","web":"http://lemarronnier-tramayes.fr/","uri":"https://data.datatourisme.fr/6/32cbac70-e4a3-3710-a9ec-0637f563e366","dept":"71","reg":"bfc"}},{"type":"Feature","geometry":{"type":"Point","coordinates":[4.79116,46.31116]},"properties":{"nom":"Hôtel-Restaurant Le Moulin du Gastronome","sub":"HotelRestaurant","cm":"71850#Charnay-lès-Mâcon","web":"http://www.moulindugastronome.com/","uri":"https://data.datatourisme.fr/6/4f7ef4c5-f11d-3833-b17c-4b27e37a1017","dept":"71","reg":"bfc"}},{"type":"Feature","geometry":{"type":"Point","coordinates":[4.79112,46.31117]},"properties":{"nom":"Restaurant Le Moulin du Gastronome","sub":"HotelRestaurant","cm":"71850#Charnay-lès-Mâcon","web":"http://www.moulindugastronome.com/","uri":"https://data.datatourisme.fr/6/4c452c7b-8064-3a6e-9602-87dea6ccc2e4","dept":"71","reg":"bfc"}},{"type":"Feature","geometry":{"type":"Point","coordinates":[4.68365,46.65594]},"properties":{"nom":"Domaine du Cheval Blanc","sub":"Hotel","cm":"71390#Saint-Boil","web":"https://www.logishotels.com/fr/hotel/logis-hotel-restaurant-du-cheval-blanc-1096<>https://www.facebook.com/Hotel-Restaurant-du-cheval-blanc-St-Boil-100417267974556/<>https://www.domainechevalblanc.fr/","uri":"https://data.datatourisme.fr/6/4ffd9b3e-f5a9-31d4-9b86-34927ab617c3","dept":"71","reg":"bfc"}},{"type":"Feature","geometry":{"type":"Point","coordinates":[5.20007,46.9166]},"properties":{"nom":"Hôtel-Restaurant Doubs Rivage","sub":"HotelRestaurant","cm":"71270#Charette-Varennes","web":"http://www.doubs-rivage.com/<>http://www.facebook.com/Doubs-Rivage","uri":"https://data.datatourisme.fr/6/52196e07-c333-3314-b1f9-f2f3e1f0326c","dept":"71","reg":"bfc"}},{"type":"Feature","geometry":{"type":"Point","coordinates":[5.20007,46.9166]},"properties":{"nom":"Doubs Rivage","sub":"HotelRestaurant","cm":"71270#Charette-Varennes","web":"http://www.doubs-rivage.com/<>https://www.facebook.com/Doubs-Rivage","uri":"https://data.datatourisme.fr/6/5736adf9-8f23-3081-afb1-e3649b228e8b","dept":"71","reg":"bfc"}},{"type":"Feature","geometry":{"type":"Point","coordinates":[3.76866,46.61785]},"properties":{"nom":"Grand Hôtel de Bourbon-Lancy","sub":"Hotel","cm":"71140#Bourbon-Lancy","web":"https://www.facebook.com/GrandHotelBourbonLancy<>https://www.instagram.com/grandhotelbourbonlancy/<>https://www.grand-hotel-thermal.fr/","uri":"https://data.datatourisme.fr/6/8dd19bb9-9fe4-323c-991b-c47c44a317f5","dept":"71","reg":"bfc"}},{"type":"Feature","geometry":{"type":"Point","coordinates":[3.76862,46.61785]},"properties":{"nom":"Résidence du Parc - Meublés en Résidence Thermale","sub":"LodgingBusiness","cm":"71140#Bourbon-Lancy","web":"https://www.residencesthermales.fr/","uri":"https://data.datatourisme.fr/6/179b0fad-7214-3e1e-b231-6f9a7fd8386e","dept":"71","reg":"bfc"}},{"type":"Feature","geometry":{"type":"Point","coordinates":[4.19174,46.86191]},"properties":{"nom":"Camping des 2 Rives","sub":"Camping","cm":"71190#Étang-sur-Arroux","web":"http://www.des2rives.com/","uri":"https://data.datatourisme.fr/6/93acc816-397a-3923-a06a-c32620af710d","dept":"71","reg":"bfc"}},{"type":"Feature","geometry":{"type":"Point","coordinates":[4.90774,46.56557]},"properties":{"nom":"Hôtel de Greuze","sub":"Hotel","cm":"71700#Tournus","web":"https://www.hotelgreuze.fr/<>https://www.facebook.com/hoteldegreuze/<>https://www.instagram.com/hotelgreuzetournus/","uri":"https://data.datatourisme.fr/6/a111d2e4-3bdf-3b22-a724-43ec3992c89b","dept":"71","reg":"bfc"}},{"type":"Feature","geometry":{"type":"Point","coordinates":[4.1199,46.45277]},"properties":{"nom":"Hostellerie des Trois Pigeons","sub":"HotelRestaurant","cm":"71600#Paray-le-Monial","web":"http://www.h-3-p.com/<>https://www.facebook.com/Hostellerie-des-trois-pigeons-139635279984097/<>https://www.facebook.com/Theoriginalshotels-Hostellerie-des-Trois-Pigeons-2394154064143863","uri":"https://data.datatourisme.fr/6/aab05c62-3ced-3755-96c9-a31b1b831cd1","dept":"71","reg":"bfc"}},{"type":"Feature","geometry":{"type":"Point","coordinates":[4.27511,46.43346]},"properties":{"nom":"Maison Doucet","sub":"HotelRestaurant","cm":"71120#Charolles","web":"http://www.maison-doucet.com/<>https://www.facebook.com/laposte.doucet/","uri":"https://data.datatourisme.fr/6/0049e01f-3222-353b-ae3f-cc98714d40fc","dept":"71","reg":"bfc"}},{"type":"Feature","geometry":{"type":"Point","coordinates":[4.22464,46.26087]},"properties":{"nom":"Les Cachettes du Dahut - Cabane de Trappeur","sub":"BedAndBreakfast","cm":"71800#Vauban","web":"http://www.lescachettesdudahut.fr/<>https://lescachettesdudahut.com/<>https://www.facebook.com/lescachettesdudahut","uri":"https://data.datatourisme.fr/6/9cbb2433-1436-3e5b-906c-ecc6f60677e0","dept":"71","reg":"bfc"}},{"type":"Feature","geometry":{"type":"Point","coordinates":[4.22464,46.26087]},"properties":{"nom":"Les Cachettes du Dahut - Tipis","sub":"BedAndBreakfast","cm":"71800#Vauban","web":"http://www.lescachettesdudahut.fr/<>https://lescachettesdudahut.com/<>https://www.facebook.com/lescachettesdudahut","uri":"https://data.datatourisme.fr/6/f55e85cc-8029-3c86-8c8a-71dac192420b","dept":"71","reg":"bfc"}},{"type":"Feature","geometry":{"type":"Point","coordinates":[4.74761,46.90916]},"properties":{"nom":"Villa Roland en Bourgogne","sub":"LodgingBusiness","cm":"71150#Chagny","web":"https://www.abritel.fr/location-vacances/p1239414<>https://www.airbnb.fr/rooms/3693210<>https://www.booking.com/hotel/fr/villa-roland-en-bourgogne.fr.html<>https://www.villa-roland-en-bourgogne.fr/","uri":"https://data.datatourisme.fr/6/7c78c212-11a6-3db8-982c-1492a335a132","dept":"71","reg":"bfc"}},{"type":"Feature","geometry":{"type":"Point","coordinates":[4.83713,46.30856]},"properties":{"nom":"Best Western Plus Hôtel d'Europe et d'Angleterre","sub":"Hotel","cm":"71000#Mâcon","web":"http://www.hotel-europeangleterre-macon.com/<>https://secure.reservit.com/fo/booking/2/194176/dates?specialMode=default&langcode=FR&partid=0&custid=2&hotelid=194176&m=booking","uri":"https://data.datatourisme.fr/6/91ff9ea7-a2f7-3fec-b05c-cccb4ca4869c","dept":"71","reg":"bfc"}},{"type":"Feature","geometry":{"type":"Point","coordinates":[3.77104,46.61795]},"properties":{"nom":"Le Rocher  \"Bienvenue\"","sub":"LodgingBusiness","cm":"71140#Bourbon-Lancy","web":"http://le-rocher.fr/","uri":"https://data.datatourisme.fr/6/44552893-6146-3ca7-a8db-052da1a12192","dept":"71","reg":"bfc"}},{"type":"Feature","geometry":{"type":"Point","coordinates":[4.84222,46.31841]},"properties":{"nom":"Hôtel Mercure Mâcon Bord de Saône","sub":"HotelRestaurant","cm":"71000#Mâcon","web":"https://all.accor.com/hotel/9319/index.fr.shtml?utm_campaign=seo+maps&utm_medium=seo+maps&utm_source=google+Maps","uri":"https://data.datatourisme.fr/6/58038347-d418-3525-938c-3241eddf9d80","dept":"71","reg":"bfc"}},{"type":"Feature","geometry":{"type":"Point","coordinates":[4.74068,46.17563]},"properties":{"nom":"Hôtel Les Maritonnes Parc & Vignoble","sub":"HotelRestaurant","cm":"71570#Romanèche-Thorins","web":"https://www.lesmaritonnes.com/fr/<>https://www.facebook.com/les.maritonnes.rouge.et.blanc/<>https://www.instagram.com/les_maritonnes_rouge_et_blanc/","uri":"https://data.datatourisme.fr/6/5ad909a5-5c14-33b2-9740-374720976430","dept":"71","reg":"bfc"}},{"type":"Feature","geometry":{"type":"Point","coordinates":[4.40656,46.94006]},"properties":{"nom":"L'Arche de Noé - Gîte Bleuet","sub":"LodgingBusiness","cm":"71400#Auxy","web":"https://www.larchedenoe71.fr/<>https://www.larchedenoe71.fr/bnb/bnb-1-1","uri":"https://data.datatourisme.fr/6/6701d3e7-b4b2-314e-8d6d-053b32f77862","dept":"71","reg":"bfc"}},{"type":"Feature","geometry":{"type":"Point","coordinates":[4.40656,46.94006]},"properties":{"nom":"L'Arche de Noé - Cabane dans les Arbres","sub":"BedAndBreakfast","cm":"71400#Auxy","web":"https://www.larchedenoe71.fr/<>https://www.larchedenoe71.fr/bnb/bnb-3-3","uri":"https://data.datatourisme.fr/6/f9c2fcc9-a303-3825-b5d7-f2af67faee48","dept":"71","reg":"bfc"}},{"type":"Feature","geometry":{"type":"Point","coordinates":[4.46524,46.48113]},"properties":{"nom":"Domaine des Hauts - La Terrasse","sub":"LodgingBusiness","cm":"71220#Saint-Bonnet-de-Joux","web":null,"uri":"https://data.datatourisme.fr/6/e7c69f6a-368d-38e2-87a9-c278550cc899","dept":"71","reg":"bfc"}},{"type":"Feature","geometry":{"type":"Point","coordinates":[4.76249,46.43908]},"properties":{"nom":"SAS 3E Camping des Grottes","sub":"Camping","cm":"71260#Azé","web":"https://www.camping-des-grottes.com/nos-locations/<>https://www.camping-des-grottes.com/<>https://www.facebook.com/camping.grottes.aze","uri":"https://data.datatourisme.fr/6/fb7dcb22-d9b9-3e79-a77f-01b849179042","dept":"71","reg":"bfc"}},{"type":"Feature","geometry":{"type":"Point","coordinates":[3.72159,46.63102]},"properties":{"nom":"Gîte Le Pont de la Loire","sub":"LodgingBusiness","cm":"71140#Bourbon-Lancy","web":"https://www.lepontdelaloire.com/","uri":"https://data.datatourisme.fr/6/e08b283d-6a32-34ec-91b0-6d378e93dfc9","dept":"71","reg":"bfc"}},{"type":"Feature","geometry":{"type":"Point","coordinates":[3.7739,46.61921]},"properties":{"nom":"Chez Joelle et Daniel","sub":"LodgingBusiness","cm":"71140#Bourbon-Lancy","web":null,"uri":"https://data.datatourisme.fr/6/e5f5241c-c296-3d39-b574-c023693ce250","dept":"71","reg":"bfc"}},{"type":"Feature","geometry":{"type":"Point","coordinates":[3.72139,46.63096]},"properties":{"nom":"Chambres d'Hôtes \"Le Pont de la Loire\"","sub":"BedAndBreakfast","cm":"71140#Bourbon-Lancy","web":"http://lepontdelaloire.com/","uri":"https://data.datatourisme.fr/6/cb73460b-5bcb-3239-b02c-86e0431525d1","dept":"71","reg":"bfc"}},{"type":"Feature","geometry":{"type":"Point","coordinates":[4.806,46.24027]},"properties":{"nom":"Camping La Clé de Saône","sub":"Camping","cm":"71680#Crêches-sur-Saône","web":"https://www.camping-macon.com/","uri":"https://data.datatourisme.fr/6/cecc127b-a8a5-3d09-ae21-bf1bb433ae2e","dept":"71","reg":"bfc"}},{"type":"Feature","geometry":{"type":"Point","coordinates":[4.26133,46.20086]},"properties":{"nom":"Gîte du Champ d'Alouettes","sub":"LodgingBusiness","cm":"71740#Tancon","web":"https://www.gitechampdalouettes.com/index.php<>https://www.gites.fr/gites_gite-du-champ-d-alouettes_tancon_51321.htm","uri":"https://data.datatourisme.fr/6/d1d80d5f-3f72-3756-8dfa-405393d65e4f","dept":"71","reg":"bfc"}},{"type":"Feature","geometry":{"type":"Point","coordinates":[4.76137,46.43031]},"properties":{"nom":"Chambres et Table d'Hôtes \"Le Logis d'Azé\"","sub":"BedAndBreakfast","cm":"71260#Azé","web":"http://www.lelogisdaze.com/<>https://www.lelogisdaze.fr/","uri":"https://data.datatourisme.fr/6/d3e9d9ff-56c9-3e45-85c4-3a1062e8a517","dept":"71","reg":"bfc"}},{"type":"Feature","geometry":{"type":"Point","coordinates":[3.76917,46.61914]},"properties":{"nom":"Appartement Castelet - 4 étoiles - Meublé en Résidence Thermale","sub":"LodgingBusiness","cm":"71140#Bourbon-Lancy","web":"https://www.residencesthermales.fr/","uri":"https://data.datatourisme.fr/6/d69a71a5-27b0-39be-bfe8-813884074dd5","dept":"71","reg":"bfc"}},{"type":"Feature","geometry":{"type":"Point","coordinates":[3.76917,46.61914]},"properties":{"nom":"Résidence Castelet - Meublés en Résidence Thermale","sub":"LodgingBusiness","cm":"71140#Bourbon-Lancy","web":"https://www.residencesthermales.fr/","uri":"https://data.datatourisme.fr/6/019dc1db-6636-31cc-994e-134de7332018","dept":"71","reg":"bfc"}},{"type":"Feature","geometry":{"type":"Point","coordinates":[4.19121,46.38373]},"properties":{"nom":"Centre de tourisme équestre Le Moulin de Vaux","sub":"Rental","cm":"71600#Nochize","web":"https://www.lemoulindevaux.com/","uri":"https://data.datatourisme.fr/6/d89dbf06-31de-3b38-91ff-d45cbd73d118","dept":"71","reg":"bfc"}},{"type":"Feature","geometry":{"type":"Point","coordinates":[4.59907,46.5166]},"properties":{"nom":"Camping La Clochette","sub":"Camping","cm":"71250#Salornay-sur-Guye","web":"https://www.campinglaclochette.fr/<>https://www.campinglaclochette.fr/bnb/bnb-1-1","uri":"https://data.datatourisme.fr/6/dfe372ea-1a7d-38e0-ba76-98c1bcc2f099","dept":"71","reg":"bfc"}},{"type":"Feature","geometry":{"type":"Point","coordinates":[4.69459,46.64657]},"properties":{"nom":"Camping Moulin de Collonge","sub":"Camping","cm":"71390#Saint-Boil","web":"https://online.resa-booking.com/front/list.php?id_est=1371&lang=fr<>https://www.moulindecollonge.com/","uri":"https://data.datatourisme.fr/6/ee70cd56-7a92-37b9-b6b5-802b12195736","dept":"71","reg":"bfc"}},{"type":"Feature","geometry":{"type":"Point","coordinates":[4.81508,46.32345]},"properties":{"nom":"Gîte \"Lavande\"","sub":"LodgingBusiness","cm":"71000#Mâcon","web":"https://www.gitelanoyeraie.fr/<>https://www.facebook.com/profile.php?id=61582452912659","uri":"https://data.datatourisme.fr/6/f2693ae0-25b0-30fd-a885-9b54348df45f","dept":"71","reg":"bfc"}},{"type":"Feature","geometry":{"type":"Point","coordinates":[4.66702,46.42491]},"properties":{"nom":"Les Vélos de Cluny - location de vélo","sub":"Rental","cm":"71250#Cluny","web":"https://www.velos-cluny.fr/<>https://fr-fr.facebook.com/cluny.cycles","uri":"https://data.datatourisme.fr/6/fe0ca780-18b3-3174-bceb-7b9c83e82d55","dept":"71","reg":"bfc"}},{"type":"Feature","geometry":{"type":"Point","coordinates":[4.7482,46.90881]},"properties":{"nom":"Burgundy by Request","sub":"Rental","cm":"71150#Chagny","web":"http://www.burgundybyrequest.com/","uri":"https://data.datatourisme.fr/6/ec816ca5-e1dc-39fa-ae5b-23f0ad224d58","dept":"71","reg":"bfc"}},{"type":"Feature","geometry":{"type":"Point","coordinates":[3.97628,46.48003]},"properties":{"nom":"Villa Pona","sub":"Hotel","cm":"71160#Digoin","web":"https://villapona.com/","uri":"https://data.datatourisme.fr/6/ed594ecb-a42b-3da3-b0e1-8f86e0270a7f","dept":"71","reg":"bfc"}},{"type":"Feature","geometry":{"type":"Point","coordinates":[4.83657,46.92282]},"properties":{"nom":"La Longère de Bourgogne","sub":"BedAndBreakfast","cm":"71150#Demigny","web":"https://www.instagram.com/agencetin/p/C_-UfioNIw6/?img_index=1<>https://www.lalongeredebourgogne.com/<>https://www.lalongeredebourgogne.com/reserver-votre-sejour/","uri":"https://data.datatourisme.fr/6/f333c84f-ae64-33fa-8cd1-9ac68d074cf9","dept":"71","reg":"bfc"}},{"type":"Feature","geometry":{"type":"Point","coordinates":[4.15417,46.91224]},"properties":{"nom":"Ferme de la Chassagne","sub":"BedAndBreakfast","cm":"71190#Laizy","web":null,"uri":"https://data.datatourisme.fr/6/c99842b5-3626-304c-9746-33217830c19e","dept":"71","reg":"bfc"}},{"type":"Feature","geometry":{"type":"Point","coordinates":[4.10867,46.45214]},"properties":{"nom":"JMV Cycles","sub":"Rental","cm":"71600#Paray-le-Monial","web":"https://www.facebook.com/JMVCycles/","uri":"https://data.datatourisme.fr/6/482fa243-d4a6-3aa1-85fd-1b6bc22456b7","dept":"71","reg":"bfc"}},{"type":"Feature","geometry":{"type":"Point","coordinates":[3.77316,46.61844]},"properties":{"nom":"Atelier","sub":"LodgingBusiness","cm":"71140#Bourbon-Lancy","web":null,"uri":"https://data.datatourisme.fr/6/b2c3be95-d222-3f13-9f4f-7c027db89b93","dept":"71","reg":"bfc"}},{"type":"Feature","geometry":{"type":"Point","coordinates":[4.74661,46.78424]},"properties":{"nom":"La Maison Jaune","sub":"LodgingBusiness","cm":"71640#Givry","web":"http://alineburat.wixsite.com/lamaisonjaune<>https://fr-fr.facebook.com/people/La-Maison-Jaune/100028975017170/","uri":"https://data.datatourisme.fr/6/623a4bf5-6ac1-350c-bce7-638d3c5be913","dept":"71","reg":"bfc"}},{"type":"Feature","geometry":{"type":"Point","coordinates":[4.08354,46.27059]},"properties":{"nom":"Gîte Belle-Vue","sub":"LodgingBusiness","cm":"71110#Semur-en-Brionnais","web":"http://gite-belle-vue-71semur.fr/","uri":"https://data.datatourisme.fr/6/9713d662-5e17-33b2-9ecd-3cd1003977b5","dept":"71","reg":"bfc"}},{"type":"Feature","geometry":{"type":"Point","coordinates":[4.08341,46.27062]},"properties":{"nom":"Location de vélos au \"Gîte Belle Vue\"","sub":"Rental","cm":"71110#Semur-en-Brionnais","web":"http://www.gite-belle-vue-71semur.fr/","uri":"https://data.datatourisme.fr/6/7c5698ac-b9cf-3c27-beab-8306adb91b67","dept":"71","reg":"bfc"}},{"type":"Feature","geometry":{"type":"Point","coordinates":[4.05426,46.20935]},"properties":{"nom":"Chambres d'hôtes \"Fenêtre sur Loire\"","sub":"BedAndBreakfast","cm":"71340#Melay","web":"https://www.fenetre-sur-loire.fr/","uri":"https://data.datatourisme.fr/6/a6577137-6fdb-3827-8eb1-1420d5ac2773","dept":"71","reg":"bfc"}},{"type":"Feature","geometry":{"type":"Point","coordinates":[4.05426,46.20935]},"properties":{"nom":"Bougres d'Anes","sub":"Rental","cm":"71340#Melay","web":"https://www.bougresdanes.com/fr/<>https://www.fenetre-sur-loire.fr/<>https://lb-rando.com/fr/<>http://www.facebook.com/bougresdanes?ref=hl","uri":"https://data.datatourisme.fr/6/76e8f627-9dd6-3088-94fa-ac47ed228ebe","dept":"71","reg":"bfc"}},{"type":"Feature","geometry":{"type":"Point","coordinates":[4.77049,46.85007]},"properties":{"nom":"Hôtel du Nord","sub":"HotelRestaurant","cm":"71150#Fontaines","web":"http://www.hotel-du-nord-fontaines.fr/<>https://fr-fr.facebook.com/hoteldunord.fontaines","uri":"https://data.datatourisme.fr/6/fbcfa797-e272-3bf5-ac76-db97a823da83","dept":"71","reg":"bfc"}},{"type":"Feature","geometry":{"type":"Point","coordinates":[4.77049,46.85007]},"properties":{"nom":"Restaurant de l'Hôtel du Nord","sub":"HotelRestaurant","cm":"71150#Fontaines","web":"http://www.hotel-du-nord-fontaines.com/","uri":"https://data.datatourisme.fr/6/cc3633f4-4051-345d-9f03-6f28ea5f45d6","dept":"71","reg":"bfc"}},{"type":"Feature","geometry":{"type":"Point","coordinates":[4.78268,46.79883]},"properties":{"nom":"Le Dracy Hotel et SPA - Restaurant La Garenne","sub":"HotelRestaurant","cm":"71640#Dracy-le-Fort","web":"http://www.ledracy.com/<>https://www.secure-hotel-booking.com/smart/hotel-le-dracy/2G2H/fr/<>https://www.facebook.com/hoteldracy?ref=hl","uri":"https://data.datatourisme.fr/6/fda1c842-10d1-3bec-baa8-38271c3df790","dept":"71","reg":"bfc"}},{"type":"Feature","geometry":{"type":"Point","coordinates":[4.78283,46.79939]},"properties":{"nom":"Restaurant La Garenne","sub":"HotelRestaurant","cm":"71640#Dracy-le-Fort","web":"http://www.ledracy.com/","uri":"https://data.datatourisme.fr/6/b2d922a9-20fd-32bc-a1c3-bab1cbee80dd","dept":"71","reg":"bfc"}},{"type":"Feature","geometry":{"type":"Point","coordinates":[4.52941,46.84268]},"properties":{"nom":"Gîte de Chavannes","sub":"LodgingBusiness","cm":"71670#Saint-Pierre-de-Varennes","web":"https://www.airbnb.fr/rooms/12850056","uri":"https://data.datatourisme.fr/6/3cdda50a-fb44-3daf-8dbf-2795e28fec70","dept":"71","reg":"bfc"}},{"type":"Feature","geometry":{"type":"Point","coordinates":[3.76274,46.62995]},"properties":{"nom":"Le Gîte Bleu","sub":"LodgingBusiness","cm":"71140#Bourbon-Lancy","web":"https://www.legitebleu-bourbonlancy.fr/","uri":"https://data.datatourisme.fr/6/7fda1bff-a97e-3b17-baa4-4e688b694e46","dept":"71","reg":"bfc"}},{"type":"Feature","geometry":{"type":"Point","coordinates":[4.82913,46.30619]},"properties":{"nom":"LOGIS Hôtel de Bourgogne","sub":"Hotel","cm":"71000#Mâcon","web":"http://www.hoteldebourgogne.com/<>https://www.logishotels.com/fr/hotel/logis-hotel-de-bourgogne-9904","uri":"https://data.datatourisme.fr/6/a107b0f7-7bdc-3353-8c37-47c8cc506425","dept":"71","reg":"bfc"}},{"type":"Feature","geometry":{"type":"Point","coordinates":[4.68625,46.33037]},"properties":{"nom":"Chambres d'hôtes du Château de Pierreclos","sub":"BedAndBreakfast","cm":"71960#Pierreclos","web":"http://www.chateaudepierreclos.com/","uri":"https://data.datatourisme.fr/6/a87079b1-4fd1-3ea0-942d-c345d502bec6","dept":"71","reg":"bfc"}},{"type":"Feature","geometry":{"type":"Point","coordinates":[4.91432,46.55907]},"properties":{"nom":"Hôtel-Restaurant Aux Terrasses","sub":"HotelRestaurant","cm":"71700#Tournus","web":"http://www.aux-terrasses.com/<>http://www.facebook.com/AuxTerrasses<>https://311561.weebnb.com/book/bnb/","uri":"https://data.datatourisme.fr/6/43850743-4782-3a21-9dbf-6faebfd69498","dept":"71","reg":"bfc"}},{"type":"Feature","geometry":{"type":"Point","coordinates":[4.91425,46.55905]},"properties":{"nom":"Aux Terrasses","sub":"HotelRestaurant","cm":"71700#Tournus","web":"http://www.aux-terrasses.com/","uri":"https://data.datatourisme.fr/6/fd11b231-844e-3d52-ab92-526892a01cf7","dept":"71","reg":"bfc"}},{"type":"Feature","geometry":{"type":"Point","coordinates":[4.42063,46.80579]},"properties":{"nom":"Hôtel-restaurant La Belle Époque","sub":"HotelRestaurant","cm":"71200#Le Creusot","web":"https://www.la-belle-epoque-71.fr/","uri":"https://data.datatourisme.fr/6/453536ae-c01c-3c80-b490-d686c741908b","dept":"71","reg":"bfc"}},{"type":"Feature","geometry":{"type":"Point","coordinates":[4.42063,46.80579]},"properties":{"nom":"Restaurant La Belle Époque","sub":"HotelRestaurant","cm":"71200#Le Creusot","web":null,"uri":"https://data.datatourisme.fr/6/635b1597-024c-3c9e-bf63-efa1c23bb66f","dept":"71","reg":"bfc"}},{"type":"Feature","geometry":{"type":"Point","coordinates":[4.47487,46.36394]},"properties":{"nom":"SAS MARGIS - Le Village des Meuniers","sub":"Camping","cm":"71520#Dompierre-les-Ormes","web":"https://www.clicochic.com/camping-france-bourgogne-village_des_meuniers-FR.html<>https://thelisresa.webcamp.fr/?camping=meuniers71&track=&lang=fr&PHPSESSID=t7o1vtpnvkqafvi9rc89ua47qf<>https://www.facebook.com/villagedesmeuniers.bourgogne/?locale=fr_FR","uri":"https://data.datatourisme.fr/6/701c9508-c5d8-3dea-b2ab-96e6554236ea","dept":"71","reg":"bfc"}},{"type":"Feature","geometry":{"type":"Point","coordinates":[4.13456,46.80436]},"properties":{"nom":"Camping Municipal de la Plage","sub":"Camping","cm":"71190#Saint-Nizier-sur-Arroux","web":"https://mairiestniziersura.wixsite.com/camping-de-la-plage","uri":"https://data.datatourisme.fr/6/b943433b-3346-36fc-b6b0-9b72a9cad648","dept":"71","reg":"bfc"}},{"type":"Feature","geometry":{"type":"Point","coordinates":[4.84458,46.78457]},"properties":{"nom":"Hôtel SAS A la Villa Boucicaut","sub":"Hotel","cm":"71100#Chalon-sur-Saône","web":"http://www.la-villa-boucicaut.fr/","uri":"https://data.datatourisme.fr/6/4ed2e9e4-2cb7-3b56-b734-4e51187189f4","dept":"71","reg":"bfc"}},{"type":"Feature","geometry":{"type":"Point","coordinates":[4.32183,46.95363]},"properties":{"nom":"Hôtel Ibis","sub":"Hotel","cm":"71400#Autun","web":"https://311925.weebnb.com/book/bnb/bnb-1-1<>https://all.accor.com/hotel/3232/index.fr.shtml?utm_campaign=seo+maps&utm_medium=seo+maps&utm_source=google+Maps","uri":"https://data.datatourisme.fr/6/cca1e55b-bad5-324e-be01-6eac227446f2","dept":"71","reg":"bfc"}},{"type":"Feature","geometry":{"type":"Point","coordinates":[4.68062,46.566]},"properties":{"nom":"Gîte Paysan \"Marie-Claude Bouillin\"","sub":"LodgingBusiness","cm":"71460#Malay","web":null,"uri":"https://data.datatourisme.fr/6/cd2321fd-9082-3212-85f5-dfc8766003b1","dept":"71","reg":"bfc"}},{"type":"Feature","geometry":{"type":"Point","coordinates":[4.06329,46.95167]},"properties":{"nom":"Gîte Darion","sub":"LodgingBusiness","cm":"71990#Saint-Prix","web":"https://morvanrustique.com/","uri":"https://data.datatourisme.fr/6/9ab51d4e-1dbf-388f-8633-46fc78609586","dept":"71","reg":"bfc"}},{"type":"Feature","geometry":{"type":"Point","coordinates":[4.72009,46.34492]},"properties":{"nom":"Grand gîte de la Roche Bleue","sub":"LodgingBusiness","cm":"71960#La Roche-Vineuse","web":"https://www.facebook.com/Ecogitactions<>https://www.alarochebleue.com/bnb/bnb-1-1<>https://www.instagram.com/grandgitedelarochebleue/<>https://alarochebleue.fr/","uri":"https://data.datatourisme.fr/6/3baf7b95-49f7-393d-984a-ba9dcc9f6a5d","dept":"71","reg":"bfc"}},{"type":"Feature","geometry":{"type":"Point","coordinates":[4.72009,46.34492]},"properties":{"nom":"Rez-de-jardin privé dans maison familiale","sub":"LodgingBusiness","cm":"71960#La Roche-Vineuse","web":"https://www.facebook.com/Ecogitactions<>https://www.instagram.com/grandgitedelarochebleue/<>https://alarochebleue.fr/","uri":"https://data.datatourisme.fr/6/98e1b362-4991-37e3-8dbb-f1d7d3c1d79c","dept":"71","reg":"bfc"}},{"type":"Feature","geometry":{"type":"Point","coordinates":[4.11768,46.46787]},"properties":{"nom":"The Originals City Paray-le-Monial","sub":"Hotel","cm":"71600#Paray-le-Monial","web":"https://www.theoriginalshotels.com/en/hotels/paray-le-monial?datein=7/2/2021&dateout=7/3/2021&rooms=1&adults=2&children=0&infant=0","uri":"https://data.datatourisme.fr/6/b6cc9161-2bf8-300a-9adc-781ce4856f3a","dept":"71","reg":"bfc"}},{"type":"Feature","geometry":{"type":"Point","coordinates":[4.6804,46.74859]},"properties":{"nom":"Bourgogne Montgolfière","sub":"Rental","cm":"71390#Moroges","web":"https://www.montgolfiere-en-bourgogne.fr/<>https://www.facebook.com/Bourgogne.Montgolfiere/","uri":"https://data.datatourisme.fr/6/015001ed-552c-32c2-9301-540a1262dfa6","dept":"71","reg":"bfc"}},{"type":"Feature","geometry":{"type":"Point","coordinates":[4.8353,46.79827]},"properties":{"nom":"Hôtel-Restaurant Ibis Style Chalon-sur-Saône","sub":"HotelRestaurant","cm":"71100#Chalon-sur-Saône","web":"https://www.accorhotels.com/fr/hotel-0368-ibis-styles-chalon-sur-saone/index.shtml<>https://www.accorhotels.com/fr/hotel-0368-ibis-styles-chalon-sur-saone/index.shtmltel","uri":"https://data.datatourisme.fr/6/7b500752-14fb-3bd9-8bfa-59e2a489504f","dept":"71","reg":"bfc"}},{"type":"Feature","geometry":{"type":"Point","coordinates":[4.83255,46.79993]},"properties":{"nom":"MilléZim","sub":"HotelRestaurant","cm":"71100#Chalon-sur-Saône","web":null,"uri":"https://data.datatourisme.fr/6/dafaf1c7-a782-3d93-954f-f55085e393d1","dept":"71","reg":"bfc"}},{"type":"Feature","geometry":{"type":"Point","coordinates":[4.84766,46.7541]},"properties":{"nom":"Logis Les Charmilles - Restaurant des Grands Crus","sub":"HotelRestaurant","cm":"71100#Lux","web":"http://www.logislescharmilles.fr/<>https://www.logishotels.com/fr/hotel/logis-hotel-les-charmilles-925","uri":"https://data.datatourisme.fr/6/1a1e4909-0142-3d36-85a6-7a357d73dd01","dept":"71","reg":"bfc"}},{"type":"Feature","geometry":{"type":"Point","coordinates":[4.11398,46.22294]},"properties":{"nom":"Chambres d'hôtes de charme \"Les Folies d'Hélène\"","sub":"BedAndBreakfast","cm":"71340#Mailly","web":"https://lesfoliesdhelene.fr/<>https://www.instagram.com/les_folies_helene","uri":"https://data.datatourisme.fr/6/b291ec7b-d6d2-3994-bb94-4a7f086e2fec","dept":"71","reg":"bfc"}},{"type":"Feature","geometry":{"type":"Point","coordinates":[4.4094,46.32998]},"properties":{"nom":"Hôtel-Restaurant Le Saint-Cyr","sub":"HotelRestaurant","cm":"71520#Montmelard","web":"https://www.lesaintcyr.fr/<>https://www.logishotels.com/fr/hotel/logis-hotel-le-saint-cyr-6280<>https://www.facebook.com/pages/H%C3%B4tel-Restaurant-Le-Saint-Cyr/604915642907156","uri":"https://data.datatourisme.fr/6/7ccf2d77-03b2-3d4f-8446-0ce5fc6dfec7","dept":"71","reg":"bfc"}},{"type":"Feature","geometry":{"type":"Point","coordinates":[4.94968,46.87917]},"properties":{"nom":"Camping de la Saône","sub":"Camping","cm":"71590#Gergy","web":"https://campingdelasaone.jimdofree.com/","uri":"https://data.datatourisme.fr/6/9e40f3c1-9958-3ce2-aa70-95a92ee3d36b","dept":"71","reg":"bfc"}},{"type":"Feature","geometry":{"type":"Point","coordinates":[5.21752,46.62419]},"properties":{"nom":"Camping de Louhans \"Les Trois Rivières\"","sub":"Camping","cm":"71500#Louhans","web":"https://www.campingcarpark.com/fr_FR/camping-car/bourgogne-franche-comte/saone-et-loire/louhans-les-trois-rivieres","uri":"https://data.datatourisme.fr/6/a4416e05-de8b-3f0b-b8f1-30251050ae66","dept":"71","reg":"bfc"}},{"type":"Feature","geometry":{"type":"Point","coordinates":[4.65369,46.43623]},"properties":{"nom":"ART'HOTEL & SPA Le Potin Gourmand","sub":"HotelRestaurant","cm":"71250#Cluny","web":"http://www.potingourmand.com/<>https://311183.weebnb.com/book/bnb/","uri":"https://data.datatourisme.fr/6/a9ea3c0e-6551-3683-a04c-e53bc6998679","dept":"71","reg":"bfc"}},{"type":"Feature","geometry":{"type":"Point","coordinates":[5.24351,46.7525]},"properties":{"nom":"Hostellerie Bressane","sub":"HotelRestaurant","cm":"71330#Saint-Germain-du-Bois","web":"https://www.logishotels.com/fr/hotel/logis-hostellerie-bressane-rest-ho-gastronome-2145<>https://www.facebook.com/hostelleriebressanesaintgermaindubois/?fref=ts<>https://giot-hostelleriebressane.com/","uri":"https://data.datatourisme.fr/6/c11c6807-5c88-3baf-bcaf-e5c7f6252fca","dept":"71","reg":"bfc"}},{"type":"Feature","geometry":{"type":"Point","coordinates":[5.24351,46.7525]},"properties":{"nom":"Hostellerie Bressane Restaurant Ho'Gastronome","sub":"HotelRestaurant","cm":"71330#Saint-Germain-du-Bois","web":"https://www.facebook.com/hostelleriebressanesaintgermaindubois/?fref=ts<>https://giot-hostelleriebressane.com/","uri":"https://data.datatourisme.fr/6/c1b55926-26c9-3188-ac65-c75b6c1b69bf","dept":"71","reg":"bfc"}},{"type":"Feature","geometry":{"type":"Point","coordinates":[4.71386,46.83729]},"properties":{"nom":"Gîte Le Balthazar","sub":"LodgingBusiness","cm":"71640#Mercurey","web":"https://gitelebalthazar.wixsite.com/gitemercurey","uri":"https://data.datatourisme.fr/6/e09c4df1-0d5e-3445-b188-f62f50d1d843","dept":"71","reg":"bfc"}},{"type":"Feature","geometry":{"type":"Point","coordinates":[4.8474,46.83537]},"properties":{"nom":"Wine Dream Concept","sub":"Rental","cm":"71530#Fragnes-La Loyère","web":"http://www.wine-dream-concept.fr/","uri":"https://data.datatourisme.fr/6/10951124-552a-377f-a939-7c31b84fdebd","dept":"71","reg":"bfc"}},{"type":"Feature","geometry":{"type":"Point","coordinates":[4.57928,46.8658]},"properties":{"nom":"Gîte Le Nid","sub":"LodgingBusiness","cm":"71490#Couches","web":"http://www.domainelesbertrands.com/<>https://www.facebook.com/domainelesbertrands/","uri":"https://data.datatourisme.fr/6/cf31464b-369c-3a54-b2ab-038c69ff0e3c","dept":"71","reg":"bfc"}},{"type":"Feature","geometry":{"type":"Point","coordinates":[4.57928,46.8658]},"properties":{"nom":"Gîte L'Ecureuil","sub":"LodgingBusiness","cm":"71490#Couches","web":"http://www.domainelesbertrands.com/<>https://www.facebook.com/domainelesbertrands/","uri":"https://data.datatourisme.fr/6/e8b02a2d-78a0-3ae8-b376-4f6fe18b80c0","dept":"71","reg":"bfc"}},{"type":"Feature","geometry":{"type":"Point","coordinates":[4.23255,46.99436]},"properties":{"nom":"Le Champ Mignot","sub":"LodgingBusiness","cm":"71400#Tavernay","web":"https://www.relaisduchampmignot.fr/bnb/bnb-1-1<>https://www.relaisduchampmignot.fr/","uri":"https://data.datatourisme.fr/6/cf8a470e-94a4-3a9c-8ad6-c371c0f1fa3a","dept":"71","reg":"bfc"}},{"type":"Feature","geometry":{"type":"Point","coordinates":[4.29342,46.95432]},"properties":{"nom":"Hôtel-Restaurant du Commerce","sub":"HotelRestaurant","cm":"71400#Autun","web":"https://ducommerce.hotel-autun.fr/<>https://www.secure-hotel-booking.com/d-edge/Hotel-Commerce-Autun/JHNJ/fr/DateSelection","uri":"https://data.datatourisme.fr/6/22c4bde7-068c-37a7-b3c0-36bdd742b97b","dept":"71","reg":"bfc"}},{"type":"Feature","geometry":{"type":"Point","coordinates":[4.57784,46.86556]},"properties":{"nom":"SARL Quad Vignes et Châteaux","sub":"Rental","cm":"71490#Couches","web":"http://www.quad-vignes-chateaux.fr/","uri":"https://data.datatourisme.fr/6/46326870-c805-3db8-8a59-f290262c3b4b","dept":"71","reg":"bfc"}},{"type":"Feature","geometry":{"type":"Point","coordinates":[4.09336,47.08476]},"properties":{"nom":"Gîte des Châtaigniers","sub":"LodgingBusiness","cm":"71550#Anost","web":null,"uri":"https://data.datatourisme.fr/6/4a205109-9e9f-3949-9e3d-6712227f32da","dept":"71","reg":"bfc"}},{"type":"Feature","geometry":{"type":"Point","coordinates":[4.32309,46.29365]},"properties":{"nom":"Camping Les Bruyères","sub":"Camping","cm":"71800#La Clayette","web":"https://www.campingbruyeres.com/","uri":"https://data.datatourisme.fr/6/50987699-c013-3056-b14a-cfe9636037eb","dept":"71","reg":"bfc"}},{"type":"Feature","geometry":{"type":"Point","coordinates":[4.31946,46.2908]},"properties":{"nom":"Aire de service au camping Les Bruyères","sub":"CampingAndCaravanning","cm":"71800#La Clayette","web":"https://www.campingbruyeres.com/","uri":"https://data.datatourisme.fr/6/ec481278-da96-3921-857b-fd0d7ea08cf3","dept":"71","reg":"bfc"}},{"type":"Feature","geometry":{"type":"Point","coordinates":[4.85251,46.77924]},"properties":{"nom":"Hôtel Saint-Jean","sub":"Hotel","cm":"71100#Chalon-sur-Saône","web":"http://www.menu-on-line-france.com/hotel-saint-jean-chalon-saone/<>https://www.hotelsaintjean.fr/","uri":"https://data.datatourisme.fr/6/51be41eb-edb5-31d1-a294-8e15f9db6c11","dept":"71","reg":"bfc"}},{"type":"Feature","geometry":{"type":"Point","coordinates":[4.84484,46.33009]},"properties":{"nom":"Camping Municipal de Mâcon","sub":"Camping","cm":"71000#Sancé","web":"https://www.campingmacon.com/","uri":"https://data.datatourisme.fr/6/520e62f5-c167-3254-8ac3-012b33f91345","dept":"71","reg":"bfc"}},{"type":"Feature","geometry":{"type":"Point","coordinates":[3.76324,46.6161]},"properties":{"nom":"LES  GITES  BOURBONNIENS n° 46","sub":"LodgingBusiness","cm":"71140#Bourbon-Lancy","web":"https://www.lesgitesbourbonniens.fr/","uri":"https://data.datatourisme.fr/6/b94cd9d4-3565-3876-9eed-617cc11e319a","dept":"71","reg":"bfc"}},{"type":"Feature","geometry":{"type":"Point","coordinates":[4.82372,46.31579]},"properties":{"nom":"Cit'Hôtel Escatel","sub":"Hotel","cm":"71000#Mâcon","web":"http://escatel.com/<>https://www.facebook.com/escatel.macon<>https://premium.logishotels.com/fo/booking/233/226281?specialMode=default&custid=233&langcode=FR&hotelid=226281&m=booking","uri":"https://data.datatourisme.fr/6/c313eb9e-50d9-3a16-9faf-3e0f0f102329","dept":"71","reg":"bfc"}},{"type":"Feature","geometry":{"type":"Point","coordinates":[4.48884,46.75387]},"properties":{"nom":"Kyriad Montchanin - Le Creusot","sub":"HotelRestaurant","cm":"71210#Montchanin","web":"http://www.kyriad-montchanin-le-creusot.fr/","uri":"https://data.datatourisme.fr/6/d2473703-c4fe-321b-997c-96b6e18f7825","dept":"71","reg":"bfc"}},{"type":"Feature","geometry":{"type":"Point","coordinates":[4.48884,46.75387]},"properties":{"nom":"Pool O Po","sub":"HotelRestaurant","cm":"71210#Montchanin","web":"http://www.poolopo.fr/","uri":"https://data.datatourisme.fr/6/52790524-1ac2-3828-951b-e3b1f23e592a","dept":"71","reg":"bfc"}},{"type":"Feature","geometry":{"type":"Point","coordinates":[3.98735,46.48416]},"properties":{"nom":"Hôtel-Restaurant Le Relais du Canalou","sub":"HotelRestaurant","cm":"71160#Digoin","web":"http://www.relaisducanalou.com/<>https://www.logishotels.com/fr/hotel/logis-hotel-le-relais-du-canalou-10780<>https://www.facebook.com/relaisducanalou/","uri":"https://data.datatourisme.fr/6/d24950a7-c2f7-3976-b914-35cb385ff77b","dept":"71","reg":"bfc"}},{"type":"Feature","geometry":{"type":"Point","coordinates":[3.98752,46.4841]},"properties":{"nom":"Restaurant Le Relais du Canalou","sub":"HotelRestaurant","cm":"71160#Digoin","web":"http://www.relaisducanalou.com/<>https://www.facebook.com/relaisducanalou/?ref=br_rs","uri":"https://data.datatourisme.fr/6/43b54749-55a0-3be8-a6d2-6cfc5685794f","dept":"71","reg":"bfc"}},{"type":"Feature","geometry":{"type":"Point","coordinates":[3.76841,46.61929]},"properties":{"nom":"Villa Santa Hélèna","sub":"LodgingBusiness","cm":"71140#Bourbon-Lancy","web":"https://www.villasantahelena-bourbonlancy.fr/<>https://www.villasantahelena-bourbonlancy.fr/bnb/bnb-1-1","uri":"https://data.datatourisme.fr/6/c05b274d-28ad-35d9-998b-9f9e9c1e434f","dept":"71","reg":"bfc"}},{"type":"Feature","geometry":{"type":"Point","coordinates":[3.76833,46.62373]},"properties":{"nom":"La Vie là est Douce \" Cocoon\"","sub":"LodgingBusiness","cm":"71140#Bourbon-Lancy","web":"https://www.lavielaestdouce.fr/","uri":"https://data.datatourisme.fr/6/cb7fcec7-eb21-3fef-a891-b0419399f6c9","dept":"71","reg":"bfc"}},{"type":"Feature","geometry":{"type":"Point","coordinates":[3.76839,46.62375]},"properties":{"nom":"La Vie là est Douce \" Havre de paix \"","sub":"LodgingBusiness","cm":"71140#Bourbon-Lancy","web":"https://www.lavielaestdouce.fr/","uri":"https://data.datatourisme.fr/6/8ed90490-0870-3f77-9d29-70ee8f1fe5c0","dept":"71","reg":"bfc"}},{"type":"Feature","geometry":{"type":"Point","coordinates":[3.76833,46.62373]},"properties":{"nom":"La Vie là est Douce \" Petits Bonheurs\"","sub":"LodgingBusiness","cm":"71140#Bourbon-Lancy","web":"https://www.lavielaestdouce.fr/","uri":"https://data.datatourisme.fr/6/f3b90b46-da35-3c54-bc67-662dd229e145","dept":"71","reg":"bfc"}},{"type":"Feature","geometry":{"type":"Point","coordinates":[3.7635,46.61626]},"properties":{"nom":"LES  GITES  BOURBONNIENS n° 37","sub":"LodgingBusiness","cm":"71140#Bourbon-Lancy","web":"https://www.lesgitesbourbonniens.fr/","uri":"https://data.datatourisme.fr/6/2f3b8788-edc2-3f8b-ad20-ae5c0101e938","dept":"71","reg":"bfc"}},{"type":"Feature","geometry":{"type":"Point","coordinates":[5.22829,46.63024]},"properties":{"nom":"La Poularde","sub":"HotelRestaurant","cm":"71500#Louhans","web":"https://www.la-poularde.fr/","uri":"https://data.datatourisme.fr/6/6f062752-eb8b-3250-9d0d-65625501934a","dept":"71","reg":"bfc"}},{"type":"Feature","geometry":{"type":"Point","coordinates":[5.22845,46.63048]},"properties":{"nom":"Hôtel-Restaurant de la Poularde","sub":"HotelRestaurant","cm":"71500#Louhans","web":"https://311826.weebnb.com/book/bnb/<>https://www.la-poularde.fr/","uri":"https://data.datatourisme.fr/6/891ff9ab-be30-30f1-88d1-03124655c6c7","dept":"71","reg":"bfc"}},{"type":"Feature","geometry":{"type":"Point","coordinates":[4.77486,46.21264]},"properties":{"nom":"Visite \"Signature\" à la Maison Jean Loron","sub":"Rental","cm":"71570#La Chapelle-de-Guinchay","web":"https://www.loron.fr/<>https://www.loron.fr/oenotourisme/","uri":"https://data.datatourisme.fr/6/391a06e2-03a5-3295-b872-935d5ddeea69","dept":"71","reg":"bfc"}},{"type":"Feature","geometry":{"type":"Point","coordinates":[4.77486,46.21264]},"properties":{"nom":"Visite \"Haute Couture\" à la Maison Jean Loron","sub":"Rental","cm":"71570#La Chapelle-de-Guinchay","web":"https://www.loron.fr/<>https://www.loron.fr/oenotourisme/","uri":"https://data.datatourisme.fr/6/c647ae10-827f-3ee5-8d27-8ddc9de60307","dept":"71","reg":"bfc"}},{"type":"Feature","geometry":{"type":"Point","coordinates":[4.77486,46.21264]},"properties":{"nom":"Visite \"Epicurienne\" à la Maison Jean Loron","sub":"Rental","cm":"71570#La Chapelle-de-Guinchay","web":"https://www.loron.fr/<>https://www.loron.fr/oenotourisme/","uri":"https://data.datatourisme.fr/6/03bb85b3-ebfe-36e2-9473-9fdcd9c9e411","dept":"71","reg":"bfc"}},{"type":"Feature","geometry":{"type":"Point","coordinates":[4.84618,46.78338]},"properties":{"nom":"Hôtel de la Colombière","sub":"Hotel","cm":"71100#Chalon-sur-Saône","web":"http://www.hoteldelacolombiere.com/","uri":"https://data.datatourisme.fr/6/08d921b5-8748-3813-b155-dacc8d01b085","dept":"71","reg":"bfc"}},{"type":"Feature","geometry":{"type":"Point","coordinates":[4.65293,46.65237]},"properties":{"nom":"Les 4 Cheminées","sub":"LodgingBusiness","cm":"71460#Culles-les-Roches","web":"http://www.les4cheminees.fr/","uri":"https://data.datatourisme.fr/6/0b02e424-c046-3dfb-825a-b7eccb5e7fc0","dept":"71","reg":"bfc"}},{"type":"Feature","geometry":{"type":"Point","coordinates":[4.11222,46.4567]},"properties":{"nom":"Meublé d'hôtes","sub":"LodgingBusiness","cm":"71600#Paray-le-Monial","web":"https://appartement-hotes-paray.fr/","uri":"https://data.datatourisme.fr/6/ef54f593-9aa1-351f-afe6-7b22ee24aed6","dept":"71","reg":"bfc"}},{"type":"Feature","geometry":{"type":"Point","coordinates":[4.29192,46.37518]},"properties":{"nom":"Gîte de la Croix","sub":"LodgingBusiness","cm":"71800#Dyo","web":null,"uri":"https://data.datatourisme.fr/6/20cf1134-e9f5-3889-8643-e1ca2412f642","dept":"71","reg":"bfc"}},{"type":"Feature","geometry":{"type":"Point","coordinates":[4.37203,46.6822]},"properties":{"nom":"Konine","sub":"Hotel","cm":"71300#Montceau-les-Mines","web":"http://www.konine.fr/","uri":"https://data.datatourisme.fr/6/5e80b2b2-3aae-3226-8442-a6fa2a9ee3b1","dept":"71","reg":"bfc"}},{"type":"Feature","geometry":{"type":"Point","coordinates":[4.29312,46.95434]},"properties":{"nom":"Hôtel de la Gare","sub":"Hotel","cm":"71400#Autun","web":"https://delagare.hotel-autun.fr/<>https://www.secure-hotel-booking.com/d-edge/Hotel-Gare-Autun/JHNR/fr/DateSelection","uri":"https://data.datatourisme.fr/6/0b333dbd-fd66-379b-8d39-243d4ceeddf2","dept":"71","reg":"bfc"}},{"type":"Feature","geometry":{"type":"Point","coordinates":[3.77288,46.61886]},"properties":{"nom":"Hôtel La Tourelle du Beffroi","sub":"Hotel","cm":"71140#Bourbon-Lancy","web":"http://hotellatourelle.fr/","uri":"https://data.datatourisme.fr/6/95ff1ebc-14eb-33fb-80a1-9e5a58533ed5","dept":"71","reg":"bfc"}},{"type":"Feature","geometry":{"type":"Point","coordinates":[4.94523,46.84137]},"properties":{"nom":"Camping Mare de Roy","sub":"Camping","cm":"71590#Gergy","web":"http://www.marederoy.fr/","uri":"https://data.datatourisme.fr/6/0b7b7f1d-112d-379c-86a1-c57ee45be7c8","dept":"71","reg":"bfc"}},{"type":"Feature","geometry":{"type":"Point","coordinates":[4.83515,46.66934]},"properties":{"nom":"Camping Les Voiles de Laives","sub":"Camping","cm":"71240#Laives","web":"https://lesvoilesdelaives.com/<>https://www.facebook.com/lesvoilesdelaives<>https://www.instagram.com/lesvoilesdelaives/","uri":"https://data.datatourisme.fr/6/5724cb89-5400-35d5-92b3-319e6db6944a","dept":"71","reg":"bfc"}},{"type":"Feature","geometry":{"type":"Point","coordinates":[4.44524,46.80714]},"properties":{"nom":"Gîte Lyautey","sub":"LodgingBusiness","cm":"71200#Le Creusot","web":null,"uri":"https://data.datatourisme.fr/6/12ecb037-ca20-3b2b-8919-c0aa0f92c5fb","dept":"71","reg":"bfc"}},{"type":"Feature","geometry":{"type":"Point","coordinates":[4.13383,46.94962]},"properties":{"nom":"La Bergerie","sub":"LodgingBusiness","cm":"71990#La Grande-Verrière","web":"http://www.lachauvotte.eu/","uri":"https://data.datatourisme.fr/6/397118ea-bee1-390c-87e0-090af825b57b","dept":"71","reg":"bfc"}},{"type":"Feature","geometry":{"type":"Point","coordinates":[4.13383,46.94962]},"properties":{"nom":"La Vieille Maison","sub":"LodgingBusiness","cm":"71990#La Grande-Verrière","web":"http://www.lachauvotte.eu/","uri":"https://data.datatourisme.fr/6/43227ef5-74cd-3a3f-a584-e2b81f01db77","dept":"71","reg":"bfc"}},{"type":"Feature","geometry":{"type":"Point","coordinates":[4.13383,46.94962]},"properties":{"nom":"La Belle Etable","sub":"LodgingBusiness","cm":"71990#La Grande-Verrière","web":"http://www.lachauvotte.eu/","uri":"https://data.datatourisme.fr/6/d57056ca-e4eb-3288-be55-b87745edfa55","dept":"71","reg":"bfc"}},{"type":"Feature","geometry":{"type":"Point","coordinates":[4.13452,46.94968]},"properties":{"nom":"Camping La Chauvotte","sub":"Camping","cm":"71990#La Grande-Verrière","web":"http://www.lachauvotte.eu/","uri":"https://data.datatourisme.fr/6/22026769-bde5-3a31-afd6-161a069011f0","dept":"71","reg":"bfc"}},{"type":"Feature","geometry":{"type":"Point","coordinates":[4.95679,46.95307]},"properties":{"nom":"Le Petit Sondebois","sub":"LodgingBusiness","cm":"71350#Saint-Gervais-en-Vallière","web":"https://www.abritel.fr/location-vacances/p1431050<>https://www.airbnb.fr/rooms/7738241?source_impression_id=p3_1585683901_Xfzl0KyijgaM1BB9<>https://www.lepetitsondebois.fr/<>https://www.lepetitsondebois.fr/bnb/bnb-1-1<>https://www.greengo.voyage/hote/le-petit-sondebois?srsltid=AfmBOooukw1rXaZ8bSupWB_8nrEJlFYSjFgUdC8vzG-QRMZTTluPSZny<>https://www.booking.com/hotel/fr/le-petit-sondebois-saint-gervais-en-valliere1.fr.html?aid=356980&label=gog235jc-10CAsoTUItbGUtcGV0aXQtc29uZGVib2lzLXNhaW50LWdlcnZhaXMtZW4tdmFsbGllcmUxSA1YA2hNiAEBmAEzuAEXyAEM2AED6AEB-AEBiAIBqAIBuALu5d_JBsACAdICJGJmYWY1YzAwLThlODMtNGE3ZC1hZTIzLWRkMDk4ZmJiNDE3ZNgCAeACAQ&sid=357d288cd2a45eccc23013e5901fdb88&all_sr_blocks=1168439901_389415589_2_0_0&checkin=2025-12-18&checkout=2025-12-20&dest_id=-1465763&dest_type=city&dist=0&group_adults=2&group_children=0&hapos=1&highlighted_blocks=1168439901_389415589_2_0_0&hpos=1&matching_block_id=1168439901_389415589_2_0_0&no_rooms=1&req_adults=2&req_children=0&room1=A%2CA&sb_price_type=total&sr_order=popularity&sr_pri_blocks=1168439901_389415589_2_0_0__22440&srepoch=1765274410&srpvid=d2b9464f322f0345&type=total&ucfs=1&","uri":"https://data.datatourisme.fr/6/a9cdad12-3e0b-3abe-a146-912598e2fd9c","dept":"71","reg":"bfc"}},{"type":"Feature","geometry":{"type":"Point","coordinates":[4.59743,46.42538]},"properties":{"nom":"Tomette Singulière","sub":"BedAndBreakfast","cm":"71250#Château","web":"https://www.tomettesinguliere.com/<>https://checkout.lodgify.com/tomettesinguliere/fr/?currency=EUR#/284539<>https://www.facebook.com/Tomette-Singuli%C3%A8re-2790494187690561<>https://www.instagram.com/tomettesinguliere/","uri":"https://data.datatourisme.fr/6/8341ae58-7a9f-38e1-970e-988cc0d00651","dept":"71","reg":"bfc"}},{"type":"Feature","geometry":{"type":"Point","coordinates":[3.76826,46.6227]},"properties":{"nom":"Chez Mimi","sub":"LodgingBusiness","cm":"71140#Bourbon-Lancy","web":null,"uri":"https://data.datatourisme.fr/6/c1a442cc-ad93-33c7-a221-18240b427468","dept":"71","reg":"bfc"}},{"type":"Feature","geometry":{"type":"Point","coordinates":[4.96506,46.56814]},"properties":{"nom":"Gîte A mi-chemin (6 personnes)","sub":"LodgingBusiness","cm":"71290#L'Abergement-de-Cuisery","web":"https://www.amichemin-tournus.fr/<>https://www.amichemin-tournus.fr/bnb/bnb-3-3","uri":"https://data.datatourisme.fr/6/a5a16421-0c51-34d4-8828-964d69e8d06a","dept":"71","reg":"bfc"}},{"type":"Feature","geometry":{"type":"Point","coordinates":[4.52518,46.42619]},"properties":{"nom":"Gîte Le Champ d'En Haut","sub":"LodgingBusiness","cm":"71250#Buffières","web":"https://lechampdenhaut.wixsite.com/gite-bourgogne","uri":"https://data.datatourisme.fr/6/53480ef2-9da2-3730-bcdc-e2d330934810","dept":"71","reg":"bfc"}},{"type":"Feature","geometry":{"type":"Point","coordinates":[4.09436,47.07888]},"properties":{"nom":"Les Grelodots","sub":"BedAndBreakfast","cm":"71550#Anost","web":"https://311923.weebnb.com/book/bnb/bnb-1-1","uri":"https://data.datatourisme.fr/6/c6279807-2b90-3971-9f05-6a2599d5259b","dept":"71","reg":"bfc"}},{"type":"Feature","geometry":{"type":"Point","coordinates":[4.33725,46.1997]},"properties":{"nom":"Camping Les Feuilles","sub":"Camping","cm":"71170#Chauffailles","web":"https://www.campinglesfeuilles.fr/<>https://www.facebook.com/campinglesfeuilles<>https://www.campinglesfeuilles.fr/bnb/bnb-1-1","uri":"https://data.datatourisme.fr/6/d0c2c767-1c3c-346f-ab2a-eead3fb53a80","dept":"71","reg":"bfc"}},{"type":"Feature","geometry":{"type":"Point","coordinates":[4.33736,46.19972]},"properties":{"nom":"Aire de service au camping Les Feuilles","sub":"CampingAndCaravanning","cm":"71170#Chauffailles","web":"https://www.campinglesfeuilles.fr/bnb/bnb-1-1","uri":"https://data.datatourisme.fr/6/afb43876-aee2-377d-be02-fc491138a9a3","dept":"71","reg":"bfc"}},{"type":"Feature","geometry":{"type":"Point","coordinates":[4.82925,46.30535]},"properties":{"nom":"Hôtel & SPA Panorama 360****  Mâcon - Séminaires & SKYBAR","sub":"Hotel","cm":"71000#Mâcon","web":"http://www.hotelmacon-panorama360.com/<>https://www.facebook.com/hotelpanorama360macon<>https://www.instagram.com/hotelpanorama360macon","uri":"https://data.datatourisme.fr/6/f5c5ccb2-459f-31c4-8549-ded6cd96dc74","dept":"71","reg":"bfc"}},{"type":"Feature","geometry":{"type":"Point","coordinates":[4.69028,46.63643]},"properties":{"nom":"Les Vignes Derrière","sub":"BedAndBreakfast","cm":"71390#Saint-Boil","web":"http://www.lesvignesderriere.fr/<>https://www.lesvignesderriere.fr/bnb/bnb-1-1","uri":"https://data.datatourisme.fr/6/f8876b88-f9a5-3d84-8caf-456364f97333","dept":"71","reg":"bfc"}},{"type":"Feature","geometry":{"type":"Point","coordinates":[4.79184,46.25624]},"properties":{"nom":"Hôtel The Originals City, Mâcon Sud","sub":"Hotel","cm":"71570#Chaintré","web":"http://www.maconsudhotel.com/<>https://www.theoriginalshotels.com/hotels/hotel-macon-sud/book/dates-of-stay","uri":"https://data.datatourisme.fr/6/92f35d95-1665-3e23-b062-edfc2f4f8cb9","dept":"71","reg":"bfc"}},{"type":"Feature","geometry":{"type":"Point","coordinates":[5.32549,46.49527]},"properties":{"nom":"Camping Yelloh Village Le Domaine de Louvarel","sub":"Camping","cm":"71480#Champagnat","web":"https://www.louvarel.com/fr/","uri":"https://data.datatourisme.fr/6/86520d63-a3a6-35c5-9e5b-dfd98a19bfe5","dept":"71","reg":"bfc"}},{"type":"Feature","geometry":{"type":"Point","coordinates":[4.74594,46.72404]},"properties":{"nom":"Zoc Vélos Services","sub":"Rental","cm":"71390#Granges","web":"https://www.zoc-velos-services.com/<>https://www.facebook.com/zocveloservices","uri":"https://data.datatourisme.fr/6/e1f03c45-3454-3261-bbb1-f35bd0d8d520","dept":"71","reg":"bfc"}},{"type":"Feature","geometry":{"type":"Point","coordinates":[4.71731,46.83638]},"properties":{"nom":"Hôtellerie du Val d'Or","sub":"HotelRestaurant","cm":"71640#Mercurey","web":"http://www.le-valdor.com/","uri":"https://data.datatourisme.fr/6/e1474fb6-feef-32d8-a2cf-7f725e0c4181","dept":"71","reg":"bfc"}},{"type":"Feature","geometry":{"type":"Point","coordinates":[4.71731,46.83638]},"properties":{"nom":"Hôtellerie du Val d'Or (restaurant)","sub":"HotelRestaurant","cm":"71640#Mercurey","web":"http://www.le-valdor.com/<>https://fr-fr.facebook.com/valdormercurey/","uri":"https://data.datatourisme.fr/6/1dcef37e-3a9f-3229-9f77-17186612b9e9","dept":"71","reg":"bfc"}},{"type":"Feature","geometry":{"type":"Point","coordinates":[4.65213,46.40042]},"properties":{"nom":"La Pierre Folle","sub":"BedAndBreakfast","cm":"71250#Cluny","web":"https://www.lapierrefolle.com/bnb/bnb-1-1<>https://www.lapierrefolle.net/<>https://www.facebook.com/lapierrefolle","uri":"https://data.datatourisme.fr/6/72aec68b-8137-3d4a-b45d-d61870306df6","dept":"71","reg":"bfc"}},{"type":"Feature","geometry":{"type":"Point","coordinates":[4.11483,46.92828]},"properties":{"nom":"La Maison du Beuvray","sub":"CollectiveAccommodation","cm":"71900#Saint-Léger-sous-Beuvray","web":"http://www.maisondubeuvray.org/","uri":"https://data.datatourisme.fr/6/812e78b9-6a57-3046-bc03-f13e6876eaa5","dept":"71","reg":"bfc"}},{"type":"Feature","geometry":{"type":"Point","coordinates":[4.30449,46.29345]},"properties":{"nom":"Hôtel-Restaurant de Bourgogne","sub":"HotelRestaurant","cm":"71800#La Clayette","web":"http://www.hoteldebourgogne.fr/<>https://www.logishotels.com/fr/hotel/logis-hotel-de-bourgogne-254588","uri":"https://data.datatourisme.fr/6/b0f3e5a1-6eb0-315d-8fe3-706d3c166386","dept":"71","reg":"bfc"}},{"type":"Feature","geometry":{"type":"Point","coordinates":[3.96632,46.47924]},"properties":{"nom":"Camping de la Chevrette","sub":"Camping","cm":"71160#Digoin","web":"https://www.night-and-day.fr/camping/4-camping-la-chevrette","uri":"https://data.datatourisme.fr/6/19c4c750-da2c-3a48-8e97-16f3882e487a","dept":"71","reg":"bfc"}},{"type":"Feature","geometry":{"type":"Point","coordinates":[4.61192,46.33771]},"properties":{"nom":"Camping du Lac","sub":"Camping","cm":"71520#Saint-Point","web":"https://campingdulacbourgogne.com/","uri":"https://data.datatourisme.fr/6/3e60aa13-fbdc-328b-9e1e-bee4567d986b","dept":"71","reg":"bfc"}},{"type":"Feature","geometry":{"type":"Point","coordinates":[4.81997,46.41784]},"properties":{"nom":"Château de Besseuil","sub":"HotelRestaurant","cm":"71260#Clessé","web":"http://www.chateaudebesseuil.com/<>https://www.facebook.com/chateaubesseuil/<>https://www.instagram.com/chateaudebesseuil/<>https://premium.logishotels.com/engine/booking/233/140212/dates?specialMode=default&langcode=FR&m=booking","uri":"https://data.datatourisme.fr/6/414ffb44-be1b-3abd-bd92-c2437b62d8ef","dept":"71","reg":"bfc"}},{"type":"Feature","geometry":{"type":"Point","coordinates":[4.55876,46.87654]},"properties":{"nom":"Domaine Park & Grill","sub":"Camping","cm":"71490#Couches","web":"https://www.domaineparkgrill.fr/","uri":"https://data.datatourisme.fr/6/50ec8cda-f9a6-396f-80b9-534105c597d8","dept":"71","reg":"bfc"}},{"type":"Feature","geometry":{"type":"Point","coordinates":[4.90938,46.5738]},"properties":{"nom":"Camping de Tournus","sub":"Camping","cm":"71700#Tournus","web":"http://www.camping-tournus.com/","uri":"https://data.datatourisme.fr/6/559df579-4aff-387a-9e34-5f6da58eb7e1","dept":"71","reg":"bfc"}},{"type":"Feature","geometry":{"type":"Point","coordinates":[4.5936,46.87746]},"properties":{"nom":"Les Petits Galets","sub":"LodgingBusiness","cm":"71490#Saint-Maurice-lès-Couches","web":"https://www.gitelespetitsgalets.fr/bnb/bnb-1-1<>https://www.gitelespetitsgalets.fr/","uri":"https://data.datatourisme.fr/6/891cd1b2-fc91-3f48-88f1-fb8842dafbdc","dept":"71","reg":"bfc"}},{"type":"Feature","geometry":{"type":"Point","coordinates":[4.14036,46.96531]},"properties":{"nom":"Hôtel de la Poste - Chez Cécile","sub":"HotelRestaurant","cm":"71990#La Grande-Verrière","web":"http://www.hotel-chezcecile.com/<>https://www.logishotels.com/fr/hotel/logis-hotel-de-la-poste-chez-cecile-9673<>https://311915.weebnb.com/book/bnb/bnb-1-1","uri":"https://data.datatourisme.fr/6/e73e14e5-3647-352c-a55b-a932cfb041c8","dept":"71","reg":"bfc"}},{"type":"Feature","geometry":{"type":"Point","coordinates":[4.06337,46.95158]},"properties":{"nom":"Gîte Les Eduens","sub":"LodgingBusiness","cm":"71990#Saint-Prix","web":"https://morvanrustique.com/?lang=fr","uri":"https://data.datatourisme.fr/6/14c2fd91-125a-368a-8124-488250d1ea12","dept":"71","reg":"bfc"}},{"type":"Feature","geometry":{"type":"Point","coordinates":[4.06342,46.95173]},"properties":{"nom":"Gîte Obelix","sub":"LodgingBusiness","cm":"71990#Saint-Prix","web":"https://morvanrustique.com/?lang=fr","uri":"https://data.datatourisme.fr/6/8d067f48-2abc-3958-87b8-f43fbdc80235","dept":"71","reg":"bfc"}},{"type":"Feature","geometry":{"type":"Point","coordinates":[4.05814,46.94897]},"properties":{"nom":"Le Menhir","sub":"LodgingBusiness","cm":"71990#Saint-Prix","web":"https://morvanrustique.com/?lang=fr","uri":"https://data.datatourisme.fr/6/26688a09-8e17-3c0f-a949-51a680418e00","dept":"71","reg":"bfc"}},{"type":"Feature","geometry":{"type":"Point","coordinates":[4.05814,46.94897]},"properties":{"nom":"Gîte Tarin","sub":"LodgingBusiness","cm":"71990#Saint-Prix","web":"https://morvanrustique.com/?lang=fr","uri":"https://data.datatourisme.fr/6/da2f7723-2017-3246-af42-da8f13a830b5","dept":"71","reg":"bfc"}},{"type":"Feature","geometry":{"type":"Point","coordinates":[4.06324,46.95158]},"properties":{"nom":"Camping à la Ferme \"Morvan Rustique\"","sub":"CampingAndCaravanning","cm":"71990#Saint-Prix","web":"https://morvanrustique.com/","uri":"https://data.datatourisme.fr/6/57806602-1b64-3f74-98fd-f17859dfdfef","dept":"71","reg":"bfc"}},{"type":"Feature","geometry":{"type":"Point","coordinates":[4.39159,46.69731]},"properties":{"nom":"Hôtel-restaurant Le Maryland","sub":"HotelRestaurant","cm":"71450#Blanzy","web":"http://www.le-maryland-blanzy.com/<>https://www.facebook.com/le.maryland.blanzy","uri":"https://data.datatourisme.fr/6/3fc00ca2-34f2-3926-b3ff-0408064b0c51","dept":"71","reg":"bfc"}},{"type":"Feature","geometry":{"type":"Point","coordinates":[4.39167,46.69729]},"properties":{"nom":"Restaurant Le Maryland","sub":"HotelRestaurant","cm":"71450#Blanzy","web":"http://www.le-maryland-blanzy.com/","uri":"https://data.datatourisme.fr/6/7f571944-c924-3d76-bcd1-be1bdf471a67","dept":"71","reg":"bfc"}},{"type":"Feature","geometry":{"type":"Point","coordinates":[4.58533,46.86201]},"properties":{"nom":"Château de Couches","sub":"BedAndBreakfast","cm":"71490#Couches","web":"http://www.chateaudecouches.com/","uri":"https://data.datatourisme.fr/6/5b27c1b6-c053-3d92-81a1-0d8a66fd8a20","dept":"71","reg":"bfc"}},{"type":"Feature","geometry":{"type":"Point","coordinates":[4.12114,46.4683]},"properties":{"nom":"B&B Hôtel","sub":"Hotel","cm":"71600#Paray-le-Monial","web":"http://www.hotel-bb.com/","uri":"https://data.datatourisme.fr/6/76490e27-1fac-363b-8486-aa81a43733d6","dept":"71","reg":"bfc"}},{"type":"Feature","geometry":{"type":"Point","coordinates":[4.79473,46.53755]},"properties":{"nom":"Hôtel-Restaurant La Montagne de Brancion","sub":"HotelRestaurant","cm":"71700#Martailly-lès-Brancion","web":"http://www.lamontagnedebrancion.com/","uri":"https://data.datatourisme.fr/6/7975652d-2472-38d8-a41b-811e053fd3f0","dept":"71","reg":"bfc"}},{"type":"Feature","geometry":{"type":"Point","coordinates":[4.57308,46.86874]},"properties":{"nom":"Hôtel-Restaurant des Trois Maures","sub":"HotelRestaurant","cm":"71490#Couches","web":"https://www.hotel-restaurant-trois-maures.fr/","uri":"https://data.datatourisme.fr/6/8a35160b-0af9-354e-aa62-d095736a4bcb","dept":"71","reg":"bfc"}},{"type":"Feature","geometry":{"type":"Point","coordinates":[4.24221,46.85498]},"properties":{"nom":"La Chambre de Léonie","sub":"LodgingBusiness","cm":"71190#Mesvres","web":"http://www.gite-bourgogne-nature.com/","uri":"https://data.datatourisme.fr/6/50d9590b-17a4-3deb-a047-707bf829131c","dept":"71","reg":"bfc"}},{"type":"Feature","geometry":{"type":"Point","coordinates":[4.24242,46.85506]},"properties":{"nom":"Le Refuge de Jules","sub":"LodgingBusiness","cm":"71190#Mesvres","web":"https://www.gite-bourgogne-nature.com/<>http://webitea-71-v4-francais.gl.itea.fr/resa/etape1.php?NUM=987&INSTANCE=gites71&OPE=CRTBOURG&ORI=CRTBOURG&&&&&","uri":"https://data.datatourisme.fr/6/98a56793-0e2b-360d-a76b-2771147d454e","dept":"71","reg":"bfc"}},{"type":"Feature","geometry":{"type":"Point","coordinates":[4.83714,46.93065]},"properties":{"nom":"Chambres d'Hôtes \"Le Clos des Tilleuls\"","sub":"BedAndBreakfast","cm":"71150#Demigny","web":"http://www.le-closdestilleuls.com/<>https://www.facebook.com/leclosdestilleulsbeaune/<>http://hotel.reservit.com/reservit/reserhotel.php?hotelid=194551&lang=FR","uri":"https://data.datatourisme.fr/6/af9117a3-0403-38ac-88a1-f0e6620b0bbe","dept":"71","reg":"bfc"}},{"type":"Feature","geometry":{"type":"Point","coordinates":[4.48042,46.30452]},"properties":{"nom":"Camping de Matour - Onlycamp","sub":"Camping","cm":"71520#Matour","web":"https://bookingpremium.secureholiday.net/fr/4976<>https://www.facebook.com/campingdematour/<>https://www.terracamps.com/camping-nature/camping-de-matour","uri":"https://data.datatourisme.fr/6/6d795cc7-eb35-39a6-9e98-2b9f5b051811","dept":"71","reg":"bfc"}},{"type":"Feature","geometry":{"type":"Point","coordinates":[4.45713,46.83955]},"properties":{"nom":"La Grenadine","sub":"LodgingBusiness","cm":"71670#Saint-Firmin","web":null,"uri":"https://data.datatourisme.fr/6/297efff6-0dd0-358a-a4f9-27460e0bb647","dept":"71","reg":"bfc"}},{"type":"Feature","geometry":{"type":"Point","coordinates":[4.82681,46.30332]},"properties":{"nom":"Brit Hôtel Mâcon Centre Gare","sub":"Hotel","cm":"71000#Mâcon","web":"https://hotel-macon.brithotel.fr/","uri":"https://data.datatourisme.fr/6/6024f17f-4f81-3cee-aa15-173cb374bace","dept":"71","reg":"bfc"}},{"type":"Feature","geometry":{"type":"Point","coordinates":[4.66194,46.42864]},"properties":{"nom":"Hôtel de l'Abbaye","sub":"HotelRestaurant","cm":"71250#Cluny","web":"https://hotelrestaurantabbaye-cluny.fr/<>https://311176.weebnb.com/book/bnb/<>https://www.facebook.com/hoteldelabbayecluny<>https://www.instagram.com/hoteldelabbayecluny/","uri":"https://data.datatourisme.fr/6/f038bc55-9127-3e0d-a72c-f88a0402b5f0","dept":"71","reg":"bfc"}},{"type":"Feature","geometry":{"type":"Point","coordinates":[5.35863,46.46812]},"properties":{"nom":"Château de Joudes Saint-Amour","sub":"BedAndBreakfast","cm":"71480#Joudes","web":"http://www.chateau-de-joudes.com/<>https://www.facebook.com/pg/Ch%C3%A2teau-de-Joudes-Saint-Amour-323333141196660/posts/<>https://311833.weebnb.com/book/bnb/","uri":"https://data.datatourisme.fr/6/f03b1cc8-8709-3a67-ad45-a5f53cb503d7","dept":"71","reg":"bfc"}},{"type":"Feature","geometry":{"type":"Point","coordinates":[3.86767,46.69379]},"properties":{"nom":"Gîte fleuri","sub":"LodgingBusiness","cm":"71760#Cressy-sur-Somme","web":null,"uri":"https://data.datatourisme.fr/6/f345ae8b-335e-3cbc-bf0f-5a5b687ff8a4","dept":"71","reg":"bfc"}},{"type":"Feature","geometry":{"type":"Point","coordinates":[4.90748,46.56448]},"properties":{"nom":"Hôtel & Spa Les Sept Fontaines","sub":"HotelRestaurant","cm":"71700#Tournus","web":"https://www.hotel-les7fontaines.com/","uri":"https://data.datatourisme.fr/6/03323e44-b85b-3933-baac-c30e08cb5a74","dept":"71","reg":"bfc"}},{"type":"Feature","geometry":{"type":"Point","coordinates":[4.90765,46.56439]},"properties":{"nom":"Restaurant Le Cloître","sub":"HotelRestaurant","cm":"71700#Tournus","web":"https://www.hotel-les7fontaines.com/fr/le-restaurant<>https://www.facebook.com/hotelles7Fontaines","uri":"https://data.datatourisme.fr/6/ea5ce7d3-5669-3d61-b2b7-e9e7c7a3cb6e","dept":"71","reg":"bfc"}},{"type":"Feature","geometry":{"type":"Point","coordinates":[4.90738,46.56433]},"properties":{"nom":"Spa des Sept Fontaines","sub":"Rental","cm":"71700#Tournus","web":"https://www.hotel-les7fontaines.com/<>https://www.facebook.com/hotelles7Fontaines/","uri":"https://data.datatourisme.fr/6/74fbd339-3fb2-3b6f-a929-acef8836cf72","dept":"71","reg":"bfc"}},{"type":"Feature","geometry":{"type":"Point","coordinates":[4.04563,46.27501]},"properties":{"nom":"Gîte du Lavoir","sub":"LodgingBusiness","cm":"71110#Marcigny","web":null,"uri":"https://data.datatourisme.fr/6/c5059cb4-c575-33c3-b5f6-1b75b3dbc9c3","dept":"71","reg":"bfc"}},{"type":"Feature","geometry":{"type":"Point","coordinates":[4.75231,46.91059]},"properties":{"nom":"Maison Lameloise - Hôtel Relais & Châteaux","sub":"HotelRestaurant","cm":"71150#Chagny","web":"https://gc.synxis.com/gc/rez.aspx?Chain=8565&Adult=2&Locale=fr-FR&shell=shared-without&Hotel=22652<>https://be.synxis.com/?adult=2&arrive=2022-07-18&chain=8565&child=0&config=shared&configcode=shared&currency=EUR&depart=2022-07-19&hotel=22652&level=hotel&locale=de-DE&rooms=1&theme=shared&themecode=shared<>https://be.synxis.com/?adult=2&arrive=2022-07-18&chain=8565&child=0&config=shared&configcode=shared&currency=GBP&depart=2022-07-19&hotel=22652&level=hotel&locale=en-US&rooms=1&theme=shared&themecode=shared<>https://www.lameloise.fr/","uri":"https://data.datatourisme.fr/6/44f8cc5e-dff4-3ae6-be56-5133574ad54c","dept":"71","reg":"bfc"}},{"type":"Feature","geometry":{"type":"Point","coordinates":[4.01294,46.49994]},"properties":{"nom":"Restaurant Le Merle Blanc","sub":"HotelRestaurant","cm":"71160#Digoin","web":"http://www.lemerleblanc.com/<>https://www.facebook.com/lemerle.blanc.96","uri":"https://data.datatourisme.fr/6/86cdccd1-b3ef-3213-b29b-33db0e8b9434","dept":"71","reg":"bfc"}},{"type":"Feature","geometry":{"type":"Point","coordinates":[4.01309,46.5]},"properties":{"nom":"Hôtel-Restaurant Le Merle Blanc","sub":"HotelRestaurant","cm":"71160#Digoin","web":"http://www.lemerleblanc.com/<>https://www.logishotels.com/fr/hotel/logis-hotel-le-merle-blanc-3067","uri":"https://data.datatourisme.fr/6/f3c392b7-34e7-3a9d-96be-f7c7b877294b","dept":"71","reg":"bfc"}},{"type":"Feature","geometry":{"type":"Point","coordinates":[5.388,46.49539]},"properties":{"nom":"Le Bourgogne","sub":"HotelRestaurant","cm":"71480#Cuiseaux","web":"http://www.lebourgognecuiseaux.com/<>https://www.facebook.com/lebourgogne/","uri":"https://data.datatourisme.fr/6/d2b69e31-ff5d-3393-9aa3-a370e0607ea7","dept":"71","reg":"bfc"}},{"type":"Feature","geometry":{"type":"Point","coordinates":[5.38803,46.49554]},"properties":{"nom":"Hôtel-Restaurant Le Bourgogne","sub":"HotelRestaurant","cm":"71480#Cuiseaux","web":"http://www.lebourgognecuiseaux.fr/","uri":"https://data.datatourisme.fr/6/a59d20e7-50bd-3619-9088-5f88119af76f","dept":"71","reg":"bfc"}},{"type":"Feature","geometry":{"type":"Point","coordinates":[5.4002,46.58111]},"properties":{"nom":"Domaine de la Loge - Gîte Bocage","sub":"LodgingBusiness","cm":"71580#Flacey-en-Bresse","web":"https://www.domainedelaloge.fr/<>https://311810.weebnb.com/book/bnb/bnb-2-2","uri":"https://data.datatourisme.fr/6/806ebe17-dbc7-3fbf-82b1-d0ab9c030828","dept":"71","reg":"bfc"}},{"type":"Feature","geometry":{"type":"Point","coordinates":[4.5743,46.83982]},"properties":{"nom":"Domaine de Rymska & spa | Relais & Châteaux","sub":"HotelRestaurant","cm":"71490#Saint-Jean-de-Trézy","web":"https://be.synxis.com/?adult=2&arrive=2023-01-06&chain=8565&child=0&clearcache=all&currency=EUR&depart=2023-01-07&hotel=32594&level=hotel&locale=fr-FR&rooms=1<>https://www.facebook.com/domainederymska/<>https://www.instagram.com/domainederymska/<>https://www.domaine-rymska.com/chambres/","uri":"https://data.datatourisme.fr/6/5c70b8b3-5b76-3d16-984e-8629e82e6b0e","dept":"71","reg":"bfc"}},{"type":"Feature","geometry":{"type":"Point","coordinates":[4.57347,46.83958]},"properties":{"nom":"Domaine de Rymska","sub":"HotelRestaurant","cm":"71490#Saint-Jean-de-Trézy","web":"http://www.domaine-rymska.com/<>https://www.facebook.com/domainederymska/<>https://www.instagram.com/domainederymska/<>https://www.domaine-rymska.com/cuisine-et-vins/","uri":"https://data.datatourisme.fr/6/16e4062d-a996-32d7-903a-1ff62c214474","dept":"71","reg":"bfc"}},{"type":"Feature","geometry":{"type":"Point","coordinates":[4.84973,46.7809]},"properties":{"nom":"Le Cyrus","sub":"LodgingBusiness","cm":"71100#Chalon-sur-Saône","web":null,"uri":"https://data.datatourisme.fr/6/a8533d9b-13e0-3181-8e6b-3dcb3ada98dc","dept":"71","reg":"bfc"}},{"type":"Feature","geometry":{"type":"Point","coordinates":[4.22597,46.56099]},"properties":{"nom":"Camping du Lac","sub":"Camping","cm":"71430#Palinges","web":"https://www.campingdulac.net/<>https://www.facebook.com/profile.php?id=61556623921215","uri":"https://data.datatourisme.fr/6/e6387b42-a239-3537-a7b4-485c963406d4","dept":"71","reg":"bfc"}},{"type":"Feature","geometry":{"type":"Point","coordinates":[4.82706,46.30348]},"properties":{"nom":"Hôtel Ibis Styles Mâcon Centre","sub":"Hotel","cm":"71000#Mâcon","web":"https://all.accor.com/hotel/6853/index.fr.shtml?","uri":"https://data.datatourisme.fr/6/d2c7efe3-cc4b-33bb-bb90-5d7332a54284","dept":"71","reg":"bfc"}},{"type":"Feature","geometry":{"type":"Point","coordinates":[4.82712,46.30351]},"properties":{"nom":"Hôtel Ibis Styles Mâcon Centre","sub":"Hotel","cm":"71000#Mâcon","web":"https://all.accor.com/hotel/6853/index.fr.shtml?utm_campaign=seo+maps&utm_medium=seo+maps&utm_source=google+Maps","uri":"https://data.datatourisme.fr/13/a274701e-1df7-39ba-ab27-8a21992fa37f","dept":"71","reg":"bfc"}},{"type":"Feature","geometry":{"type":"Point","coordinates":[4.1397,46.67993]},"properties":{"nom":"Diverti'Parc","sub":"Rental","cm":"71320#Toulon-sur-Arroux","web":"http://www.divertiparc.com/","uri":"https://data.datatourisme.fr/6/0aad04ac-c647-3e30-b2b4-8e1f71c21ca6","dept":"71","reg":"bfc"}},{"type":"Feature","geometry":{"type":"Point","coordinates":[4.27961,46.4363]},"properties":{"nom":"Hôtel Le Téméraire","sub":"Hotel","cm":"71120#Charolles","web":null,"uri":"https://data.datatourisme.fr/6/f5798547-39c4-34ff-b599-1a9052d6c6c3","dept":"71","reg":"bfc"}},{"type":"Feature","geometry":{"type":"Point","coordinates":[4.8231,46.30716]},"properties":{"nom":"Hôtel Concorde","sub":"Hotel","cm":"71000#Mâcon","web":"http://www.hotelconcorde71.com/","uri":"https://data.datatourisme.fr/6/610c220a-6262-37c8-987c-168a5e360df6","dept":"71","reg":"bfc"}},{"type":"Feature","geometry":{"type":"Point","coordinates":[4.74177,46.17688]},"properties":{"nom":"Dégustation au Hameau Duboeuf","sub":"Rental","cm":"71570#Romanèche-Thorins","web":null,"uri":"https://data.datatourisme.fr/6/365cd737-9024-3863-8da7-eb90c09b0962","dept":"71","reg":"bfc"}},{"type":"Feature","geometry":{"type":"Point","coordinates":[4.26682,46.47851]},"properties":{"nom":"Tonneau en bois insolite","sub":"BedAndBreakfast","cm":"71120#Baron","web":"https://www.airbnb.fr/rooms/1369452287583284899?source_impression_id=p3_1741091448_P3F45wlX0KxTnJ_f","uri":"https://data.datatourisme.fr/6/4f139033-e6fe-3dca-b072-500d022ca539","dept":"71","reg":"bfc"}},{"type":"Feature","geometry":{"type":"Point","coordinates":[4.26674,46.47861]},"properties":{"nom":"Le Potager","sub":"LodgingBusiness","cm":"71120#Baron","web":"https://www.airbnb.fr/rooms/1360875860782349595?source_impression_id=p3_1741091824_P3H3SjoaSxUFYwec","uri":"https://data.datatourisme.fr/6/8157cd81-dc4c-3381-bd64-0fdd1cdef4d8","dept":"71","reg":"bfc"}},{"type":"Feature","geometry":{"type":"Point","coordinates":[5.40035,46.58112]},"properties":{"nom":"Domaine de la Loge - Gîte Prairie","sub":"LodgingBusiness","cm":"71580#Flacey-en-Bresse","web":"http://www.domainedelaloge.fr/<>https://311810.weebnb.com/book/bnb/bnb-1-1","uri":"https://data.datatourisme.fr/6/131ec49c-913f-3183-ae3c-8c6d4189f9bc","dept":"71","reg":"bfc"}},{"type":"Feature","geometry":{"type":"Point","coordinates":[4.14416,46.41598]},"properties":{"nom":"Le Bois Clair","sub":"LodgingBusiness","cm":"71600#Nochize","web":null,"uri":"https://data.datatourisme.fr/6/db588ed8-bd08-3fb2-8bc3-ebbd148b5497","dept":"71","reg":"bfc"}},{"type":"Feature","geometry":{"type":"Point","coordinates":[4.7415,46.17553]},"properties":{"nom":"Restaurant Rouge & Blanc","sub":"HotelRestaurant","cm":"71570#Romanèche-Thorins","web":"http://www.lesmaritonnes.com/<>https://www.facebook.com/les.maritonnes.rouge.et.blanc/<>https://www.instagram.com/les_maritonnes_rouge_et_blanc","uri":"https://data.datatourisme.fr/6/dca1b32c-0476-35a9-992a-56895190100d","dept":"71","reg":"bfc"}},{"type":"Feature","geometry":{"type":"Point","coordinates":[3.76565,46.6191]},"properties":{"nom":"Les Chaumières Bourbonniennes - 1","sub":"LodgingBusiness","cm":"71140#Bourbon-Lancy","web":"https://www.leschaumieresbourbonniennes.fr/","uri":"https://data.datatourisme.fr/6/23556b68-b8cd-3935-9882-21665c42863a","dept":"71","reg":"bfc"}},{"type":"Feature","geometry":{"type":"Point","coordinates":[3.76565,46.6191]},"properties":{"nom":"Les Chaumières Bourbonniennes - 3","sub":"LodgingBusiness","cm":"71140#Bourbon-Lancy","web":"https://www.leschaumieresbourbonniennes.fr/","uri":"https://data.datatourisme.fr/6/409e98e7-605f-319f-872f-896e0d6e4e05","dept":"71","reg":"bfc"}},{"type":"Feature","geometry":{"type":"Point","coordinates":[4.14248,46.44213]},"properties":{"nom":"Restaurant Delfotel","sub":"HotelRestaurant","cm":"71600#Hautefond","web":"http://www.delfotel.fr/","uri":"https://data.datatourisme.fr/6/e9926080-e44b-3f53-b28a-bae12908ef41","dept":"71","reg":"bfc"}},{"type":"Feature","geometry":{"type":"Point","coordinates":[4.94399,46.65442]},"properties":{"nom":"Castel-Camping Château de l'Epervière","sub":"Camping","cm":"71240#Gigny-sur-Saône","web":"http://www.domaine-eperviere.com/<>https://311463.weebnb.com/book/bnb/<>http://www.facebook.com/pages/Camping-Ch%C3%A2teau-de-lEpervi%C3%A8re/153388904725456?ref=tsfref=ts","uri":"https://data.datatourisme.fr/6/4b319953-1f7b-3264-bcd7-6f74e86497a3","dept":"71","reg":"bfc"}},{"type":"Feature","geometry":{"type":"Point","coordinates":[4.79206,46.25735]},"properties":{"nom":"Hôtel Ibis Budget Mâcon Crêches","sub":"Hotel","cm":"71570#Chaintré","web":"https://all.accor.com/hotel/B2G8/index.fr.shtml","uri":"https://data.datatourisme.fr/6/ff070377-f029-3874-80c8-d4583015e991","dept":"71","reg":"bfc"}},{"type":"Feature","geometry":{"type":"Point","coordinates":[3.76833,46.62332]},"properties":{"nom":"Meublé \"M. et Mme POTONNIER Pascal et Véronique\"","sub":"LodgingBusiness","cm":"71140#Bourbon-Lancy","web":null,"uri":"https://data.datatourisme.fr/6/4c1c8178-b1d1-3cef-b70a-dbe1d88c2363","dept":"71","reg":"bfc"}},{"type":"Feature","geometry":{"type":"Point","coordinates":[5.18023,46.64327]},