{"type":"FeatureCollection","features":[{"type":"Feature","geometry":{"type":"Point","coordinates":[-0.14051,46.8855]},"properties":{"nom":"Gîte d'étape communal de Saint-Généroux","sub":"CollectiveAccommodation","cm":"79600#Saint-Généroux","web":"https://www.gites-de-france-deux-sevres.com/location-vacances-Deux-sevres-Gite-etape-a-Saint-generoux-79G3601.html?&region=GITES79_6","uri":"https://data.datatourisme.fr/23/37edff7a-36ef-31d2-8e32-7d7485e3cf34","dept":"79","reg":"naq"}},{"type":"Feature","geometry":{"type":"Point","coordinates":[-0.20455,47.00285]},"properties":{"nom":"Hôtel du Relais","sub":"Hotel","cm":"79100#Louzy","web":"https://www.contact-hotel.com/reserver-hotel-france/6542/hotel-du-relais-thouars.htm<>http://www.hotel-du-relais-79.com/","uri":"https://data.datatourisme.fr/23/465e59a4-fbff-3b82-997b-94723feca3e0","dept":"79","reg":"naq"}},{"type":"Feature","geometry":{"type":"Point","coordinates":[-0.21892,46.98034]},"properties":{"nom":"Au fil du Thouet","sub":"LodgingBusiness","cm":"79100#Thouars","web":"http://www.gites-de-france-deux-sevres.com/location-vacances-Deux-Sevres-Gite-a-Thouars-79G63.html?deb=241015&nbj=7<>https://www.gites-de-france-deux-sevres.com/location-vacances-Deux-sevres-Gite-a-Thouars-79G63.html#reserver<>https://www.cybevasion.fr/gites-gite-au-fil-du-thouet-thouars-e46405.html","uri":"https://data.datatourisme.fr/23/64f437ad-3459-3abe-a626-818035416cc9","dept":"79","reg":"naq"}},{"type":"Feature","geometry":{"type":"Point","coordinates":[-0.21999,46.98057]},"properties":{"nom":"Camping du Clos imbert","sub":"Camping","cm":"79100#Thouars","web":"https://checkout.onlycamp.fr/fr/search?sites%5B0%5D=447<>https://www.camping-thouars.com/","uri":"https://data.datatourisme.fr/23/46fdb709-33bb-31f3-8ef4-b933f3380713","dept":"79","reg":"naq"}},{"type":"Feature","geometry":{"type":"Point","coordinates":[-0.21535,46.97977]},"properties":{"nom":"M. et Mme Michel et Annette HOLSTEIN","sub":"BedAndBreakfast","cm":"79100#Thouars","web":"https://www.gites-de-france-deux-sevres.com/location-vacances-Deux-sevres-Chambre-d-hotes-a-Thouars-79G2760.html<>https://www.cybevasion.fr/chambres-hotes-chambres-d-hotes-thouars-centre-ville-thouars-e47308.html","uri":"https://data.datatourisme.fr/23/f89951bc-61e3-39a0-8a7f-7d7dcd28d0cd","dept":"79","reg":"naq"}},{"type":"Feature","geometry":{"type":"Point","coordinates":[-0.21609,46.96225]},"properties":{"nom":"Le gîte de Saint Jean","sub":"LodgingBusiness","cm":"79100#Saint-Jean-de-Thouars","web":"https://www.booking.com/hotel/fr/gite-de-saint-jean.fr.html<>https://www.gites.fr/gites_gite-de-saint-jean_saint-jean-de-thouars_h1067054.htm","uri":"https://data.datatourisme.fr/23/3c7f3e6a-8436-3b8e-9c02-df7465cf1d3b","dept":"79","reg":"naq"}},{"type":"Feature","geometry":{"type":"Point","coordinates":[-0.34677,46.93338]},"properties":{"nom":"L'Étable du Logis des Baillargères","sub":"LodgingBusiness","cm":"79330#Coulonges-Thouarsais","web":"https://www.lelogisdesbaillargeres.com/<>https://www.gites-de-france-deux-sevres.com/location-vacances-Deux-sevres-Gite-a-Coulonges-thouarsais-79G62.html?","uri":"https://data.datatourisme.fr/23/621fbff5-85bc-3038-9ef6-6c2f67c2031d","dept":"79","reg":"naq"}},{"type":"Feature","geometry":{"type":"Point","coordinates":[-0.34677,46.93338]},"properties":{"nom":"Le Grenier du Logis des Baillargères","sub":"LodgingBusiness","cm":"79330#Coulonges-Thouarsais","web":"https://www.lelogisdesbaillargeres.com/<>https://www.airbnb.fr/rooms/28954933?adults=1&children=0&enable_m3_private_room=true&infants=0&pets=0&search_mode=regular_search&check_in=2025-02-05&check_out=2025-02-10&source_impression_id=p3_1738753570_P3knXt793ZcMk-Ae&previous_page_section_name=1000&federated_search_id=96e70f0e-1a5f-4acd-a9b4-ef","uri":"https://data.datatourisme.fr/23/76a5794f-7c5e-38d0-a1e7-9bf7770f55cf","dept":"79","reg":"naq"}},{"type":"Feature","geometry":{"type":"Point","coordinates":[-0.34677,46.93338]},"properties":{"nom":"Le Fournil du Logis des Baillargères","sub":"LodgingBusiness","cm":"79330#Coulonges-Thouarsais","web":"https://www.lelogisdesbaillargeres.com/<>https://www.gites-de-france-deux-sevres.com/location-vacances-Deux-sevres-Gite-a-Coulonges-thouarsais-79G66.html","uri":"https://data.datatourisme.fr/23/83dc6428-4c2a-3028-9327-5a736058c752","dept":"79","reg":"naq"}},{"type":"Feature","geometry":{"type":"Point","coordinates":[-0.30049,47.0312]},"properties":{"nom":"Le gîte de la Forge Fleurie","sub":"LodgingBusiness","cm":"79290#Val en Vignes","web":null,"uri":"https://data.datatourisme.fr/23/92041abf-4013-3151-904b-7365a576cfe1","dept":"79","reg":"naq"}},{"type":"Feature","geometry":{"type":"Point","coordinates":[-0.04931,46.87846]},"properties":{"nom":"La Grande Maison des Tournesols","sub":"LodgingBusiness","cm":"79600#Plaine-et-Vallées","web":"https://www.airbnb.fr/rooms/28887252?location=Saint%20Jouin%20de%20Marnes%2C%20France&adults=1&guests=1&source_impression_id=p3_1557151374_35uCzC3B3VzLxstQ&s=2hUJLQMw","uri":"https://data.datatourisme.fr/23/c5498ed9-0976-3a77-835f-82acf60e7f0e","dept":"79","reg":"naq"}},{"type":"Feature","geometry":{"type":"Point","coordinates":[-0.13913,46.884]},"properties":{"nom":"Gîte au bord de l'eau","sub":"LodgingBusiness","cm":"79600#Saint-Généroux","web":"https://www.gites.fr/gites_gite-au-bord-de-l-eau_saint-generoux_45119.htm","uri":"https://data.datatourisme.fr/23/cb96e398-91b9-311a-b1c6-4c0691599653","dept":"79","reg":"naq"}},{"type":"Feature","geometry":{"type":"Point","coordinates":[-0.27583,47.02804]},"properties":{"nom":"Gîte les mirabelles","sub":"LodgingBusiness","cm":"79290#Loretz-d'Argenton","web":"https://gitelesmirabelles.fr/<>https://www.clevacances.com/fr/locationvacances/poitoucharentes/deuxsevres/loretzdargenton-82405/gite_les_mirabelles_pour_15_personnes_proche_de_doue_la_fontaine_et_du_center_parc_le_bois_aux_daims_30_min_aux_confins_des_deux_sevres_du_maine_et_loire_et_de_la_vienne/48095","uri":"https://data.datatourisme.fr/23/32bd224c-9a86-3c9f-afec-6d8c7ca3d000","dept":"79","reg":"naq"}},{"type":"Feature","geometry":{"type":"Point","coordinates":[-0.2644,46.98143]},"properties":{"nom":"Gîte Pause Coquelicot","sub":"LodgingBusiness","cm":"79100#Thouars","web":"http://www.gite-pause-coquelicot.fr/<>https://www.airbnb.fr/rooms/20450932?location=Thouars&search_mode=regular_search&adults=1&source_impression_id=p3_1739548772_P38wkrU0y-TJrc9q&previous_page_section_name=1001&federated_search_id=efcd845b-f12c-4189-a1c4-ed643799f26e&guests=1","uri":"https://data.datatourisme.fr/23/de3a1d9b-b49e-3f41-9767-7422438a5ef1","dept":"79","reg":"naq"}},{"type":"Feature","geometry":{"type":"Point","coordinates":[-0.22426,46.927]},"properties":{"nom":"Gite de Thiors","sub":"LodgingBusiness","cm":"79100#Luzay","web":"https://www.gites-de-france-deux-sevres.com/location-vacances-Deux-sevres-Gite-a-Luzay-79G503.html?&nbp_min=2<>https://www.gites-de-france-deux-sevres.com/location-vacances-Deux-sevres-Gite-a-Luzay-79G503.html?&nbp_min=2#reserver","uri":"https://data.datatourisme.fr/23/e39238e5-cf2a-36b5-a374-27fa89f2df50","dept":"79","reg":"naq"}},{"type":"Feature","geometry":{"type":"Point","coordinates":[-0.38442,47.04689]},"properties":{"nom":"Gîte Floreal - Rose Barn","sub":"LodgingBusiness","cm":"79290#Val en Vignes","web":"https://www.gitesfloreal.com/fr/home-francais/","uri":"https://data.datatourisme.fr/23/05107649-f8e7-3dad-a0a9-0bb13e8d1c4b","dept":"79","reg":"naq"}},{"type":"Feature","geometry":{"type":"Point","coordinates":[-0.19234,46.99542]},"properties":{"nom":"Hotel Talencia","sub":"Hotel","cm":"79100#Thouars","web":"https://www.logishotels.com/fr/tarifs-et-disponibilites-chambre?id=156046&opt_chambre=2&partid=568&lang=FR&custid=233&DateIn=07%2F08%2F2019&DateIn_submit=07%2F08%2F2019&nbnight=&nbadt=<>http://www.hotel-talencia.fr/","uri":"https://data.datatourisme.fr/23/61429d80-c820-3ae1-8254-a718a1e0ae12","dept":"79","reg":"naq"}},{"type":"Feature","geometry":{"type":"Point","coordinates":[-0.0168,46.8632]},"properties":{"nom":"La villa des Licoches","sub":"LodgingBusiness","cm":"79600#Marnes","web":"https://www.gites-de-france-deux-sevres.com/location-vacances-Deux-sevres-Gite-a-Marnes-79G64.html<>https://www.gites-de-france-deux-sevres.com/location-vacances-Deux-sevres-Gite-a-Marnes-79G64.html#reserver<>https://www.leslicoches.fr/renseignements-services.html","uri":"https://data.datatourisme.fr/23/c7f1ade5-aff2-33b5-8a75-e87d121a4ec2","dept":"79","reg":"naq"}},{"type":"Feature","geometry":{"type":"Point","coordinates":[-0.20107,47.08011]},"properties":{"nom":"Chez Jeannick","sub":"LodgingBusiness","cm":"79290#Saint-Martin-de-Sanzay","web":"https://www.gites-de-france-deux-sevres.com/location-vacances-Deux-sevres-Gite-a-Saint-martin-de-sanzay-79G52.html<>https://www.gites-de-france.com/fr/nouvelle-aquitaine/deux-sevres/chez-jeannick-79g52","uri":"https://data.datatourisme.fr/23/1ee00119-1f38-300e-8c12-13bea1f796bd","dept":"79","reg":"naq"}},{"type":"Feature","geometry":{"type":"Point","coordinates":[-0.14421,46.9228]},"properties":{"nom":"La bonne Francette","sub":"LodgingBusiness","cm":"79100#Plaine-et-Vallées","web":"https://www.leboncoin.fr/ad/locations_saisonnieres/2014841748<>https://www.airbnb.fr/rooms/1183045358499080061?location=Plaine-et-Vall%C3%A9es%2C%20France&search_mode=regular_search&adults=1&source_impression_id=p3_1739958399_P3YJ5PW36Db_5zi8&previous_page_section_name=1001&federated_search_id=63fd1d92-c680-4e0b-b5b3-f05ddd57722a&guests=1#availability-calendar","uri":"https://data.datatourisme.fr/23/006704cf-ea92-320c-ad8f-fc9cf74d8e0f","dept":"79","reg":"naq"}},{"type":"Feature","geometry":{"type":"Point","coordinates":[-0.29924,47.02786]},"properties":{"nom":"Le Gîte le Haut Preuil","sub":"LodgingBusiness","cm":"79290#Val en Vignes","web":"https://www.gites-de-france-deux-sevres.com/location-vacances-Deux-sevres-Gite-a-Val-En-Vignes-79G50.html<>https://www.gites-de-france-deux-sevres.com/location-vacances-Deux-sevres-Gite-a-Val-En-Vignes-79G50.html#reserver","uri":"https://data.datatourisme.fr/23/4bb98ba3-684a-35a0-9a94-95dd099e91d5","dept":"79","reg":"naq"}},{"type":"Feature","geometry":{"type":"Point","coordinates":[-0.19837,47.08328]},"properties":{"nom":"La maison du pêcheur","sub":"LodgingBusiness","cm":"79290#Saint-Martin-de-Sanzay","web":"https://www.airbnb.fr/rooms/32837606?location=Saint%20Martin%20de%20Sanzay%2C%20France&adults=1&guests=1&sl_alternate_dates_exclusion=true&source_impression_id=p3_1559656264_y7WXzdgR0oEP84Fm&s=E3UAfJg<>https://www.airbnb.fr/rooms/32837606?location=Saint%20Martin%20de%20Sanzay%2C%20France&adults=1&guests=1&sl_alternate_dates_exclusion=true&source_impression_id=p3_1559656627_fLbB6cy2JQsqY%2BvX&s=E3UAf","uri":"https://data.datatourisme.fr/23/16cacc6e-fccb-3d9c-8c1e-b784ea537e20","dept":"79","reg":"naq"}},{"type":"Feature","geometry":{"type":"Point","coordinates":[-0.20151,47.09012]},"properties":{"nom":"Village de gîtes la Ballastière","sub":"LodgingBusiness","cm":"79290#Saint-Martin-de-Sanzay","web":"http://poitou-charentes-meuble.for-system.com/z6023_fr-.aspx<>http://www.saint-martin-de-sanzay.fr/","uri":"https://data.datatourisme.fr/23/ef477671-7512-35d8-b5c6-c764d6a55cbb","dept":"79","reg":"naq"}},{"type":"Feature","geometry":{"type":"Point","coordinates":[-0.19856,47.09517]},"properties":{"nom":"Aire de camping cars - Saint Martin de Sanzay","sub":"CampingAndCaravanning","cm":"79290#Saint-Martin-de-Sanzay","web":"http://www.saint-martin-de-sanzay.fr/","uri":"https://data.datatourisme.fr/23/70281bc8-8f07-3cd4-b737-785ff930b994","dept":"79","reg":"naq"}},{"type":"Feature","geometry":{"type":"Point","coordinates":[-0.16864,46.87818]},"properties":{"nom":"Gîte de la Roche Fume","sub":"LodgingBusiness","cm":"79600#Saint-Généroux","web":"https://www.gites-de-france-deux-sevres.com/location-vacances-Deux-sevres-Gite-a-Saint-generoux-79G51.html?&nbp_min=2<>https://www.gites-de-france-deux-sevres.com/location-vacances-Deux-sevres-Gite-a-Saint-generoux-79G51.html?&nbp_min=2#reserver","uri":"https://data.datatourisme.fr/23/f8c2688a-39c0-39a2-a458-b652f6b13e71","dept":"79","reg":"naq"}},{"type":"Feature","geometry":{"type":"Point","coordinates":[-0.31312,47.07064]},"properties":{"nom":"Poplar House","sub":"LodgingBusiness","cm":"79290#Loretz-d'Argenton","web":"https://www.le-ruault.co.uk/pages20/home20FR.html?menuID=home<>https://www.le-ruault.co.uk/<>https://www.airbnb.fr/rooms/13017558?location=thouars&search_mode=regular_search&adults=1&source_impression_id=p3_1739526140_P36eEfTgy6vdU-kJ&previous_page_section_name=1001&federated_search_id=b8a80448-2678-4122-8b31-a5dc5f99cdde&guests=1","uri":"https://data.datatourisme.fr/23/1f14598c-da51-35b8-8240-33563755acca","dept":"79","reg":"naq"}},{"type":"Feature","geometry":{"type":"Point","coordinates":[-0.31312,47.07064]},"properties":{"nom":"Orchard Cottage","sub":"LodgingBusiness","cm":"79290#Loretz-d'Argenton","web":"https://www.airbnb.fr/rooms/11635419?guests=1&adults=1&sl_alternate_dates_exclusion=true&source_impression_id=p3_1558195241_9Z09D7ArkVQOCSTa<>https://www.le-ruault.co.uk/pages20/home20FR.html?menuID=home","uri":"https://data.datatourisme.fr/23/e616c44c-1895-3fb7-926d-983396960968","dept":"79","reg":"naq"}},{"type":"Feature","geometry":{"type":"Point","coordinates":[-0.19845,46.9632]},"properties":{"nom":"Centre d'Hébergement Le Châtelier","sub":"Hostel","cm":"79100#Thouars","web":"http://www.lechatelier-79.fr/","uri":"https://data.datatourisme.fr/23/fca515f4-9b67-3347-8cd6-d1b78ae2cbe3","dept":"79","reg":"naq"}},{"type":"Feature","geometry":{"type":"Point","coordinates":[-0.22823,46.98647]},"properties":{"nom":"Confort Hôtel Thouars","sub":"Hotel","cm":"79100#Thouars","web":"https://www.theoriginalshotels.com/en/hotels/hotel-thouars","uri":"https://data.datatourisme.fr/23/fd4f65c2-e18b-3166-bd95-77704d953b2d","dept":"79","reg":"naq"}},{"type":"Feature","geometry":{"type":"Point","coordinates":[-0.27365,46.91609]},"properties":{"nom":"L'Horizon","sub":"LodgingBusiness","cm":"79330#Sainte-Gemme","web":"http://www.gites-de-france-deux-sevres.com/location-vacances-Deux-Sevres-Gite-a-Sainte-gemme-79G514.html<>https://www.gites-de-france-deux-sevres.com/location-vacances-Deux-sevres-Gite-a-Sainte-gemme-79G514.html#reserver","uri":"https://data.datatourisme.fr/23/6ce01c98-f8ba-3d8e-98cf-3107db4f4a33","dept":"79","reg":"naq"}},{"type":"Feature","geometry":{"type":"Point","coordinates":[-0.25136,46.8594]},"properties":{"nom":"A La Campagne","sub":"LodgingBusiness","cm":"79330#Glénay","web":"http://www.gites-de-france-deux-sevres.com/location-vacances-Deux-Sevres-Gite-a-Glenay-79G60.html<>https://www.gites-de-france-deux-sevres.com/location-vacances-Deux-sevres-Gite-a-Glenay-79G60.html?&nbp_min=2#reserver","uri":"https://data.datatourisme.fr/23/9c9ef881-4c1b-3075-842f-d41694d3e1f6","dept":"79","reg":"naq"}},{"type":"Feature","geometry":{"type":"Point","coordinates":[-0.15071,46.94525]},"properties":{"nom":"Le Moulin d'Akwom","sub":"LodgingBusiness","cm":"79100#Thouars","web":"https://www.gites.fr/gites_grand-gite-a-la-campagne_misse_h4249006.htm","uri":"https://data.datatourisme.fr/23/c55b1d1d-823f-3176-89db-40dc4ffbd365","dept":"79","reg":"naq"}},{"type":"Feature","geometry":{"type":"Point","coordinates":[-0.20092,47.08126]},"properties":{"nom":"Gîtes de l'ancien presbytère","sub":"LodgingBusiness","cm":"79290#Saint-Martin-de-Sanzay","web":"http://www.gite-ancien-presbytere.com/<>https://www.leboncoin.fr/ad/locations_saisonnieres/2171857361<>https://www.airbnb.fr/rooms/10469675?location=saint%20martin%20de%20sanzay&search_mode=regular_search&adults=1&source_impression_id=p3_1739972584_P35x7xccD9rpWA9r&previous_page_section_name=1001&federated_search_id=a5a683f1-5524-48e7-b9a5-e3eb53fe4c26&guests=1","uri":"https://data.datatourisme.fr/23/72c69030-4ea3-3f42-8406-b56bd27398b3","dept":"79","reg":"naq"}},{"type":"Feature","geometry":{"type":"Point","coordinates":[-0.08168,46.95133]},"properties":{"nom":"Le Relais du Château","sub":"BedAndBreakfast","cm":"79100#Plaine-et-Vallées","web":"https://www.relaischateauoiron.fr/reserver-tarifs.php","uri":"https://data.datatourisme.fr/23/b66eb35a-64dd-3f41-a079-4a5c9cb8fd3e","dept":"79","reg":"naq"}},{"type":"Feature","geometry":{"type":"Point","coordinates":[-0.11638,47.03871]},"properties":{"nom":"Gite Au Boom Coeur","sub":"LodgingBusiness","cm":"79100#Tourtenay","web":"https://poitou-charentes-mb-prestataire.for-system.com/f129405_fr-.aspx<>https://www.booking.com/hotel/fr/gite-au-boom-coeur.fr.html?aid=356980&label=gog235jc-1DCAsoTUIXdGhlLWJhcm4tbGEtZ2F0ZXZpbmllcmVIDVgDaE2IAQGYAQ24ARfIAQ_YAQPoAQH4AQKIAgGoAgO4Ati11r0GwAIB0gIkMjQzYmRmYjItYjlkMy00MzJjLTljMTctMjU0NzA3MGE2ZTdl2AIE4AIB&sid=83d7a31fe1c8b551ff12093b6ec5628f&all_sr_blocks=8305<>https://www.airbnb.fr/rooms/581729889539098613?location=Saint-Jean-de-Thouars%2C%20France&search_mode=regular_search&adults=1&source_impression_id=p3_1739962965_P3fOKjrJN99PqgIs&previous_page_section_name=1001&federated_search_id=62a5145a-0b91-4527-885b-52de562176f3&guests=1","uri":"https://data.datatourisme.fr/23/cd6d6323-571f-3512-828a-74890b4bd611","dept":"79","reg":"naq"}},{"type":"Feature","geometry":{"type":"Point","coordinates":[-0.2145,46.97487]},"properties":{"nom":"Appartement Au Bout Du Monde","sub":"LodgingBusiness","cm":"79100#Thouars","web":"https://www.airbnb.fr/rooms/806397007055494032?adults=2&check_in=2024-02-21&check_out=2024-02-24&source_impression_id=p3_1704765872_zd%2FaEuUpIk1ZLq6g&previous_page_section_name=1000&federated_search_id=c902e0e0-644f-47cf-bbff-f211fce01575<>https://www.booking.com/hotel/fr/le-globe-trotteur-centre-ville-terrasse.fr.html?aid=304142&label=gen173nr-1FCAEoggI46AdIM1gEaCeIAQGYAQ24AQfIAQ_YAQHoAQH4AQyIAgGoAgO4AqHX8qwGwAIB0gIkZTY0NTgwMDMtYmYwYy0<>https://www.airbnb.fr/rooms/806397007055494032?adults=2&source_impression_id=p3_1704765872_zd%2FaEuUpIk1ZLq6g&previous_page_section_name=1000&federated_search_id=c902e0e0-644f-47cf-bbff-f211fce01575&g<>https://www.airbnb.fr/rooms/806397007055494032?adults=2&source_impression_id=p3_1704765872_zd%2FaEuUpIk1ZLq6g&previous_page_section_name=1000&federated_search_id=c902e0e0-644f-47cf-bbff-f211fce01575&guests=1","uri":"https://data.datatourisme.fr/23/3bad8607-7846-3d9e-9726-10e0b6967e20","dept":"79","reg":"naq"}},{"type":"Feature","geometry":{"type":"Point","coordinates":[-0.24988,47.09314]},"properties":{"nom":"Le clos des écureuils","sub":"BedAndBreakfast","cm":"79290#Loretz-d'Argenton","web":"https://www.chambres-hotes.fr/ch24643<>https://www.cybevasion.fr/ch24643<>https://closdesecureuils-anjou.fr/","uri":"https://data.datatourisme.fr/23/5a9b5a95-bc29-3cf3-ae75-33ef7725603d","dept":"79","reg":"naq"}},{"type":"Feature","geometry":{"type":"Point","coordinates":[-0.07345,46.94531]},"properties":{"nom":"Gite de l'Octroy","sub":"LodgingBusiness","cm":"79100#Plaine-et-Vallées","web":"https://www.booking.com/hotel/fr/gite-de-l-octroy-poitou.fr.html","uri":"https://data.datatourisme.fr/23/4d5c5d06-3848-3a7f-960a-154846b54e90","dept":"79","reg":"naq"}},{"type":"Feature","geometry":{"type":"Point","coordinates":[-0.24043,47.0439]},"properties":{"nom":"Le Vauroux","sub":"LodgingBusiness","cm":"79290#Saint-Martin-de-Sanzay","web":"https://www.airbnb.fr/rooms/857122939702765242?_set_bev_on_new_domain=1739802659_EAMDIzZDA1MjEwZD&source_impression_id=p3_1739802661_P37OUxFynQVDRxek<>https://www.gites-de-france-deux-sevres.com/location-vacances-Deux-sevres-Gite-a-Saint-martin-de-sanzay-79G72.html<>https://www.gites-de-france.com/fr/nouvelle-aquitaine/deux-sevres/le-vauroux-79g72?adults=2&children=0&infants=0","uri":"https://data.datatourisme.fr/23/717b5712-c7e3-3409-aad6-dc82bc5e94b2","dept":"79","reg":"naq"}},{"type":"Feature","geometry":{"type":"Point","coordinates":[-0.19764,46.97064]},"properties":{"nom":"L'Abri-Gîte","sub":"LodgingBusiness","cm":"79100#Thouars","web":"https://www.airbnb.fr/rooms/655618544026281686?source_impression_id=p3_1673946653_eP87LmmEf8Bpryi8","uri":"https://data.datatourisme.fr/23/49daec51-75cf-3460-ad5c-847decaae8c4","dept":"79","reg":"naq"}},{"type":"Feature","geometry":{"type":"Point","coordinates":[-0.26258,47.04445]},"properties":{"nom":"Gîte Les Poiriers","sub":"LodgingBusiness","cm":"79290#Loretz-d'Argenton","web":"https://www.gites-de-france-deux-sevres.com/location-vacances-Deux-sevres-Gite-a-Loretz-d-argenton-79G80.html?","uri":"https://data.datatourisme.fr/23/5bc92e55-4fb9-31a6-adf9-9651996bf1f9","dept":"79","reg":"naq"}},{"type":"Feature","geometry":{"type":"Point","coordinates":[-0.14062,46.88472]},"properties":{"nom":"Aire Naturelle de Camping - Saint Généroux","sub":"Camping","cm":"79600#Saint-Généroux","web":null,"uri":"https://data.datatourisme.fr/23/c71773a3-cbfb-36a4-bf18-d46cbd148990","dept":"79","reg":"naq"}},{"type":"Feature","geometry":{"type":"Point","coordinates":[-0.14658,46.92366]},"properties":{"nom":"Gite La Grâcieuse","sub":"LodgingBusiness","cm":"79100#Plaine-et-Vallées","web":"https://www.laverrie.com/g%C3%AEte-la-gracieuse","uri":"https://data.datatourisme.fr/23/046418ce-d954-3621-8e52-2fbd2c69670a","dept":"79","reg":"naq"}},{"type":"Feature","geometry":{"type":"Point","coordinates":[-0.38442,47.04689]},"properties":{"nom":"Gite Floreal - La Maison Lavande","sub":"LodgingBusiness","cm":"79290#Val en Vignes","web":"https://www.gitesfloreal.com/fr/home-francais/","uri":"https://data.datatourisme.fr/23/c93c2042-2e33-3137-b895-c1291cafa145","dept":"79","reg":"naq"}},{"type":"Feature","geometry":{"type":"Point","coordinates":[-0.01498,46.8563]},"properties":{"nom":"Gîte des Amandiers","sub":"LodgingBusiness","cm":"79600#Marnes","web":"https://www.gites-de-france-deux-sevres.com/<>https://www.gites-de-france-deux-sevres.com/location-vacances-Deux-sevres-Gite-a-Marnes-79G65.html#ferme","uri":"https://data.datatourisme.fr/23/d280ccae-3568-3a1e-9e2b-8f6958744b0a","dept":"79","reg":"naq"}},{"type":"Feature","geometry":{"type":"Point","coordinates":[-0.12204,47.03766]},"properties":{"nom":"Gîte vert des Mêts","sub":"LodgingBusiness","cm":"79100#Tourtenay","web":null,"uri":"https://data.datatourisme.fr/23/e19bf73c-c741-3919-b9e0-e7b1cab8f65e","dept":"79","reg":"naq"}},{"type":"Feature","geometry":{"type":"Point","coordinates":[-0.37703,47.06832]},"properties":{"nom":"Les Dahlias","sub":"LodgingBusiness","cm":"79290#Val en Vignes","web":"https://poitou-charentes-mb-prestataire.for-system.com/f118571_fr-.aspx<>https://www.gites.fr/gites_gite-les-dahlias_val-en-vignes_70307.htm<>https://www.leboncoin.fr/ad/locations_saisonnieres/2052037051<>https://www.gites.fr/gi32551","uri":"https://data.datatourisme.fr/23/a87c2fec-5d50-3220-bf87-5a3dc6d574fa","dept":"79","reg":"naq"}},{"type":"Feature","geometry":{"type":"Point","coordinates":[-0.24828,47.01142]},"properties":{"nom":"Le Pressoir","sub":"LodgingBusiness","cm":"79100#Sainte-Verge","web":"https://poitou-charentes-mb-prestataire.for-system.com/f118807_fr-.aspx<>https://www.airbnb.fr/rooms/50359897?federated_search_id=e216add3-45c9-4792-ac03-929df599cc2b&source_impression_id=p3_1646479164_TY0dPA8euqQQscLw","uri":"https://data.datatourisme.fr/23/4f3eeeb5-9906-3b0d-8a66-6a43c42bf52e","dept":"79","reg":"naq"}},{"type":"Feature","geometry":{"type":"Point","coordinates":[-0.16951,46.93139]},"properties":{"nom":"Gite du Sainfoin","sub":"LodgingBusiness","cm":"79100#Plaine-et-Vallées","web":null,"uri":"https://data.datatourisme.fr/23/c3a9ebef-fd18-33f7-989b-b6704604954e","dept":"79","reg":"naq"}},{"type":"Feature","geometry":{"type":"Point","coordinates":[-0.24835,47.01154]},"properties":{"nom":"L'Atelier","sub":"LodgingBusiness","cm":"79100#Sainte-Verge","web":"https://www.airbnb.fr/rooms/1079733380451904170?source_impression_id=p3_1739537568_P3EBJwD2V8FTHG8X","uri":"https://data.datatourisme.fr/23/62f8fcb2-c4a6-369a-b9ea-ca9296b210d3","dept":"79","reg":"naq"}},{"type":"Feature","geometry":{"type":"Point","coordinates":[-0.15309,46.97044]},"properties":{"nom":"Gîte de la Sablonnière","sub":"LodgingBusiness","cm":"79100#Saint-Léger-de-Montbrun","web":"https://www.leboncoin.fr/ad/locations_saisonnieres/2933199018<>https://www.airbnb.fr/rooms/1166046530919467478?location=saint%20l%C3%A9ger%20de%20montbrun&search_mode=regular_search&adults=1&check_in=2025-03-02&check_out=2025-03-07&children=0&infants=0&pets=0&source_impression_id=p3_1739346451_P3yw2noNK7225eVE&previous_page_section_name=1001&federated_search_id","uri":"https://data.datatourisme.fr/23/e5e14536-2558-3998-b3d8-da3b5e0ee097","dept":"79","reg":"naq"}},{"type":"Feature","geometry":{"type":"Point","coordinates":[-0.29779,46.95294]},"properties":{"nom":"Diane de Chalon - La longère","sub":"LodgingBusiness","cm":"79100#Thouars","web":"https://www.gites-de-france-deux-sevres.com/location-vacances-Deux-sevres-Gite-a-Mauze-thouarsais-79G83.html?&region=GITES79_6","uri":"https://data.datatourisme.fr/23/d271b4f8-6222-33be-84a9-274884605ee7","dept":"79","reg":"naq"}},{"type":"Feature","geometry":{"type":"Point","coordinates":[-0.29779,46.95294]},"properties":{"nom":"Diane de Chalon - La maison du parc","sub":"LodgingBusiness","cm":"79100#Thouars","web":"https://www.gites-de-france-deux-sevres.com/location-vacances-Deux-sevres-Gite-a-Mauze-thouarsais-79G84.html?&region=GITES79_6","uri":"https://data.datatourisme.fr/23/f8383e91-8067-34ad-8ed2-48da9afec333","dept":"79","reg":"naq"}},{"type":"Feature","geometry":{"type":"Point","coordinates":[0.10565,46.10413]},"properties":{"nom":"Gite O'Vert Tige","sub":"LodgingBusiness","cm":"79190#Sauzé-Vaussais","web":"https://giteovert-tige.jimdofree.com/<>https://giteovert-tige.jimdofree.com/tarifs-et-r%C3%A9servation/","uri":"https://data.datatourisme.fr/23/81799053-0af7-327e-a367-316c75fb443f","dept":"79","reg":"naq"}},{"type":"Feature","geometry":{"type":"Point","coordinates":[-0.6088,46.31469]},"properties":{"nom":"Camping La Venise Verte","sub":"Camping","cm":"79510#Coulon","web":"https://bookingpremium.secureholiday.net/fr/425/Search/?dateStart=10%2F04%2F2021&dateEnd=17%2F04%2F2021&productType=<>https://www.camping-laveniseverte.fr/","uri":"https://data.datatourisme.fr/23/00cd29c9-c013-3b7a-a296-3fe3ee19aa57","dept":"79","reg":"naq"}},{"type":"Feature","geometry":{"type":"Point","coordinates":[-0.6088,46.31469]},"properties":{"nom":"Camping La Venise Verte - hébergement de groupes","sub":"CollectiveAccommodation","cm":"79510#Coulon","web":"https://www.camping-laveniseverte.fr/<>https://bookingpremium.secureholiday.net/fr/425/search/product-list?dateStart=&dateEnd=&productType=&filterStatus=showPeriod","uri":"https://data.datatourisme.fr/23/c8cd6279-9cb0-38a6-b870-353d2c43ebf8","dept":"79","reg":"naq"}},{"type":"Feature","geometry":{"type":"Point","coordinates":[-0.46068,46.32354]},"properties":{"nom":"France Hôtel","sub":"Hotel","cm":"79000#Niort","web":"http://francehotelniort.com/tarif-et-reservation/<>http://www.francehotelniort.com/","uri":"https://data.datatourisme.fr/23/02fc3a14-2707-3a8b-abe5-b4ae1f8a25e6","dept":"79","reg":"naq"}},{"type":"Feature","geometry":{"type":"Point","coordinates":[-0.45604,46.3243]},"properties":{"nom":"Grand Hôtel Niort Centre","sub":"Hotel","cm":"79000#Niort","web":"https://grandhotelniort.com/","uri":"https://data.datatourisme.fr/23/b6f5b896-4619-30be-b873-04a48d350c85","dept":"79","reg":"naq"}},{"type":"Feature","geometry":{"type":"Point","coordinates":[-0.46749,46.32368]},"properties":{"nom":"Hôtel Particulier \"La Chamoiserie\"","sub":"Hotel","cm":"79000#Niort","web":"https://secure.reservit.com/fo/booking/2/154195/dates?specialMode=default&langcode=FR&custid=2&_ga=GA1.3.662977172.1687267186&hotelid=154195&m=booking<>http://www.hotelparticulierniort.com/","uri":"https://data.datatourisme.fr/23/b7970ced-be21-3265-bd99-bf431a305841","dept":"79","reg":"naq"}},{"type":"Feature","geometry":{"type":"Point","coordinates":[-0.61391,46.32722]},"properties":{"nom":"Gîte \"Côté Grenouilles\" - Le Hameau de Sainte-Mégrine","sub":"LodgingBusiness","cm":"79510#Coulon","web":"https://www.sainte-megrine.fr/<>https://poitou-charentes-meuble.for-system.com/z8515e3_fr-gite-5-pieces-coulon-gite-cote-grenouilles-de-sainte-megrine.aspx?Param/CodeOs=OSMB-46670-3&Globales/ListeIdFournisseur=46670","uri":"https://data.datatourisme.fr/23/05f65ac0-5a2c-36a2-a95e-e4f46a43c57a","dept":"79","reg":"naq"}},{"type":"Feature","geometry":{"type":"Point","coordinates":[-0.61391,46.32722]},"properties":{"nom":"\"Le Petit Gîte\" - Le Hameau de Sainte-Mégrine","sub":"LodgingBusiness","cm":"79510#Coulon","web":"https://www.sainte-megrine.fr/<>https://poitou-charentes-meuble.for-system.com/z8515e3_fr-gite-3-pieces-coulon-le-petit-gite-de-sainte-megrine.aspx?Param/CodeOs=OSMB-46670-1&Globales/ListeIdFournisseur=46670","uri":"https://data.datatourisme.fr/23/39cd2805-0551-3a7c-93a3-53651cf98521","dept":"79","reg":"naq"}},{"type":"Feature","geometry":{"type":"Point","coordinates":[-0.61391,46.32722]},"properties":{"nom":"Gîte \"Côté Marguerites\" - Le Hameau de Sainte-Mégrine","sub":"LodgingBusiness","cm":"79510#Coulon","web":"https://www.sainte-megrine.fr/<>https://poitou-charentes-meuble.for-system.com/z8515e3_fr-gite-5-pieces-coulon-gite-cote-marguerite-de-sainte-megrine.aspx?Param/CodeOs=OSMB-46670-4&Globales/ListeIdFournisseur=46670","uri":"https://data.datatourisme.fr/23/f52edc14-cdee-3458-83cd-dabc6290200d","dept":"79","reg":"naq"}},{"type":"Feature","geometry":{"type":"Point","coordinates":[-0.61391,46.32722]},"properties":{"nom":"Chambres d'hôtes - Le Hameau de Sainte-Mégrine","sub":"BedAndBreakfast","cm":"79510#Coulon","web":"https://www.sainte-megrine.fr/<>https://poitou-charentes-chambre.for-system.com/f46671_fr-.aspx","uri":"https://data.datatourisme.fr/23/85d30b10-d77e-3a1d-bcfe-7d9b912063e8","dept":"79","reg":"naq"}},{"type":"Feature","geometry":{"type":"Point","coordinates":[-0.61391,46.32722]},"properties":{"nom":"Le Hameau de Sainte-Mégrine - hébergement de groupes","sub":"CollectiveAccommodation","cm":"79510#Coulon","web":"https://www.sainte-megrine.fr/<>https://poitou-charentes-meuble.for-system.com/z8515e3_fr-gite-10-pieces-coulon-gite-cote-marguerite-et-gite-cote-grenouilles.aspx?Param/CodeOs=OSMB-46670-5&Globales/ListeIdFournisseur=46670","uri":"https://data.datatourisme.fr/23/9f44cac5-1b2a-3692-a038-a84fbb4566d3","dept":"79","reg":"naq"}},{"type":"Feature","geometry":{"type":"Point","coordinates":[-0.15501,46.68042]},"properties":{"nom":"Camping du Moulin de Fumailles","sub":"Camping","cm":"79200#La Peyratte","web":"http://camping-fumailles.e-monsite.com/","uri":"https://data.datatourisme.fr/23/0173ad1e-e5e5-3d07-9ad9-7f94d59174a7","dept":"79","reg":"naq"}},{"type":"Feature","geometry":{"type":"Point","coordinates":[-0.13803,46.82749]},"properties":{"nom":"Le Vieux Château","sub":"BedAndBreakfast","cm":"79600#Airvault","web":"http://www.levieuxchateau-airvault.com/<>https://www.levieuxchateau-airvault.com/","uri":"https://data.datatourisme.fr/23/e4245c22-9876-3c10-9160-993e114fdaff","dept":"79","reg":"naq"}},{"type":"Feature","geometry":{"type":"Point","coordinates":[-0.37567,46.29778]},"properties":{"nom":"IBIS Styles Niort Poitou-Charentes","sub":"Hotel","cm":"79230#Vouillé","web":"https://all.accor.com/hotel/9122/index.fr.shtml?dateIn=&nights=&compositions=1&stayplus=false&snu=false#origin=accor","uri":"https://data.datatourisme.fr/23/707328fa-e984-3b06-997e-981ec7ee738f","dept":"79","reg":"naq"}},{"type":"Feature","geometry":{"type":"Point","coordinates":[-0.48389,46.30881]},"properties":{"nom":"B&B Hôtel Niort Sud Venise Verte","sub":"Hotel","cm":"79000#Niort","web":"https://www.hotel-bb.com/fr/hotel/niort-marais-poitevin-sud?utm_source=googlemaps&utm_medium=fichehotel&utm_campaign=yext","uri":"https://data.datatourisme.fr/23/e9b317ae-dc2c-341f-9a07-4f93df3d9f11","dept":"79","reg":"naq"}},{"type":"Feature","geometry":{"type":"Point","coordinates":[-0.62541,46.329]},"properties":{"nom":"Gîte de Chevillon","sub":"LodgingBusiness","cm":"79510#Coulon","web":null,"uri":"https://data.datatourisme.fr/23/318ebf55-df5b-3516-bd2a-66e94ec8a502","dept":"79","reg":"naq"}},{"type":"Feature","geometry":{"type":"Point","coordinates":[-0.52043,46.30041]},"properties":{"nom":"Gîte Arlette","sub":"LodgingBusiness","cm":"79000#Bessines","web":"https://www.clevacances.com/fr/hebergement/13060-gite-situe-aux-portes-du-marais-poitevin-a-bessines-avec-jardin-privatif","uri":"https://data.datatourisme.fr/23/3251a427-2be1-332a-9f79-de6c68851bec","dept":"79","reg":"naq"}},{"type":"Feature","geometry":{"type":"Point","coordinates":[-0.61744,46.31071]},"properties":{"nom":"Gite des Ecluses (G 245)","sub":"LodgingBusiness","cm":"79510#Coulon","web":"https://www.gites-de-france-deux-sevres.com/location-vacances-Deux-sevres-Gite-a-Coulon-79G245.html","uri":"https://data.datatourisme.fr/23/32c2f313-13a3-3b8e-bd64-c7c6f5e88e72","dept":"79","reg":"naq"}},{"type":"Feature","geometry":{"type":"Point","coordinates":[-0.58714,46.305]},"properties":{"nom":"La Grenouillère (G 761)","sub":"LodgingBusiness","cm":"79270#Sansais","web":"https://www.gites-de-france-deux-sevres.com/location-vacances-Deux-sevres-Gite-a-Sansais-79G761.html<>https://www.gites-de-france-deux-sevres.com/location-vacances-Deux-sevres-Gite-a-Sansais-79G761.html#reserver","uri":"https://data.datatourisme.fr/23/70250063-1c60-36a5-9cb7-1c9cd836bc17","dept":"79","reg":"naq"}},{"type":"Feature","geometry":{"type":"Point","coordinates":[-0.3911,46.18475]},"properties":{"nom":"Gîte du Château (G 270)","sub":"LodgingBusiness","cm":"79360#Marigny","web":null,"uri":"https://data.datatourisme.fr/23/71712ec2-d5a0-38eb-994b-2453bb3ea629","dept":"79","reg":"naq"}},{"type":"Feature","geometry":{"type":"Point","coordinates":[-0.59947,46.46149]},"properties":{"nom":"Accueil camping car (hors camping) - Les Fromages de Sylvie","sub":"CampingAndCaravanning","cm":"79160#Coulonges-sur-l'Autize","web":"https://www.les-fromages-de-sylvie.fr/","uri":"https://data.datatourisme.fr/23/56dacb91-dbd8-3f10-b79f-2cca596736ab","dept":"79","reg":"naq"}},{"type":"Feature","geometry":{"type":"Point","coordinates":[-0.40034,46.60461]},"properties":{"nom":"Maison Familiale Rurale de Secondigny","sub":"CollectiveAccommodation","cm":"79130#Secondigny","web":"http://www.mfr-secondigny.fr/","uri":"https://data.datatourisme.fr/23/7011f0e2-6193-38ba-a38f-e7b2a9f9a030","dept":"79","reg":"naq"}},{"type":"Feature","geometry":{"type":"Point","coordinates":[-0.02266,46.57787]},"properties":{"nom":"La Grange Madame - Gîte B","sub":"LodgingBusiness","cm":"79340#Vasles","web":"http://www.lagrangemadame.fr/","uri":"https://data.datatourisme.fr/23/30d61fc1-7541-3914-a6e1-32173b15f094","dept":"79","reg":"naq"}},{"type":"Feature","geometry":{"type":"Point","coordinates":[-0.0228,46.57735]},"properties":{"nom":"La Grange Madame - Gîte A","sub":"LodgingBusiness","cm":"79340#Vasles","web":"http://www.lagrangemadame.fr/","uri":"https://data.datatourisme.fr/23/cd075273-7953-3260-a2ce-82c8365d2799","dept":"79","reg":"naq"}},{"type":"Feature","geometry":{"type":"Point","coordinates":[-0.60048,46.45379]},"properties":{"nom":"Le Petit Paradis","sub":"LodgingBusiness","cm":"79160#Coulonges-sur-l'Autize","web":"http://www.gitelepetitparadis.com/","uri":"https://data.datatourisme.fr/23/32cb94ac-30f3-3362-af9e-4d64c49ddaf2","dept":"79","reg":"naq"}},{"type":"Feature","geometry":{"type":"Point","coordinates":[-0.66949,46.82285]},"properties":{"nom":"Hôtel-Restaurant Le Cerizay","sub":"Hotel","cm":"79140#Cerizay","web":null,"uri":"https://data.datatourisme.fr/23/d3ef8586-0ebd-3af7-a77a-27454f07ee78","dept":"79","reg":"naq"}},{"type":"Feature","geometry":{"type":"Point","coordinates":[-0.50222,46.85668]},"properties":{"nom":"Cottage Stone & Green","sub":"LodgingBusiness","cm":"79300#Bressuire","web":"https://www.stoneandgreen.fr/<>https://www.airbnb.fr/rooms/1583148044144643574?adults=2&search_mode=regular_search&check_in=2026-03-23&check_out=2026-03-28&children=0&infants=0&pets=0&source_impression_id=p3_1772720509_P3C7Yzk7L7udKntd&previous_page_section_name=1000&federated_search_id=ed5d187c-9df0-413a-903e-00972741a0b7","uri":"https://data.datatourisme.fr/23/1a76e6ac-9486-3d85-b7ae-f2376aa9b122","dept":"79","reg":"naq"}},{"type":"Feature","geometry":{"type":"Point","coordinates":[-0.42457,46.84671]},"properties":{"nom":"Studio La Turlure","sub":"LodgingBusiness","cm":"79300#Bressuire","web":"https://www.laturlure79.com/fr<>https://www.laturlure79.com/fr/booking/room","uri":"https://data.datatourisme.fr/23/1916ed70-3e34-39da-896f-0fedfa5e130c","dept":"79","reg":"naq"}},{"type":"Feature","geometry":{"type":"Point","coordinates":[-0.35559,46.94793]},"properties":{"nom":"Gîte Ouche - Domaine Angelou","sub":"LodgingBusiness","cm":"79150#Argentonnay","web":"https://domaineangelou.jimdofree.com/<>https://domaineangelou.jimdofree.com/reservation-1/","uri":"https://data.datatourisme.fr/23/21558418-8dbf-3b59-8d7f-51153d02df65","dept":"79","reg":"naq"}},{"type":"Feature","geometry":{"type":"Point","coordinates":[-0.60339,46.70826]},"properties":{"nom":"Résidence Natura Resort Pescalis - Chalets de 6 personnes","sub":"LodgingBusiness","cm":"79320#Moncoutant-sur-Sèvre","web":"http://www.natura-resort.com/<>https://www.secure-hotel-booking.com/smart/natura-resort-pescalis/2YIZ/fr/","uri":"https://data.datatourisme.fr/23/70843193-fde9-3e81-9d2d-4bd3fd6007f0","dept":"79","reg":"naq"}},{"type":"Feature","geometry":{"type":"Point","coordinates":[-0.60339,46.70826]},"properties":{"nom":"Résidence Vacances Natura Resort Pescalis","sub":"HolidayResort","cm":"79320#Moncoutant-sur-Sèvre","web":"http://www.natura-resort.com/<>https://www.secure-hotel-booking.com/smart/natura-resort-pescalis/2YIZ/fr/","uri":"https://data.datatourisme.fr/23/6355dfc7-8726-3585-8c95-ea3657d42895","dept":"79","reg":"naq"}},{"type":"Feature","geometry":{"type":"Point","coordinates":[-0.74583,46.86345]},"properties":{"nom":"Les Ecorcins","sub":"LodgingBusiness","cm":"79700#Saint-Amand-sur-Sèvre","web":null,"uri":"https://data.datatourisme.fr/23/a967751a-4f74-3938-bf3f-513da735b30d","dept":"79","reg":"naq"}},{"type":"Feature","geometry":{"type":"Point","coordinates":[-0.52373,46.93397]},"properties":{"nom":"Le Moulin du Grand Pont","sub":"LodgingBusiness","cm":"79250#Nueil-les-Aubiers","web":"https://www.airbnb.fr/rooms/13359124?s=RRXdWKn2","uri":"https://data.datatourisme.fr/23/aafb66c7-9162-31e8-9d26-0e6f953abf22","dept":"79","reg":"naq"}},{"type":"Feature","geometry":{"type":"Point","coordinates":[-0.23287,46.45483]},"properties":{"nom":"Gîte de Chisseré","sub":"LodgingBusiness","cm":"79400#Saivres","web":"http://chissere1.wix.com/gite<>https://www.clevacances.com/fr/locationvacances/poitoucharentes/deuxsevres/saivres-32747/location_pour_6_pers_3_chambres_piscine_couverte_a_la_campagne_ideale_pour_visiter_puy_du_fou_futuroscope_marai","uri":"https://data.datatourisme.fr/23/316c393c-4952-3649-bccd-a09b5a4bb0a5","dept":"79","reg":"naq"}},{"type":"Feature","geometry":{"type":"Point","coordinates":[-0.69513,46.2975]},"properties":{"nom":"Embarcadère Bardet Huttiers/La Bicyclette Verte  - Location de vélos","sub":"Rental","cm":"79210#Arçais","web":"https://maraispoitevin-bicyclette.com/","uri":"https://data.datatourisme.fr/23/e43011fb-59b1-3c55-ab60-936beefb9e9d","dept":"79","reg":"naq"}},{"type":"Feature","geometry":{"type":"Point","coordinates":[-0.58774,46.27261]},"properties":{"nom":"Gite \"Le Four à Pain\"","sub":"LodgingBusiness","cm":"79270#Sansais","web":"https://www.gites.fr/gites_gite-le-four-a-pain_sansais_57523.htm","uri":"https://data.datatourisme.fr/23/5a2edf5d-4e50-3734-9083-f2b9161f6be3","dept":"79","reg":"naq"}},{"type":"Feature","geometry":{"type":"Point","coordinates":[-0.37141,46.37657]},"properties":{"nom":"Le Gîte du Pont Cassé (G 222)","sub":"LodgingBusiness","cm":"79410#Saint-Gelais","web":"https://www.gites-de-france-deux-sevres.com/location-vacances-Deux-sevres-Gite-a-Saint-gelais-79G222.html?&nbp_min=3<>https://www.gites-de-france-deux-sevres.com/location-vacances-Deux-sevres-Gite-a-Saint-gelais-79G222.html?&nbp_min=3#reserver","uri":"https://data.datatourisme.fr/23/5bf4604a-0def-3ec4-bc48-b22ccbf07f11","dept":"79","reg":"naq"}},{"type":"Feature","geometry":{"type":"Point","coordinates":[-0.4917,46.22353]},"properties":{"nom":"La Glycine (G 286)","sub":"LodgingBusiness","cm":"79360#Granzay-Gript","web":null,"uri":"https://data.datatourisme.fr/23/5e32cef0-f40c-3cb6-818a-043e2401f041","dept":"79","reg":"naq"}},{"type":"Feature","geometry":{"type":"Point","coordinates":[-0.37943,46.51993]},"properties":{"nom":"Gîte de la Collégiale","sub":"LodgingBusiness","cm":"79310#Saint-Marc-la-Lande","web":"http://www.saint-marc-la-lande.fr/<>https://poitou-charentes-meuble.for-system.com/f27245_fr-.aspx","uri":"https://data.datatourisme.fr/23/1fb9615c-b775-3f36-a07b-b0bb55de32d8","dept":"79","reg":"naq"}},{"type":"Feature","geometry":{"type":"Point","coordinates":[-0.37947,46.51995]},"properties":{"nom":"Gîte de la Commanderie","sub":"LodgingBusiness","cm":"79310#Saint-Marc-la-Lande","web":"http://www.saint-marc-la-lande.fr/<>https://poitou-charentes-meuble.for-system.com/f27245_fr-.aspx","uri":"https://data.datatourisme.fr/23/a836ee81-595b-34a6-95db-41c571126d52","dept":"79","reg":"naq"}},{"type":"Feature","geometry":{"type":"Point","coordinates":[-0.03799,46.81]},"properties":{"nom":"Les cours - 8 personnes","sub":"LodgingBusiness","cm":"79600#Assais-les-Jumeaux","web":"http://lescours79.com/<>https://www.gites-de-france-deux-sevres.com/location-vacances-Deux-sevres-Gite-a-Assais-les-jumeaux-79G604.html?&nbp_min=2#reserver","uri":"https://data.datatourisme.fr/23/57f2e14f-c7c0-3e4a-9fd1-7f04ce367a87","dept":"79","reg":"naq"}},{"type":"Feature","geometry":{"type":"Point","coordinates":[-0.45123,46.98714]},"properties":{"nom":"Camping 3* Au Lac D'Hautibus - EMPLACEMENT TENTE - MOBIL HOME - TIPI - CHALET","sub":"Camping","cm":"79150#Argentonnay","web":"http://thelisresa.webcamp.fr/?camping=bonnesvac&lang=fr&chosenSite=7068<>https://camping-lacdhautibus.com/","uri":"https://data.datatourisme.fr/23/e1d91bf9-718f-342c-87cf-0be3b0291daf","dept":"79","reg":"naq"}},{"type":"Feature","geometry":{"type":"Point","coordinates":[-0.62149,46.75462]},"properties":{"nom":"Gîte du Paradis","sub":"LodgingBusiness","cm":"79380#Moncoutant-sur-Sèvre","web":null,"uri":"https://data.datatourisme.fr/23/4d5237a2-9a64-3113-942b-502d79aeac65","dept":"79","reg":"naq"}},{"type":"Feature","geometry":{"type":"Point","coordinates":[-0.46904,46.73879]},"properties":{"nom":"Gîte de la Parentière","sub":"LodgingBusiness","cm":"79430#La Chapelle-Saint-Laurent","web":null,"uri":"https://data.datatourisme.fr/23/592a7a49-dc0f-3fa5-8cdc-b4e910e15d55","dept":"79","reg":"naq"}},{"type":"Feature","geometry":{"type":"Point","coordinates":[-0.55497,46.75447]},"properties":{"nom":"La Petite Plaine (7 pers)","sub":"LodgingBusiness","cm":"79320#Moncoutant-sur-Sèvre","web":"http://gitealapetiteplaine.chez-alice.fr/<>http://gitealapetiteplaine.chez-alice.fr/gite-rural-pas-cher.html","uri":"https://data.datatourisme.fr/23/5949ab99-8367-39a0-8a5c-ca08290d2e1b","dept":"79","reg":"naq"}},{"type":"Feature","geometry":{"type":"Point","coordinates":[-0.55497,46.75447]},"properties":{"nom":"La Petite Plaine (10 pers)","sub":"LodgingBusiness","cm":"79320#Moncoutant-sur-Sèvre","web":"http://gitealapetiteplaine.chez-alice.fr/<>http://gitealapetiteplaine.chez-alice.fr/gite-rural-pas-cher.html","uri":"https://data.datatourisme.fr/23/b68372a8-f36d-3b98-a8c4-a21336d18bad","dept":"79","reg":"naq"}},{"type":"Feature","geometry":{"type":"Point","coordinates":[-0.72973,46.92579]},"properties":{"nom":"La Gaignonnière","sub":"LodgingBusiness","cm":"79700#Mauléon","web":"http://frdarexy.lescigales.org/","uri":"https://data.datatourisme.fr/23/5a187922-7c34-3ba0-b78e-d2ae1cac16e2","dept":"79","reg":"naq"}},{"type":"Feature","geometry":{"type":"Point","coordinates":[-0.50971,46.86355]},"properties":{"nom":"Gîte du Golf","sub":"LodgingBusiness","cm":"79300#Bressuire","web":null,"uri":"https://data.datatourisme.fr/23/5e50e919-09dc-3cb6-81e8-c1fb6b031504","dept":"79","reg":"naq"}},{"type":"Feature","geometry":{"type":"Point","coordinates":[-0.82318,46.95026]},"properties":{"nom":"Gîte Près de l'Ouin","sub":"LodgingBusiness","cm":"79700#Mauléon","web":"https://www.gites-de-france-deux-sevres.com/location-vacances-Deux-sevres-Gite-a-Mauleon-79G4.html<>https://www.gites-de-france-deux-sevres.com/location-vacances-Deux-sevres-Gite-a-Mauleon-79G4.html#reserver","uri":"https://data.datatourisme.fr/23/a33b0f1f-2609-3a8f-bf70-a28a79f2555c","dept":"79","reg":"naq"}},{"type":"Feature","geometry":{"type":"Point","coordinates":[-0.48636,46.94046]},"properties":{"nom":"Gîte Le Grand Saule","sub":"LodgingBusiness","cm":"79150#Argentonnay","web":null,"uri":"https://data.datatourisme.fr/23/a36a72ac-43b1-338c-ab5b-477ab99cefb3","dept":"79","reg":"naq"}},{"type":"Feature","geometry":{"type":"Point","coordinates":[-0.34601,46.4135]},"properties":{"nom":"Le Hameau 1936 - Gîte des Milanaïs","sub":"LodgingBusiness","cm":"79410#Cherveux","web":"https://www.le-hameau-1936.fr/reservation<>https://www.le-hameau-1936.fr/nos-gites/gite-les-milanais/","uri":"https://data.datatourisme.fr/23/4cb5826e-abf9-3d86-92ac-8b2b22c28a36","dept":"79","reg":"naq"}},{"type":"Feature","geometry":{"type":"Point","coordinates":[-0.34602,46.41347]},"properties":{"nom":"Le Hameau 1936 – Chambre d'hôtes","sub":"BedAndBreakfast","cm":"79410#Cherveux","web":"https://www.le-hameau-1936.fr/<>https://www.facebook.com/LeHameau1936<>https://www.le-hameau-1936.fr/reservation.html","uri":"https://data.datatourisme.fr/23/5eea64e1-c697-3847-9973-d11687800fc3","dept":"79","reg":"naq"}},{"type":"Feature","geometry":{"type":"Point","coordinates":[-0.34602,46.41345]},"properties":{"nom":"Le Hameau 1936 - Gîte des Chènevottes","sub":"LodgingBusiness","cm":"79410#Cherveux","web":"https://www.le-hameau-1936.fr/gites/gites-les-chenevottes.html<>https://www.le-hameau-1936.fr/reservation.html","uri":"https://data.datatourisme.fr/23/91f05e61-efa8-325d-95a9-8e6cdc9514c4","dept":"79","reg":"naq"}},{"type":"Feature","geometry":{"type":"Point","coordinates":[-0.46881,46.32471]},"properties":{"nom":"Port Boinot","sub":"Rental","cm":"79000#Niort","web":"https://www.vivre-a-niort.com/fr/cadre-de-vie/grands-projets/port-boinot/index.html","uri":"https://data.datatourisme.fr/23/2b560e92-f841-3282-ba4c-a1adbdd4b846","dept":"79","reg":"naq"}},{"type":"Feature","geometry":{"type":"Point","coordinates":[-0.20231,46.29487]},"properties":{"nom":"La mare au loup","sub":"LodgingBusiness","cm":"79370#Beaussais-Vitré","web":null,"uri":"https://data.datatourisme.fr/23/44afeb2e-e866-3ebe-95c5-e7c8030e46fc","dept":"79","reg":"naq"}},{"type":"Feature","geometry":{"type":"Point","coordinates":[0.08587,46.19831]},"properties":{"nom":"Gîtes Les chaumières","sub":"LodgingBusiness","cm":"79190#Sauzé-Vaussais","web":"https://gites-les-chaumieres-and-l-etable.jimdosite.com/","uri":"https://data.datatourisme.fr/23/47d50998-6825-3b10-bdf3-06bf631f53d4","dept":"79","reg":"naq"}},{"type":"Feature","geometry":{"type":"Point","coordinates":[0.09115,46.11768]},"properties":{"nom":"Gîtes dans les champs","sub":"LodgingBusiness","cm":"79190#Sauzé-Vaussais","web":"http://gitesdansleschamps.com/","uri":"https://data.datatourisme.fr/23/c804f415-1cc0-3afc-b512-55511c7307cd","dept":"79","reg":"naq"}},{"type":"Feature","geometry":{"type":"Point","coordinates":[-0.28574,46.21353]},"properties":{"nom":"Gîte de la Poterie","sub":"LodgingBusiness","cm":"79370#Celles-sur-Belle","web":"https://gitedelapoterie-deuxsevres.jimdofree.com/","uri":"https://data.datatourisme.fr/23/cd07ed86-7b90-33cb-a19c-76044ac2da06","dept":"79","reg":"naq"}},{"type":"Feature","geometry":{"type":"Point","coordinates":[-0.74612,46.2546]},"properties":{"nom":"L'Angélique (G 235)","sub":"LodgingBusiness","cm":"79210#Saint-Hilaire-la-Palud","web":null,"uri":"https://data.datatourisme.fr/23/425478fd-d696-3f05-ba1f-ab871a5e42cc","dept":"79","reg":"naq"}},{"type":"Feature","geometry":{"type":"Point","coordinates":[-0.36544,46.36217]},"properties":{"nom":"Le Gîte de la Roche (G 211)","sub":"LodgingBusiness","cm":"79180#Chauray","web":"https://www.gites-de-france.com/fr/nouvelle-aquitaine/deux-sevres/le-gite-de-la-roche-79g211","uri":"https://data.datatourisme.fr/23/69399647-4729-3778-bebb-436c0e15ebb5","dept":"79","reg":"naq"}},{"type":"Feature","geometry":{"type":"Point","coordinates":[-0.2194,46.32193]},"properties":{"nom":"Domaine du Lambon - Olydea","sub":"HolidayResort","cm":"79370#Prailles-La Couarde","web":"https://www.olydea.com/<>https://www.olydea.com/bookingstep1.fr.html?idtokenprovider=100377140&nights=2&lang=fr&checkin=10%2F12%2F2024&step=1&home=https%3A%2F%2Fwww.olydea.com%2F&currency=EUR#url=true&hsri=03040","uri":"https://data.datatourisme.fr/23/d1636a52-7362-3356-a8c2-e5a136752e85","dept":"79","reg":"naq"}},{"type":"Feature","geometry":{"type":"Point","coordinates":[-0.54503,46.87633]},"properties":{"nom":"Gîte Le Beau Lieu","sub":"LodgingBusiness","cm":"79300#Bressuire","web":null,"uri":"https://data.datatourisme.fr/23/5d7d18d1-8ee2-351c-8afc-7468267b1456","dept":"79","reg":"naq"}},{"type":"Feature","geometry":{"type":"Point","coordinates":[-0.47355,46.84658]},"properties":{"nom":"Gîte \"La Maison de Louise\"","sub":"LodgingBusiness","cm":"79300#Bressuire","web":"https://www.gites-de-france-deux-sevres.com/location-vacances-Deux-sevres-Gite-a-Bressuire-79G47.html?nbp_min=2","uri":"https://data.datatourisme.fr/23/ae9512c2-a15f-3a33-a027-a69292808ad8","dept":"79","reg":"naq"}},{"type":"Feature","geometry":{"type":"Point","coordinates":[-0.4751,46.73868]},"properties":{"nom":"Restaurant-Hôtel Le Saint Pierre","sub":"HotelRestaurant","cm":"79320#Moncoutant-sur-Sèvre","web":"https://lesaintpierre79.fr/","uri":"https://data.datatourisme.fr/23/83fd649e-b2b6-3fef-ac65-02fa3ac42a13","dept":"79","reg":"naq"}},{"type":"Feature","geometry":{"type":"Point","coordinates":[-0.21698,46.32448]},"properties":{"nom":"La Menuiserie","sub":"LodgingBusiness","cm":"79370#Prailles-La Couarde","web":null,"uri":"https://data.datatourisme.fr/23/404dfe68-2f4c-3bd5-be98-ad0e693b885d","dept":"79","reg":"naq"}},{"type":"Feature","geometry":{"type":"Point","coordinates":[-0.40027,46.33916]},"properties":{"nom":"Hôtel Première Classe Niort-Chauray","sub":"Hotel","cm":"79000#Niort","web":"https://niort-est-chauray.premiereclasse.com/fr-fr/","uri":"https://data.datatourisme.fr/23/461a2ed3-0bc9-3745-88af-4682913a126e","dept":"79","reg":"naq"}},{"type":"Feature","geometry":{"type":"Point","coordinates":[-0.61391,46.32722]},"properties":{"nom":"Gîte Le Refuge - Le Hameau de Sainte-Mégrine","sub":"LodgingBusiness","cm":"79510#Coulon","web":"https://www.sainte-megrine.fr/<>https://poitou-charentes-meuble.for-system.com/z8515e3_fr-gite-3-pieces-coulon-le-refuge.aspx?Param/CodeOs=OSMB-46670-2&Globales/ListeIdFournisseur=46670","uri":"https://data.datatourisme.fr/23/67206ab5-fb91-36db-bb89-3e1743e25a45","dept":"79","reg":"naq"}},{"type":"Feature","geometry":{"type":"Point","coordinates":[-0.6144,46.31392]},"properties":{"nom":"Gîte \"La Cabane à Doudou\" - Le Hameau de Sainte-Mégrine","sub":"LodgingBusiness","cm":"79510#Coulon","web":"https://www.sainte-megrine.fr/<>https://poitou-charentes-meuble.for-system.com/z8515e3_fr-chalet-coulon.aspx?Param/CodeOs=OSMB-46670-6&Globales/ListeIdFournisseur=46670","uri":"https://data.datatourisme.fr/23/943d90ab-337f-3f90-860b-eeee5a6f7743","dept":"79","reg":"naq"}},{"type":"Feature","geometry":{"type":"Point","coordinates":[-0.54315,46.31319]},"properties":{"nom":"L'Eau Vive","sub":"LodgingBusiness","cm":"79460#Magné","web":null,"uri":"https://data.datatourisme.fr/23/688ff60c-441b-3487-b91f-f0b566b79b2b","dept":"79","reg":"naq"}},{"type":"Feature","geometry":{"type":"Point","coordinates":[-0.58606,46.2767]},"properties":{"nom":"Le Toit d'en Bas (G 238)","sub":"LodgingBusiness","cm":"79270#Sansais","web":"http://www.gite-letoitdenbas.fr/","uri":"https://data.datatourisme.fr/23/bdd21b87-3184-33e2-b806-7c610d7a3075","dept":"79","reg":"naq"}},{"type":"Feature","geometry":{"type":"Point","coordinates":[-0.71597,46.26431]},"properties":{"nom":"L'Orée du Marais (G 741)","sub":"LodgingBusiness","cm":"79210#Saint-Georges-de-Rex","web":"https://www.gites-de-france-deux-sevres.com/location-vacances-Deux-sevres-Gite-a-Saint-georges-de-rex-79G741.html#reserver<>https://www.gites-de-france-deux-sevres.com/location-vacances-Deux-sevres-Gite-a-Saint-georges-de-rex-79G741.html","uri":"https://data.datatourisme.fr/23/c19aac81-b061-3a77-8dd7-da437c8620b8","dept":"79","reg":"naq"}},{"type":"Feature","geometry":{"type":"Point","coordinates":[-0.71099,46.26285]},"properties":{"nom":"Le Logis de la Venise Verte (n° 5150)","sub":"BedAndBreakfast","cm":"79210#Saint-Hilaire-la-Palud","web":"http://www.lelogisdelaveniseverte.com/","uri":"https://data.datatourisme.fr/23/f5fb9e2b-e7d0-3223-9fb9-18db8867d905","dept":"79","reg":"naq"}},{"type":"Feature","geometry":{"type":"Point","coordinates":[-0.51503,47.07652]},"properties":{"nom":"Camping La Raudière","sub":"Camping","cm":"79150#Saint Maurice Étusson","web":"http://www.camping-raudiere.com/","uri":"https://data.datatourisme.fr/23/664b234a-4e41-354f-8085-9937bcfc2b21","dept":"79","reg":"naq"}},{"type":"Feature","geometry":{"type":"Point","coordinates":[-0.67146,46.82092]},"properties":{"nom":"Hôtel-Restaurant du Cheval Blanc","sub":"Hotel","cm":"79140#Cerizay","web":"http://www.hotel-restaurant-cerizay.com/","uri":"https://data.datatourisme.fr/23/67a9c031-2262-313d-9107-68179cec0a96","dept":"79","reg":"naq"}},{"type":"Feature","geometry":{"type":"Point","coordinates":[-0.43998,46.96063]},"properties":{"nom":"Gîte Le Chêne","sub":"LodgingBusiness","cm":"79150#Argentonnay","web":"http://www.gites-en-france.org/","uri":"https://data.datatourisme.fr/23/658f4d18-d6b2-3962-b2d7-24ea4a6cf819","dept":"79","reg":"naq"}},{"type":"Feature","geometry":{"type":"Point","coordinates":[-0.71462,46.76281]},"properties":{"nom":"Roulotte Tonneau Charoul'Hôtes","sub":"LodgingBusiness","cm":"79380#Saint-André-sur-Sèvre","web":"https://checkout.lodgify.com/charoulhotes/fr/?currency=EUR#/278511<>https://charoulhotes.com/","uri":"https://data.datatourisme.fr/23/65eedce5-006f-3d68-a32a-56fe4b970c5f","dept":"79","reg":"naq"}},{"type":"Feature","geometry":{"type":"Point","coordinates":[-0.71463,46.76278]},"properties":{"nom":"Gîte Bleu Charoul'Hôtes","sub":"LodgingBusiness","cm":"79380#Saint-André-sur-Sèvre","web":"https://www.charoulhotes.com/<>https://checkout.lodgify.com/charoulhotes/fr/?currency=EUR#/278511","uri":"https://data.datatourisme.fr/23/10513a84-2e9e-3ec2-88ad-e3c10dffb9f3","dept":"79","reg":"naq"}},{"type":"Feature","geometry":{"type":"Point","coordinates":[-0.55939,46.94475]},"properties":{"nom":"Gîte Chamarel","sub":"LodgingBusiness","cm":"79250#Nueil-les-Aubiers","web":null,"uri":"https://data.datatourisme.fr/23/67d5ec50-8617-35f3-b758-27ad9c849c97","dept":"79","reg":"naq"}},{"type":"Feature","geometry":{"type":"Point","coordinates":[-0.34443,46.35175]},"properties":{"nom":"Hôtel Kyriad Niort-La Crèche","sub":"Hotel","cm":"79260#La Crèche","web":"http://www.campanile-niort-est-la-creche.fr/fr/index.aspx<>https://niort-est-la-creche.kyriad.com/fr-fr/","uri":"https://data.datatourisme.fr/23/67ed6afe-12c6-3c7e-99b1-0e49def56c5f","dept":"79","reg":"naq"}},{"type":"Feature","geometry":{"type":"Point","coordinates":[-0.1672,46.7887]},"properties":{"nom":"Hotel-restaurant le Relais du Chapeau Rouge","sub":"HotelRestaurant","cm":"79600#Saint-Loup-Lamairé","web":"https://lerelaisduchapeaurouge.hubside.fr/","uri":"https://data.datatourisme.fr/23/47e1b901-8af4-35cf-aa5f-37ed992468a2","dept":"79","reg":"naq"}},{"type":"Feature","geometry":{"type":"Point","coordinates":[-0.55263,46.29412]},"properties":{"nom":"Au Marais de l'Ouchette","sub":"LodgingBusiness","cm":"79460#Magné","web":null,"uri":"https://data.datatourisme.fr/23/caec3e0f-cdd5-3d17-8bf1-337f88b6579f","dept":"79","reg":"naq"}},{"type":"Feature","geometry":{"type":"Point","coordinates":[-0.50814,46.29149]},"properties":{"nom":"West Appart'Hôtel - meublés de tourisme","sub":"LodgingBusiness","cm":"79000#Bessines","web":"https://poitou-charentes-meuble.for-system.com/f34317_fr-.aspx<>https://www.west-appart-hotel.com/","uri":"https://data.datatourisme.fr/23/dd60f001-603e-3c48-bdd8-8387cba6b3ba","dept":"79","reg":"naq"}},{"type":"Feature","geometry":{"type":"Point","coordinates":[-0.50814,46.29149]},"properties":{"nom":"West Appart'Hôtel - résidence de tourisme","sub":"HolidayResort","cm":"79000#Bessines","web":"https://www.west-appart-hotel.com/#tarifs<>https://www.west-appart-hotel.com/","uri":"https://data.datatourisme.fr/23/4a60d9df-f2d9-3c25-b526-aeee5ab3583c","dept":"79","reg":"naq"}},{"type":"Feature","geometry":{"type":"Point","coordinates":[-0.5074,46.29224]},"properties":{"nom":"SpeedFun Karting","sub":"Rental","cm":"79000#Bessines","web":"https://www.kartingniortais-speedfunkarting.com/","uri":"https://data.datatourisme.fr/23/2d69d466-a546-3203-a14a-cc6783116884","dept":"79","reg":"naq"}},{"type":"Feature","geometry":{"type":"Point","coordinates":[-0.57963,46.3278]},"properties":{"nom":"Les Fuyes (n°6930)","sub":"BedAndBreakfast","cm":"79510#Coulon","web":"http://www.lesfuyes.fr/","uri":"https://data.datatourisme.fr/23/2d3150f2-1a14-3571-9d83-20305ec2c08d","dept":"79","reg":"naq"}},{"type":"Feature","geometry":{"type":"Point","coordinates":[-0.46814,46.31904]},"properties":{"nom":"Le Petit Bois","sub":"LodgingBusiness","cm":"79000#Niort","web":null,"uri":"https://data.datatourisme.fr/23/318a85eb-badb-3b78-a9f7-b46a110c6ca7","dept":"79","reg":"naq"}},{"type":"Feature","geometry":{"type":"Point","coordinates":[-0.30425,46.56977]},"properties":{"nom":"La Berlière - Gîte nature","sub":"LodgingBusiness","cm":"79310#Saint-Pardoux-Soutiers","web":"https://laberliere.wixsite.com/gitepeche<>https://www.gites-de-france-deux-sevres.com/location-vacances-Deux-sevres-Gite-a-Saint-pardoux-soutiers-79G141.html?&insee=79285&nbp_min=2","uri":"https://data.datatourisme.fr/23/44695615-bc03-3a83-a0a8-75214b0d6368","dept":"79","reg":"naq"}},{"type":"Feature","geometry":{"type":"Point","coordinates":[-0.24103,46.58778]},"properties":{"nom":"La Cabane du Vallon d'Éole","sub":"LodgingBusiness","cm":"79420#Beaulieu-sous-Parthenay","web":"http://www.cabane-vallondeole.com/<>https://www.cabane-vallondeole.com/tarifs-cabane-dans-les-arbres-poitou-charentes/","uri":"https://data.datatourisme.fr/23/c9e8203d-7ac1-36c5-8b46-1b13f795a1fe","dept":"79","reg":"naq"}},{"type":"Feature","geometry":{"type":"Point","coordinates":[-0.55568,46.55733]},"properties":{"nom":"Le Cèdre Bleu","sub":"LodgingBusiness","cm":"79130#Beugnon-Thireuil","web":"https://www.gites-de-france-deux-sevres.com/location-vacances-Deux-sevres-Gite-a-Beugnon-thireuil-79G147.html<>https://www.gites-de-france-deux-sevres.com/location-vacances-Deux-sevres-Gite-a-Beugnon-thireuil-79G147.html#reserver","uri":"https://data.datatourisme.fr/23/cfbaf641-c6a3-3683-983f-dbea5a105114","dept":"79","reg":"naq"}},{"type":"Feature","geometry":{"type":"Point","coordinates":[-0.15821,46.7098]},"properties":{"nom":"Le Chêne Vert","sub":"LodgingBusiness","cm":"79200#Gourgé","web":"https://www.gites-de-france-deux-sevres.com/location-vacances-Deux-sevres-Gite-a-Gourge-79G626.html#reserver<>https://www.gites-de-france-deux-sevres.com/location-vacances-Deux-sevres-Gite-a-Gourge-79G626.html","uri":"https://data.datatourisme.fr/23/dbf64411-da24-3c10-af24-3a35b9e7e47f","dept":"79","reg":"naq"}},{"type":"Feature","geometry":{"type":"Point","coordinates":[-0.59873,46.48174]},"properties":{"nom":"Gîte de la Villa André","sub":"LodgingBusiness","cm":"79160#Coulonges-sur-l'Autize","web":"http://www.gite-villa-andre.fr/<>https://www.gite-villa-andre.fr/contact-r%C3%A9servation/","uri":"https://data.datatourisme.fr/23/30cbb010-85fa-3147-b901-ef7bd63b0e5b","dept":"79","reg":"naq"}},{"type":"Feature","geometry":{"type":"Point","coordinates":[-0.45882,46.35739]},"properties":{"nom":"Mazette ! Le Château","sub":"BedAndBreakfast","cm":"79000#Niort","web":"http://www.mazette-lechateau.com/","uri":"https://data.datatourisme.fr/23/4101249c-514f-3547-ae2a-48371a2ed24f","dept":"79","reg":"naq"}},{"type":"Feature","geometry":{"type":"Point","coordinates":[-0.68128,46.20099]},"properties":{"nom":"Au bord du canal","sub":"LodgingBusiness","cm":"79210#Mauzé-sur-le-Mignon","web":null,"uri":"https://data.datatourisme.fr/23/a3d4dcb0-af0d-3609-8f35-3fbd842ed4dd","dept":"79","reg":"naq"}},{"type":"Feature","geometry":{"type":"Point","coordinates":[-0.62465,46.29286]},"properties":{"nom":"L'Evaille","sub":"LodgingBusiness","cm":"79270#Le Vanneau-Irleau","web":null,"uri":"https://data.datatourisme.fr/23/fe6eaa93-7027-3bc2-a313-759d38187668","dept":"79","reg":"naq"}},{"type":"Feature","geometry":{"type":"Point","coordinates":[-0.54136,46.40662]},"properties":{"nom":"\"Comme à la maison\"","sub":"LodgingBusiness","cm":"79160#Villiers-en-Plaine","web":"https://www.airbnb.fr/rooms/48845097?check_in=2025-09-26&check_out=2025-09-28&search_mode=regular_search&adults=1&children=0&infants=0&pets=0&source_impression_id=p3_1751882130_P38fzMy3wCYAnnhs&previo<>https://www.airbnb.fr/rooms/48845097?check_in=2025-09-26&check_out=2025-09-28&search_mode=regular_search&adults=1&children=0&infants=0&pets=0&source_impression_id=p3_1751882130_P38fzMy3wCYAnnhs&previous_page_section_name=1000&federated_search_id=20d53709-f1f1-4d3d-958e-3df11a98c17e","uri":"https://data.datatourisme.fr/23/93dc06cb-b0fc-30e2-a2bd-b7acbb00c154","dept":"79","reg":"naq"}},{"type":"Feature","geometry":{"type":"Point","coordinates":[-0.61497,46.8514]},"properties":{"nom":"Gîte de la Brenelière","sub":"LodgingBusiness","cm":"79140#Cirières","web":"https://www.booking.com/hotel/fr/gite-de-la-breneliere.fr.html?aid=318615;label=New_French_FR_FR_21427174465-Pk3jEylX2FWP%2An3y4lDZiQS217246741662%3Apl%3Ata%3Ap1%3Ap2%3Aac%3Aap%3Aneg%3Afi%3Atidsa-162435868585%3Alp9056301%3Ali%3Adec%3Adm;sid=df039059842445017448d72d009d3e08;dest_id=-1420451;dest_type","uri":"https://data.datatourisme.fr/23/e7685260-af2a-36fd-94d3-8a48fa417a9f","dept":"79","reg":"naq"}},{"type":"Feature","geometry":{"type":"Point","coordinates":[-0.1883,46.77073]},"properties":{"nom":"Aire naturelle de camping du Cébron","sub":"Camping","cm":"79600#Saint-Loup-Lamairé","web":"http://www.lacducebron.fr/","uri":"https://data.datatourisme.fr/23/52590165-0c6f-3016-a03a-7a8b2109b20d","dept":"79","reg":"naq"}},{"type":"Feature","geometry":{"type":"Point","coordinates":[-0.15909,46.23489]},"properties":{"nom":"La Négrerie","sub":"LodgingBusiness","cm":"79500#Melle","web":"http://gitedelanegrerie.business.site/","uri":"https://data.datatourisme.fr/23/04878c04-1db9-3646-a9bf-1b8b461556a9","dept":"79","reg":"naq"}},{"type":"Feature","geometry":{"type":"Point","coordinates":[-0.14517,46.2263]},"properties":{"nom":"Gîte Saint-Pierre","sub":"LodgingBusiness","cm":"79500#Melle","web":null,"uri":"https://data.datatourisme.fr/23/64421e7e-949f-3a57-a3bb-4464d9d6412f","dept":"79","reg":"naq"}},{"type":"Feature","geometry":{"type":"Point","coordinates":[-0.59386,46.30471]},"properties":{"nom":"Gîte \"Le Chantilly\" (G 224)","sub":"LodgingBusiness","cm":"79270#Sansais","web":null,"uri":"https://data.datatourisme.fr/23/208af744-5463-3c95-aada-2f7f4f9a171b","dept":"79","reg":"naq"}},{"type":"Feature","geometry":{"type":"Point","coordinates":[-0.59386,46.3047]},"properties":{"nom":"Venise Verte Evasion - location de vélo","sub":"Rental","cm":"79270#Sansais","web":"http://www.veniseverte.com/<>https://www.veniseverte.com/nos-tarifs.html","uri":"https://data.datatourisme.fr/23/4acaa60f-6760-3de0-834b-370d581060f8","dept":"79","reg":"naq"}},{"type":"Feature","geometry":{"type":"Point","coordinates":[-0.58499,46.44597]},"properties":{"nom":"Gite de la Roche","sub":"LodgingBusiness","cm":"79160#Saint-Pompain","web":"https://www.gitedelaroche.fr/","uri":"https://data.datatourisme.fr/23/02cd4d75-1411-3fe9-8749-980529827619","dept":"79","reg":"naq"}},{"type":"Feature","geometry":{"type":"Point","coordinates":[-0.65122,46.80619]},"properties":{"nom":"Gîte Au Fil d'Etangs","sub":"LodgingBusiness","cm":"79380#La Forêt-sur-Sèvre","web":null,"uri":"https://data.datatourisme.fr/23/cf072092-b971-350c-a020-72e4bba7118a","dept":"79","reg":"naq"}},{"type":"Feature","geometry":{"type":"Point","coordinates":[-0.6565,46.81777]},"properties":{"nom":"Gîte \"Ô Rêve d'Ana\"","sub":"LodgingBusiness","cm":"79140#Cerizay","web":"https://www.airbnb.fr/rooms/50017490?adults=1&translate_ugc=false&federated_search_id=7c82564e-971b-440d-ad50-e4aa447c9c49&source_impression_id=p3_1633529611_6Ztu1xak9w0AVgOG&guests=1","uri":"https://data.datatourisme.fr/23/049497ec-2495-32ca-b405-236402630848","dept":"79","reg":"naq"}},{"type":"Feature","geometry":{"type":"Point","coordinates":[-0.65646,46.81771]},"properties":{"nom":"Ô Rêve d'Ana - Gîte \"Mirage\"","sub":"LodgingBusiness","cm":"79140#Cerizay","web":"https://www.airbnb.fr/rooms/51319787?adults=1&children=0&infants=0&pets=0&check_in=2022-11-21&check_out=2022-11-27&source_impression_id=p3_1668681212_Qr7mlqkM%2Fatwhp2r","uri":"https://data.datatourisme.fr/23/80b349d1-aa02-36b0-9082-8a41c79cb58c","dept":"79","reg":"naq"}},{"type":"Feature","geometry":{"type":"Point","coordinates":[-0.65646,46.81771]},"properties":{"nom":"Ô Rêve d'Ana - Gîte \"Rêves Bleus\"","sub":"LodgingBusiness","cm":"79140#Cerizay","web":"https://www.airbnb.fr/rooms/51319787?adults=1&translate_ugc=false&federated_search_id=c3155b91-8a37-4bab-9bd5-e8e6df94056a&source_impression_id=p3_1633532989_lWOQxR3asyfZHich&guests=1","uri":"https://data.datatourisme.fr/23/f891790a-17e7-3602-9ae9-3a66e5e0c554","dept":"79","reg":"naq"}},{"type":"Feature","geometry":{"type":"Point","coordinates":[-0.40645,46.14701]},"properties":{"nom":"Le Prioulet","sub":"CollectiveAccommodation","cm":"79360#Villiers-en-Bois","web":"https://leprioulet.com/","uri":"https://data.datatourisme.fr/23/30b24bfd-d2e8-3c35-8771-7948c72091a2","dept":"79","reg":"naq"}},{"type":"Feature","geometry":{"type":"Point","coordinates":[-0.39729,46.3397]},"properties":{"nom":"Hôtel Solana","sub":"Hotel","cm":"79180#Chauray","web":"https://reservations.theoriginalshotels.com/105939?&languageid=3#/guestsandrooms<>http://www.hotel-solana.com/","uri":"https://data.datatourisme.fr/23/dc970ece-ae5b-3075-b5ce-22157da884ba","dept":"79","reg":"naq"}},{"type":"Feature","geometry":{"type":"Point","coordinates":[-0.69361,46.29786]},"properties":{"nom":"Gîte \"Chez Dames Grenouilles\" - Domaine de Flore","sub":"LodgingBusiness","cm":"79210#Arçais","web":"https://www.maison-domainedeflore.com/<>https://poitou-charentes-mb-prestataire.for-system.com/f125757_fr-.aspx","uri":"https://data.datatourisme.fr/23/e51fc836-2f4b-3e12-86c0-009ad72106ba","dept":"79","reg":"naq"}},{"type":"Feature","geometry":{"type":"Point","coordinates":[-0.73225,46.31226]},"properties":{"nom":"Domaine de Flore - Hebergement de groupes","sub":"CollectiveAccommodation","cm":"79210#Arçais","web":"https://www.maison-domainedeflore.com/<>https://poitou-charentes-mb-prestataire.for-system.com/f125757_fr-.aspx","uri":"https://data.datatourisme.fr/23/2611f796-56e7-38e0-aeac-6c40cf0a2c26","dept":"79","reg":"naq"}},{"type":"Feature","geometry":{"type":"Point","coordinates":[-0.43917,46.96132]},"properties":{"nom":"Glamping la Petite Ferme d'Alpagas Sanzay","sub":"BedAndBreakfast","cm":"79150#Argentonnay","web":"https://www.airbnb.fr/rooms/51398003?adults=1&translate_ugc=false&federated_search_id=ea167868-a235-4d3f-bf9c-9090f3938c51&source_impression_id=p3_1635000942_VrtaBHvK2D1XR9aZ&guests=1<>https://www.lapetitefermedalpagas.com/","uri":"https://data.datatourisme.fr/23/4c00f2dd-bac0-3f07-9d2e-369015876f85","dept":"79","reg":"naq"}},{"type":"Feature","geometry":{"type":"Point","coordinates":[-0.43917,46.96132]},"properties":{"nom":"Gîte Vue du Château - la Petite Ferme d'Alpagas Sanzay","sub":"LodgingBusiness","cm":"79150#Argentonnay","web":"https://www.lapetitefermedalpagas.com/<>https://www.airbnb.fr/rooms/48264389?adults=1&children=0&infants=0&pets=0&check_in=2023-03-18&check_out=2023-03-23&federated_search_id=b0a9de8f-fddf-4444-9547-54220e5c0142&source_impression_id=p3_1679068144_mNKP%2FhyvBXwKOGxG","uri":"https://data.datatourisme.fr/23/752b17a9-4d78-3ccd-b0fa-027bcba8fa09","dept":"79","reg":"naq"}},{"type":"Feature","geometry":{"type":"Point","coordinates":[-0.51663,46.94587]},"properties":{"nom":"Gîte La Cour aux Tilleuls","sub":"LodgingBusiness","cm":"79150#Voulmentin","web":"https://www.tourisme-bocage.com/sejourner/hebergements/hebergements-accueil-velo/gites-accueil-velo/gite-la-cour-aux-tilleuls-3038054","uri":"https://data.datatourisme.fr/23/eab3e310-2865-30c4-9b20-c0c233bd50f8","dept":"79","reg":"naq"}},{"type":"Feature","geometry":{"type":"Point","coordinates":[-0.57812,46.63243]},"properties":{"nom":"Hôtel-restaurant \"Du Coq à l'Âne\"","sub":"Hotel","cm":"79240#L'Absie","web":"https://hotelducoqalane.fr/","uri":"https://data.datatourisme.fr/23/1ec04258-20f3-32a6-b72d-58a000af9894","dept":"79","reg":"naq"}},{"type":"Feature","geometry":{"type":"Point","coordinates":[-0.29666,46.55988]},"properties":{"nom":"Studio le petit paradis","sub":"LodgingBusiness","cm":"79310#Mazières-en-Gâtine","web":"https://www.naturegatine.fr/","uri":"https://data.datatourisme.fr/23/188afc2f-836b-334e-98dc-31bf1704302e","dept":"79","reg":"naq"}},{"type":"Feature","geometry":{"type":"Point","coordinates":[-0.58334,46.32293]},"properties":{"nom":"Gîte de la Coulonnerie","sub":"LodgingBusiness","cm":"79510#Coulon","web":"https://gitedelacoulonnerie.com/","uri":"https://data.datatourisme.fr/23/25706dc6-02cc-31b3-8b3c-e23bb9c7545a","dept":"79","reg":"naq"}},{"type":"Feature","geometry":{"type":"Point","coordinates":[-0.69182,46.29723]},"properties":{"nom":"Le Cul de Chouette - Gite & Vélos","sub":"LodgingBusiness","cm":"79210#Arçais","web":"https://gite-chouette.fr/<>http://poitou-charentes-mb-prestataire.for-system.com/f119220_fr-.aspx","uri":"https://data.datatourisme.fr/23/2df73c15-64b1-3f28-a556-1d711e0a726e","dept":"79","reg":"naq"}},{"type":"Feature","geometry":{"type":"Point","coordinates":[-0.59282,46.71501]},"properties":{"nom":"Hôtel-restaurant Le Saint Pierre","sub":"Hotel","cm":"79320#Moncoutant-sur-Sèvre","web":"https://lesaintpierre79.fr/<>https://secure.reservit.com/fo/booking/2/3293/dates?specialMode=default&langcode=FR&__utmz=128918670.1620391015.1.1.utmcsr%3D(direct)%7Cutmccn%3D(direct)%7Cutmcmd%3D(none)&custid=2&_ga=GA1.3.1642105815.1620390863&__utmb=1.2.10.1623355559&hotelid=3293&__utmc=128918670&m=booking&__utma=128918670.16421","uri":"https://data.datatourisme.fr/23/bdc51f45-64da-3d18-8206-c7c14062bc28","dept":"79","reg":"naq"}},{"type":"Feature","geometry":{"type":"Point","coordinates":[-0.69306,46.94436]},"properties":{"nom":"Gîte Maison La Roulière","sub":"LodgingBusiness","cm":"79700#Mauléon","web":"https://www.airbnb.fr/rooms/49554627?_set_bev_on_new_domain=1549027857_XsNDKm%2BC2HEr7ZOG&source_impression_id=p3_1623764186_4nU6mvUjtfSTxMDh&guests=1&adults=1","uri":"https://data.datatourisme.fr/23/57918602-080f-3902-b956-53a2297341db","dept":"79","reg":"naq"}},{"type":"Feature","geometry":{"type":"Point","coordinates":[-0.46577,46.37213]},"properties":{"nom":"Domaine du Château des Loups - La Maison des Mariés","sub":"LodgingBusiness","cm":"79000#Sciecq","web":"http://www.chateaudesloups.com/<>https://www.chateaudesloups.com/reservation","uri":"https://data.datatourisme.fr/23/d14026d4-4429-35d4-ac74-0d1e6409102e","dept":"79","reg":"naq"}},{"type":"Feature","geometry":{"type":"Point","coordinates":[-0.24938,46.6525]},"properties":{"nom":"Le Gîte de la Tour","sub":"LodgingBusiness","cm":"79200#Parthenay","web":"https://www.abritel.fr/location-vacances/p1890522?uni_id=2066208<>https://airbnb.com/h/logisdelatour-79200parthenay","uri":"https://data.datatourisme.fr/23/632a5bad-c65a-3c3e-94f9-bc0f4aad029f","dept":"79","reg":"naq"}},{"type":"Feature","geometry":{"type":"Point","coordinates":[-0.49742,46.83728]},"properties":{"nom":"Wagons-lits Bressuire","sub":"CollectiveAccommodation","cm":"79300#Bressuire","web":null,"uri":"https://data.datatourisme.fr/23/3cc914b3-3e47-3851-93f9-5dabffe762ba","dept":"79","reg":"naq"}},{"type":"Feature","geometry":{"type":"Point","coordinates":[-0.46704,46.681]},"properties":{"nom":"Gîte La Bonninière-Lavande","sub":"LodgingBusiness","cm":"79130#Neuvy-Bouin","web":"https://www.gites-de-france-deux-sevres.com/location-vacances-Deux-sevres-Gite-a-Bressuire-79G35.html<>https://www.gites-de-france-deux-sevres.com/location-vacances-Deux-sevres-Gite-a-Neuvy-bouin-79G70.html#reserver","uri":"https://data.datatourisme.fr/23/18b516ec-f920-39b0-b49f-5387e399dcde","dept":"79","reg":"naq"}},{"type":"Feature","geometry":{"type":"Point","coordinates":[-0.46704,46.681]},"properties":{"nom":"Gîte La Bonninière Rose","sub":"LodgingBusiness","cm":"79130#Neuvy-Bouin","web":null,"uri":"https://data.datatourisme.fr/23/08e3d8e4-06cb-3e74-953b-e667d42ae2e7","dept":"79","reg":"naq"}},{"type":"Feature","geometry":{"type":"Point","coordinates":[-0.46704,46.681]},"properties":{"nom":"Gîte La Bonninière Glycine","sub":"LodgingBusiness","cm":"79130#Neuvy-Bouin","web":"https://www.gites-de-france-deux-sevres.com/location-vacances-Deux-sevres-Gite-a-Neuvy-bouin-79G68.html<>https://www.gites-de-france-deux-sevres.com/location-vacances-Deux-sevres-Gite-a-Neuvy-bouin-79G68.html#reserver","uri":"https://data.datatourisme.fr/23/7ff5eddf-5986-3e61-a6ed-71e1c5bf3ba8","dept":"79","reg":"naq"}},{"type":"Feature","geometry":{"type":"Point","coordinates":[-0.37991,46.722]},"properties":{"nom":"Gîte du Moulin - Les Freaux","sub":"LodgingBusiness","cm":"79350#Clessé","web":"https://domainedesfreaux.com/","uri":"https://data.datatourisme.fr/23/68f67523-afef-3d43-b27b-303f2dbc4707","dept":"79","reg":"naq"}},{"type":"Feature","geometry":{"type":"Point","coordinates":[-0.38058,46.72221]},"properties":{"nom":"La Maison du Pêcheur - Les Freaux","sub":"LodgingBusiness","cm":"79350#Clessé","web":"https://domainedesfreaux.com/","uri":"https://data.datatourisme.fr/23/2b2befdf-b219-3772-b9ef-1a7c00dfc768","dept":"79","reg":"naq"}},{"type":"Feature","geometry":{"type":"Point","coordinates":[-0.37996,46.72199]},"properties":{"nom":"Gîte de l'Etang - Les Freaux","sub":"LodgingBusiness","cm":"79350#Clessé","web":"https://domainedesfreaux.com/","uri":"https://data.datatourisme.fr/23/9795249b-2eac-3be5-97aa-ef702b635da7","dept":"79","reg":"naq"}},{"type":"Feature","geometry":{"type":"Point","coordinates":[-0.77301,46.84915]},"properties":{"nom":"Chambres d'hôtes Le Petit Puy Loup","sub":"BedAndBreakfast","cm":"79700#Saint-Amand-sur-Sèvre","web":"http://www.lepuyloup.com/","uri":"https://data.datatourisme.fr/23/baa16f7f-148f-31c8-90b2-858ccd8ca5e9","dept":"79","reg":"naq"}},{"type":"Feature","geometry":{"type":"Point","coordinates":[-0.57859,46.72705]},"properties":{"nom":"Gîte \"L'Orangerie\"","sub":"LodgingBusiness","cm":"79320#Moncoutant-sur-Sèvre","web":"http://www.giteorangerie.fr/","uri":"https://data.datatourisme.fr/23/c1993c6b-92a9-3464-989e-533c6a543d65","dept":"79","reg":"naq"}},{"type":"Feature","geometry":{"type":"Point","coordinates":[-0.55141,46.32229]},"properties":{"nom":"Ma petite maison au bord de l'eau","sub":"LodgingBusiness","cm":"79460#Magné","web":"https://www.mapetitemaison.fr/","uri":"https://data.datatourisme.fr/23/f8a6c9a8-f5e1-3091-81fc-b78852b637ab","dept":"79","reg":"naq"}},{"type":"Feature","geometry":{"type":"Point","coordinates":[-0.2194,46.32193]},"properties":{"nom":"Domaine du Lambon - Olydéa","sub":"Camping","cm":"79370#Prailles-La Couarde","web":"https://www.olydea.com/<>https://olydealelambon.thais-hotel.com/direct-booking/calendar?lang=fr&banner=1&start_at=2023-03-05","uri":"https://data.datatourisme.fr/23/ba397437-d081-364e-acb2-cb4b2ea550a8","dept":"79","reg":"naq"}},{"type":"Feature","geometry":{"type":"Point","coordinates":[-0.74328,46.28383]},"properties":{"nom":"Camping \"Le Lidon\"","sub":"Camping","cm":"79210#Saint-Hilaire-la-Palud","web":"http://www.camping-le-lidon.com/<>https://www.camping-le-lidon.com/","uri":"https://data.datatourisme.fr/23/178edda0-9ef0-38f7-b497-2aaffaa33fb2","dept":"79","reg":"naq"}},{"type":"Feature","geometry":{"type":"Point","coordinates":[-0.74328,46.28383]},"properties":{"nom":"La Roulotte - Camping \"Le Lidon\"","sub":"LodgingBusiness","cm":"79210#Saint-Hilaire-la-Palud","web":"http://www.camping-le-lidon.com/<>https://www.camping-le-lidon.com/location-mobil-home-marais-poitevin/location-insolite-roulotte-vendee/","uri":"https://data.datatourisme.fr/23/9535cfdd-1325-39b4-a6bb-25745197ff92","dept":"79","reg":"naq"}},{"type":"Feature","geometry":{"type":"Point","coordinates":[-0.21916,46.64731]},"properties":{"nom":"Au Relais des Lilas","sub":"Hotel","cm":"79200#Parthenay","web":"https://www.aurelaisdeslilas.com/","uri":"https://data.datatourisme.fr/23/b7f729f8-60c3-345e-955a-64afbc1fb505","dept":"79","reg":"naq"}},{"type":"Feature","geometry":{"type":"Point","coordinates":[-0.35341,46.94833]},"properties":{"nom":"Aire naturelle La Ferme des Enfants","sub":"Camping","cm":"79150#Argentonnay","web":"http://lafermedesenfants.com/","uri":"https://data.datatourisme.fr/23/83b7c28f-d996-3e4b-8c62-b205fe2fd7b1","dept":"79","reg":"naq"}},{"type":"Feature","geometry":{"type":"Point","coordinates":[-0.29462,46.41301]},"properties":{"nom":"Hôtel \"Les Demeures de Valette\"","sub":"Hotel","cm":"79400#Azay-le-Brûlé","web":"https://www.lesdemeuresdevalette.fr/<>http://www.lesdemeuresdevalette.fr/","uri":"https://data.datatourisme.fr/23/2131df97-7fd3-3bb2-aa59-dce381393bf2","dept":"79","reg":"naq"}},{"type":"Feature","geometry":{"type":"Point","coordinates":[-0.29462,46.41301]},"properties":{"nom":"Les Demeures de Valette - Gîte du Potager","sub":"CollectiveAccommodation","cm":"79400#Azay-le-Brûlé","web":"https://www.lesdemeuresdevalette.fr/","uri":"https://data.datatourisme.fr/23/ce80814b-caf6-3f5e-9501-92bda4a8e954","dept":"79","reg":"naq"}},{"type":"Feature","geometry":{"type":"Point","coordinates":[-0.29462,46.41301]},"properties":{"nom":"Les Demeures de Valette - Gîte de l'Etang","sub":"LodgingBusiness","cm":"79400#Azay-le-Brûlé","web":"http://www.lesdemeuresdevalette.fr/<>https://www.lesdemeuresdevalette.fr/gites/<>http://poitou-charentes-territoire.for-system.com/z5967e2_deuxsevres_a_fr-gite-metulia.aspx?Param/CodeOs=OSMB-92441","uri":"https://data.datatourisme.fr/23/7a557973-470e-3e9a-b401-a36cd41ab55f","dept":"79","reg":"naq"}},{"type":"Feature","geometry":{"type":"Point","coordinates":[-0.58812,46.32101]},"properties":{"nom":"Gîte du Port aux Moules","sub":"LodgingBusiness","cm":"79510#Coulon","web":null,"uri":"https://data.datatourisme.fr/23/0793c470-998d-3c06-858f-ec9523e36bc0","dept":"79","reg":"naq"}},{"type":"Feature","geometry":{"type":"Point","coordinates":[-0.56647,46.28694]},"properties":{"nom":"Gîte à Frontenay Rohan Rohan (G 743)","sub":"LodgingBusiness","cm":"79270#Frontenay-Rohan-Rohan","web":"https://www.gites-de-france-deux-sevres.com/location-vacances-Deux-sevres-Gite-a-Frontenay-rohan-rohan-79G743.html<>https://www.gites-de-france-deux-sevres.com/location-vacances-Deux-sevres-Gite-a-Frontenay-rohan-rohan-79G743.html#reserver","uri":"https://data.datatourisme.fr/23/0acc2b58-acf7-3219-a192-7bb4cb2f82c6","dept":"79","reg":"naq"}},{"type":"Feature","geometry":{"type":"Point","coordinates":[-0.56686,46.28714]},"properties":{"nom":"Gîte à Frontenay Rohan Rohan (G 782)","sub":"LodgingBusiness","cm":"79270#Frontenay-Rohan-Rohan","web":"https://www.gites-de-france-deux-sevres.com/location-vacances-Deux-sevres-Gite-a-Frontenay-rohan-rohan-79G782.html<>https://www.gites-de-france-deux-sevres.com/location-vacances-Deux-sevres-Gite-a-Frontenay-rohan-rohan-79G782.html#reserver","uri":"https://data.datatourisme.fr/23/bb3ca88f-987f-3ce7-8301-f657f9864c90","dept":"79","reg":"naq"}},{"type":"Feature","geometry":{"type":"Point","coordinates":[-0.48304,46.39885]},"properties":{"nom":"Maison Lucas (n° 6270)","sub":"BedAndBreakfast","cm":"79410#Saint-Maxire","web":null,"uri":"https://data.datatourisme.fr/23/0c183fb1-c2a4-32c6-bae8-dc81f1648d3a","dept":"79","reg":"naq"}},{"type":"Feature","geometry":{"type":"Point","coordinates":[-0.6289,46.4292]},"properties":{"nom":"Meublé 14 personnes à Saint -Pompain","sub":"LodgingBusiness","cm":"79160#Saint-Pompain","web":null,"uri":"https://data.datatourisme.fr/23/06b78a5e-3aee-3214-88ba-f01d7a3af784","dept":"79","reg":"naq"}},{"type":"Feature","geometry":{"type":"Point","coordinates":[-0.37951,46.52034]},"properties":{"nom":"Gîte \"L'épicerie de Madeleine\"","sub":"LodgingBusiness","cm":"79310#Saint-Marc-la-Lande","web":"https://www.gite-epiceriemadeleine.fr/","uri":"https://data.datatourisme.fr/23/06bebbb5-21b7-321e-b9f0-878d32017eec","dept":"79","reg":"naq"}},{"type":"Feature","geometry":{"type":"Point","coordinates":[-0.31254,46.53207]},"properties":{"nom":"La Berlicaudeau","sub":"LodgingBusiness","cm":"79310#Mazières-en-Gâtine","web":"https://www.gites-de-france-deux-sevres.com/location-vacances-Deux-sevres-Gite-a-Mazieres-en-gatine-79G644.html?&nbp_min=10<>https://www.gites-de-france-deux-sevres.com/location-vacances-Deux-sevres-Gite-a-Mazieres-en-gatine-79G644.html?&nbp_min=10#reserver","uri":"https://data.datatourisme.fr/23/0765cddb-0f2b-3a69-8160-5153a8b3a713","dept":"79","reg":"naq"}},{"type":"Feature","geometry":{"type":"Point","coordinates":[-0.36287,46.49447]},"properties":{"nom":"Gite 643 Champdeniers","sub":"LodgingBusiness","cm":"79220#Champdeniers","web":"https://www.gites-de-france-deux-sevres.com/location-vacances-Deux-sevres-Gite-a-Champdeniers-79G643.html<>https://www.gites-de-france-deux-sevres.com/location-vacances-Deux-sevres-Gite-a-Champdeniers-79G643.html#reserver","uri":"https://data.datatourisme.fr/23/07876e2c-ceac-36c2-8b91-ea49d74a9327","dept":"79","reg":"naq"}},{"type":"Feature","geometry":{"type":"Point","coordinates":[-0.15694,46.31842]},"properties":{"nom":"La Maison Peleboise","sub":"CollectiveAccommodation","cm":"79800#Prailles-La Couarde","web":"http://www.maisonpeleboise-lacouarde79.fr/","uri":"https://data.datatourisme.fr/23/31996479-6286-3ca9-ad53-0c14ce3c5a2a","dept":"79","reg":"naq"}},{"type":"Feature","geometry":{"type":"Point","coordinates":[-0.47987,46.32772]},"properties":{"nom":"Tiny House \"Au Fil de l'Eau\"","sub":"LodgingBusiness","cm":"79000#Niort","web":"https://fr.airbnb.ch/rooms/636755291603526518?source_impression_id=p3_1671881133_1KHKVoaThXUZOXJ9","uri":"https://data.datatourisme.fr/23/adcb43cc-22d7-3b22-ae91-dc23753c0d13","dept":"79","reg":"naq"}},{"type":"Feature","geometry":{"type":"Point","coordinates":[-0.4614,46.24102]},"properties":{"nom":"Domaine du Griffier","sub":"Hotel","cm":"79360#Granzay-Gript","web":"http://www.chateau-griffier.com/","uri":"https://data.datatourisme.fr/23/cdc22299-c057-302f-912d-cf347b10a482","dept":"79","reg":"naq"}},{"type":"Feature","geometry":{"type":"Point","coordinates":[-0.54919,46.31263]},"properties":{"nom":"Le Jardin du Clouzis (G 732)","sub":"LodgingBusiness","cm":"79460#Magné","web":"https://www.gites-de-france-deux-sevres.com/location-vacances-Deux-sevres-Gite-a-Magne-79G732.html<>https://www.gites-de-france-deux-sevres.com/location-vacances-Deux-sevres-Gite-a-Magne-79G732.html#reserver","uri":"https://data.datatourisme.fr/23/3adf51f2-34dc-3131-9857-a323c2dcff13","dept":"79","reg":"naq"}},{"type":"Feature","geometry":{"type":"Point","coordinates":[-0.64113,46.30759]},"properties":{"nom":"Gîte de la Ruelle","sub":"LodgingBusiness","cm":"79270#Le Vanneau-Irleau","web":null,"uri":"https://data.datatourisme.fr/23/3e66fa76-1054-3841-aa8d-3833ebe06faf","dept":"79","reg":"naq"}},{"type":"Feature","geometry":{"type":"Point","coordinates":[-0.61965,46.31034]},"properties":{"nom":"Gîte de la Sotterie (G 765)","sub":"LodgingBusiness","cm":"79510#Coulon","web":null,"uri":"https://data.datatourisme.fr/23/3fa9cb5b-ff45-3958-a7a5-822972cae440","dept":"79","reg":"naq"}},{"type":"Feature","geometry":{"type":"Point","coordinates":[-0.50451,46.2789]},"properties":{"nom":"Aux Portes du Marais (n° 5140)","sub":"BedAndBreakfast","cm":"79000#Bessines","web":null,"uri":"https://data.datatourisme.fr/23/e29136de-f0e9-366a-93e2-3dacfd8dc317","dept":"79","reg":"naq"}},{"type":"Feature","geometry":{"type":"Point","coordinates":[-0.50485,46.27859]},"properties":{"nom":"Meublé à Bessines","sub":"LodgingBusiness","cm":"79000#Bessines","web":"http://www.gites-de-france-deux-sevres.com/<>http://www.aux-portes-du-marais-poitevin.com/","uri":"https://data.datatourisme.fr/23/acbcaa93-359a-3ea1-938a-e691c505fc78","dept":"79","reg":"naq"}},{"type":"Feature","geometry":{"type":"Point","coordinates":[-0.46842,46.80651]},"properties":{"nom":"Aire Naturelle de Camping de Pont Chouette","sub":"Camping","cm":"79300#Bressuire","web":"https://www.pontchouettevillage.fr/","uri":"https://data.datatourisme.fr/23/f06186d7-bcaf-3db8-98ef-136ad7ac989d","dept":"79","reg":"naq"}},{"type":"Feature","geometry":{"type":"Point","coordinates":[-0.79546,46.95504]},"properties":{"nom":"Gîtes de la Chauvelière logement 4","sub":"LodgingBusiness","cm":"79700#Mauléon","web":null,"uri":"https://data.datatourisme.fr/23/29a91d73-aa2e-323c-aaed-e7502549f000","dept":"79","reg":"naq"}},{"type":"Feature","geometry":{"type":"Point","coordinates":[-0.79551,46.95505]},"properties":{"nom":"Gîtes de la Chauvelière logement 3 - La Verrière","sub":"LodgingBusiness","cm":"79700#Mauléon","web":null,"uri":"https://data.datatourisme.fr/23/b0cc8497-9ccf-3201-b7c4-8b36e3c41cfe","dept":"79","reg":"naq"}},{"type":"Feature","geometry":{"type":"Point","coordinates":[-0.7957,46.95526]},"properties":{"nom":"Gîtes de la Chauvelière logement 2","sub":"LodgingBusiness","cm":"79700#Mauléon","web":null,"uri":"https://data.datatourisme.fr/23/8b752a46-a36f-3021-b9fb-40021da7bede","dept":"79","reg":"naq"}},{"type":"Feature","geometry":{"type":"Point","coordinates":[-0.36766,46.78715]},"properties":{"nom":"Gîte de la Pomerie","sub":"LodgingBusiness","cm":"79350#Chiché","web":"https://www.airbnb.fr/rooms/50595016?adults=5&check_in=2021-11-22&check_out=2021-11-27&translate_ugc=false&federated_search_id=9e3c032a-5b5b-4608-8958-9fc8cb89221a&source_impression_id=p3_1634579533_G0Psoub2e8XoeP9z","uri":"https://data.datatourisme.fr/23/40017296-ea64-33d2-90a2-3f9222627042","dept":"79","reg":"naq"}},{"type":"Feature","geometry":{"type":"Point","coordinates":[-0.55492,46.95684]},"properties":{"nom":"Gîte La Véralière","sub":"LodgingBusiness","cm":"79250#Nueil-les-Aubiers","web":"http://www.laveraliere.fr/<>https://www.laveraliere.fr/le-g%C3%AEte/r%C3%A9servations/","uri":"https://data.datatourisme.fr/23/40a37a57-0757-384e-afa7-583c4c7ab0d8","dept":"79","reg":"naq"}},{"type":"Feature","geometry":{"type":"Point","coordinates":[-0.80016,46.87258]},"properties":{"nom":"Les Fourboutières - Gîte Kamock","sub":"LodgingBusiness","cm":"79700#Saint-Amand-sur-Sèvre","web":null,"uri":"https://data.datatourisme.fr/23/639f1b57-c299-3190-85ed-2278ee514833","dept":"79","reg":"naq"}},{"type":"Feature","geometry":{"type":"Point","coordinates":[-0.22667,46.35726]},"properties":{"nom":"Gîte de la Bergerie","sub":"LodgingBusiness","cm":"79260#Romans","web":"http://www.legitedelabergerie.fr/<>https://legitedelabergerie.fr/acces-et-contact/","uri":"https://data.datatourisme.fr/23/b0e894ad-8949-3516-94dc-bd90cbbd5839","dept":"79","reg":"naq"}},{"type":"Feature","geometry":{"type":"Point","coordinates":[-0.19437,46.46021]},"properties":{"nom":"Domaine de la Fortranche","sub":"LodgingBusiness","cm":"79400#Exireuil","web":"http://www.vacances-en-campagne.com/<>https://www.clevacances.com/fr/locationvacances/poitoucharentes/deuxsevres/exireuil-32559/domaine_de_la_fortranche/23623<>https://www.facebook.com/michelricochon79/","uri":"https://data.datatourisme.fr/23/bc94036c-997a-3cbc-8138-df594522968f","dept":"79","reg":"naq"}},{"type":"Feature","geometry":{"type":"Point","coordinates":[-0.37131,46.09129]},"properties":{"nom":"Gîte chez Octavie","sub":"LodgingBusiness","cm":"79170#Chizé","web":"https://www.gites-de-france-deux-sevres.com/location-vacances-Deux-sevres-Gite-a-Chize-79G837.html#reserver<>https://lesgitesdelafontaine.fr/","uri":"https://data.datatourisme.fr/23/5bba8be6-836d-3f75-a0b9-d503a5aa28e1","dept":"79","reg":"naq"}},{"type":"Feature","geometry":{"type":"Point","coordinates":[-0.46988,46.31831]},"properties":{"nom":"Maison en Ville","sub":"LodgingBusiness","cm":"79000#Niort","web":null,"uri":"https://data.datatourisme.fr/23/e908a2a1-a3b4-395d-bd64-0a940bdaf592","dept":"79","reg":"naq"}},{"type":"Feature","geometry":{"type":"Point","coordinates":[-0.63748,46.29622]},"properties":{"nom":"La Demeure du Marais - meublé de tourisme","sub":"LodgingBusiness","cm":"79270#Le Vanneau-Irleau","web":null,"uri":"https://data.datatourisme.fr/23/f1674e2d-878d-3d9d-91cd-029d0d58d04f","dept":"79","reg":"naq"}},{"type":"Feature","geometry":{"type":"Point","coordinates":[-0.63748,46.29622]},"properties":{"nom":"La Demeure du Marais - chambre d'hôtes","sub":"BedAndBreakfast","cm":"79270#Le Vanneau-Irleau","web":null,"uri":"https://data.datatourisme.fr/23/df4f0fa9-04ef-339e-915f-9d41017fb06c","dept":"79","reg":"naq"}},{"type":"Feature","geometry":{"type":"Point","coordinates":[-0.61209,46.31511]},"properties":{"nom":"La Rigole","sub":"BedAndBreakfast","cm":"79510#Coulon","web":null,"uri":"https://data.datatourisme.fr/23/f2f81e1f-275f-3c4b-9e73-77d605e42050","dept":"79","reg":"naq"}},{"type":"Feature","geometry":{"type":"Point","coordinates":[-0.4619,46.32165]},"properties":{"nom":"L'Angélique","sub":"LodgingBusiness","cm":"79000#Niort","web":null,"uri":"https://data.datatourisme.fr/23/f37f3fc5-f37c-3473-b4d7-a43e9a55bada","dept":"79","reg":"naq"}},{"type":"Feature","geometry":{"type":"Point","coordinates":[-0.65263,46.27675]},"properties":{"nom":"Gîte à Saint-Georges-de-Rex (G 763)","sub":"LodgingBusiness","cm":"79210#Saint-Georges-de-Rex","web":"https://www.gites-de-france-deux-sevres.com/location-vacances-Deux-sevres-Gite-a-Saint-georges-de-rex-79G763.html#reserver<>https://www.gites-de-france.com/fr/nouvelle-aquitaine/deux-sevres/763-79g763","uri":"https://data.datatourisme.fr/23/f38dc474-e359-3c53-8f98-bcb4d1a3eaae","dept":"79","reg":"naq"}},{"type":"Feature","geometry":{"type":"Point","coordinates":[-0.55107,46.21832]},"properties":{"nom":"Le Logis de Vallans - chambres d'hôtes (n° 2901)","sub":"BedAndBreakfast","cm":"79270#Vallans","web":"https://www.lelogisdevallans.com/","uri":"https://data.datatourisme.fr/23/f77feb57-c8e7-3944-a01a-66ca990ac9ff","dept":"79","reg":"naq"}},{"type":"Feature","geometry":{"type":"Point","coordinates":[-0.55107,46.21832]},"properties":{"nom":"Gîte du Four à Pain (G 229)","sub":"LodgingBusiness","cm":"79270#Vallans","web":"https://www.gites-de-france.com/fr/nouvelle-aquitaine/deux-sevres/gite-du-four-pain-79g229","uri":"https://data.datatourisme.fr/23/c479de6a-004b-35e4-b1c1-3a4f90ee32c4","dept":"79","reg":"naq"}},{"type":"Feature","geometry":{"type":"Point","coordinates":[-0.55107,46.21832]},"properties":{"nom":"Gîte Mélusine","sub":"LodgingBusiness","cm":"79270#Vallans","web":null,"uri":"https://data.datatourisme.fr/23/f1e2498c-e288-3ed2-bf29-1f9b18ba2437","dept":"79","reg":"naq"}},{"type":"Feature","geometry":{"type":"Point","coordinates":[-0.23256,46.59659]},"properties":{"nom":"Gîte \"La Cabrette\"","sub":"LodgingBusiness","cm":"79200#Pompaire","web":"http://www.ungiteaupre.com/<>https://bernierel.cc-parthenay-gatine.fr/index.php?id=la-cabrette","uri":"https://data.datatourisme.fr/23/e7670a59-1489-3e20-a136-a8a434bbef66","dept":"79","reg":"naq"}},{"type":"Feature","geometry":{"type":"Point","coordinates":[-0.23245,46.59656]},"properties":{"nom":"Gîte \"La Gâtinelle\"","sub":"LodgingBusiness","cm":"79200#Pompaire","web":"http://www.ungiteaupre.com/<>https://bernierel.cc-parthenay-gatine.fr/index.php?id=la-gatinelle","uri":"https://data.datatourisme.fr/23/ffc7283c-00b9-3e57-87e2-3c0d587ecd7f","dept":"79","reg":"naq"}},{"type":"Feature","geometry":{"type":"Point","coordinates":[-0.23194,46.59678]},"properties":{"nom":"Camping à la ferme \"un gite au pré\"","sub":"Camping","cm":"79200#Pompaire","web":"https://bernierel.cc-parthenay-gatine.fr/","uri":"https://data.datatourisme.fr/23/921b9117-1ae3-3053-a4d6-dfbc590448e7","dept":"79","reg":"naq"}},{"type":"Feature","geometry":{"type":"Point","coordinates":[-0.44269,46.48772]},"properties":{"nom":"Le Logis de la Gerbaudrie","sub":"LodgingBusiness","cm":"79220#Cours","web":"https://www.gites-de-france-deux-sevres.com/location-vacances-Deux-sevres-Gite-a-Cours-79G116.html#reserver","uri":"https://data.datatourisme.fr/23/f6e517b9-7ac8-3421-831d-7841af67b790","dept":"79","reg":"naq"}},{"type":"Feature","geometry":{"type":"Point","coordinates":[-0.24179,46.64522]},"properties":{"nom":"Alysa","sub":"Hotel","cm":"79200#Parthenay","web":"http://www.hotel-restaurant-alysa.fr/<>http://www.hotel-restaurant-alysa.fr/?fbclid=IwAR18SuUqfeFbas2fFnGbdiF9JMZFjUiq_IsX-r5Keerrr65E6ojczlqFAao","uri":"https://data.datatourisme.fr/23/8d21a75f-72db-38d1-8b22-8d9326a98a04","dept":"79","reg":"naq"}},{"type":"Feature","geometry":{"type":"Point","coordinates":[-0.24179,46.64521]},"properties":{"nom":"Alysa","sub":"HotelRestaurant","cm":"79200#Parthenay","web":"http://www.hotel-restaurant-alysa.fr/","uri":"https://data.datatourisme.fr/23/495fde58-a1f0-3da5-bfb2-fc5db8701d2b","dept":"79","reg":"naq"}},{"type":"Feature","geometry":{"type":"Point","coordinates":[-0.34567,46.35136]},"properties":{"nom":"Ibis Budget Niort-Est - La Crèche","sub":"Hotel","cm":"79260#La Crèche","web":"http://www.ibis.com/<>https://www.accorhotels.com/fr/hotel-7255-ibis-budget-niort-est-la-creche/index.shtml#origin=accorhotels","uri":"https://data.datatourisme.fr/23/acdda438-559a-3188-8dd3-3a096d79f441","dept":"79","reg":"naq"}},{"type":"Feature","geometry":{"type":"Point","coordinates":[-0.29666,46.55988]},"properties":{"nom":"La Draunière","sub":"LodgingBusiness","cm":"79310#Mazières-en-Gâtine","web":"https://www.naturegatine.fr/","uri":"https://data.datatourisme.fr/23/1d9661c4-820a-3c08-96a6-aa98929ec8aa","dept":"79","reg":"naq"}},{"type":"Feature","geometry":{"type":"Point","coordinates":[-0.62251,46.67211]},"properties":{"nom":"Domaine de Chantemerle","sub":"Hotel","cm":"79320#Moncoutant-sur-Sèvre","web":"http://www.hotel-chantemerle.com/reservation-en-ligne.html<>http://www.hotel-chantemerle.com/","uri":"https://data.datatourisme.fr/23/a5701894-7d3e-373a-97a6-3337b8e17443","dept":"79","reg":"naq"}},{"type":"Feature","geometry":{"type":"Point","coordinates":[-0.47856,46.89894]},"properties":{"nom":"La Grange de Vauviault","sub":"LodgingBusiness","cm":"79300#Bressuire","web":null,"uri":"https://data.datatourisme.fr/23/47e5cbd0-367a-35cb-b970-119dbea1751d","dept":"79","reg":"naq"}},{"type":"Feature","geometry":{"type":"Point","coordinates":[-0.61068,46.70446]},"properties":{"nom":"Gîte \"La Rambaudière 1 - Les Tournesols\"","sub":"LodgingBusiness","cm":"79320#Moncoutant-sur-Sèvre","web":"http://vacancesrambaudiere.jimdo.com/","uri":"https://data.datatourisme.fr/23/822c58c6-ec5e-396e-ae00-fbc3696a8063","dept":"79","reg":"naq"}},{"type":"Feature","geometry":{"type":"Point","coordinates":[-0.71284,46.89946]},"properties":{"nom":"Gîte \"La Charmille\"","sub":"LodgingBusiness","cm":"79700#Mauléon","web":null,"uri":"https://data.datatourisme.fr/23/c8779813-418d-3e38-9681-41b426ed739f","dept":"79","reg":"naq"}},{"type":"Feature","geometry":{"type":"Point","coordinates":[-0.71277,46.89986]},"properties":{"nom":"La Boulaie","sub":"LodgingBusiness","cm":"79700#Mauléon","web":null,"uri":"https://data.datatourisme.fr/23/eab256ea-b79f-3b3d-b78a-95017d9fe290","dept":"79","reg":"naq"}},{"type":"Feature","geometry":{"type":"Point","coordinates":[-0.40197,46.82534]},"properties":{"nom":"La Maison Neuve","sub":"LodgingBusiness","cm":"79300#Bressuire","web":null,"uri":"https://data.datatourisme.fr/23/05a98344-2ae3-34a3-af53-52bb1b8c3f3d","dept":"79","reg":"naq"}},{"type":"Feature","geometry":{"type":"Point","coordinates":[-0.47696,46.92314]},"properties":{"nom":"Gîte \"Chemin de Villeneuve\"","sub":"LodgingBusiness","cm":"79300#Saint-Aubin-du-Plain","web":null,"uri":"https://data.datatourisme.fr/23/dbdd872c-6a78-3bae-9523-390ab4518fa0","dept":"79","reg":"naq"}},{"type":"Feature","geometry":{"type":"Point","coordinates":[-0.18595,46.80231]},"properties":{"nom":"Accueil camping car (hors camping) - EARL Canards gras du Cébron","sub":"CampingAndCaravanning","cm":"79600#Louin","web":null,"uri":"https://data.datatourisme.fr/23/4496e7d9-70a9-3886-b59f-9736e29fea98","dept":"79","reg":"naq"}},{"type":"Feature","geometry":{"type":"Point","coordinates":[-0.40108,46.33936]},"properties":{"nom":"Hôtel Kyriad Niort - Espace Mendès-France","sub":"Hotel","cm":"79000#Niort","web":"https://www.kyriad.com/","uri":"https://data.datatourisme.fr/23/2764280e-d1ff-3216-8007-8c9c0bb639c8","dept":"79","reg":"naq"}},{"type":"Feature","geometry":{"type":"Point","coordinates":[-0.46226,46.32106]},"properties":{"nom":"Le Central Hôtel","sub":"Hotel","cm":"79000#Niort","web":"https://www.centralhotel-niort.com/","uri":"https://data.datatourisme.fr/23/80b19533-0ff6-34a0-8a40-39cb078c7af1","dept":"79","reg":"naq"}},{"type":"Feature","geometry":{"type":"Point","coordinates":[-0.42361,46.33667]},"properties":{"nom":"Hôtel Atoll","sub":"Hotel","cm":"79000#Niort","web":"https://www.atollhotel.com/","uri":"https://data.datatourisme.fr/23/868bcec4-e41f-30c0-9861-87db2d2ee0fd","dept":"79","reg":"naq"}},{"type":"Feature","geometry":{"type":"Point","coordinates":[-0.41598,46.33927]},"properties":{"nom":"B&B Hôtel Niort Marais poitevin EST","sub":"Hotel","cm":"79000#Niort","web":"https://www.hotel-bb.com/fr","uri":"https://data.datatourisme.fr/23/89b7744b-bfc0-3a95-9a58-3a2de505dc4d","dept":"79","reg":"naq"}},{"type":"Feature","geometry":{"type":"Point","coordinates":[-0.38783,46.37834]},"properties":{"nom":"Gîte","sub":"LodgingBusiness","cm":"79410#Saint-Gelais","web":"https://www.gites-de-france-deux-sevres.com/location-vacances-Deux-sevres-Gite-a-Saint-gelais-79G210.html<>https://www.gites-de-france-deux-sevres.com/location-vacances-Deux-sevres-Gite-a-Saint-gelais-79G210.html#reserver","uri":"https://data.datatourisme.fr/23/552fd312-6a34-3e78-8824-50defdc24592","dept":"79","reg":"naq"}},{"type":"Feature","geometry":{"type":"Point","coordinates":[-0.58289,46.17426]},"properties":{"nom":"Gîte Salvia","sub":"LodgingBusiness","cm":"79210#Val-du-Mignon","web":"https://gites-derval.ovh/index.html","uri":"https://data.datatourisme.fr/23/576813e4-0dfb-3292-ae01-764995d13515","dept":"79","reg":"naq"}},{"type":"Feature","geometry":{"type":"Point","coordinates":[-0.33967,46.50838]},"properties":{"nom":"Alexandra Palace - La Maison Younan","sub":"Hotel","cm":"79310#Mazières-en-Gâtine","web":"https://www.secure-hotel-booking.com/smart/Alexandra-Palace/JB5S/fr/<>https://www.hotelalexandrapalace.com/","uri":"https://data.datatourisme.fr/23/1ff3f242-a4c2-30e7-aaa5-65ce68467ca4","dept":"79","reg":"naq"}},{"type":"Feature","geometry":{"type":"Point","coordinates":[-0.23887,46.57341]},"properties":{"nom":"Gites de l'Etang","sub":"LodgingBusiness","cm":"79420#Beaulieu-sous-Parthenay","web":"https://www.gitesdeletang.com/","uri":"https://data.datatourisme.fr/23/0eec8387-d2fa-3c33-8a4d-240b2ec5c0f4","dept":"79","reg":"naq"}},{"type":"Feature","geometry":{"type":"Point","coordinates":[-0.3489,46.4446]},"properties":{"nom":"La Gelousière","sub":"LodgingBusiness","cm":"79220#Saint-Christophe-sur-Roc","web":null,"uri":"https://data.datatourisme.fr/23/0f6f4fce-93e6-35de-9701-61e6ee193885","dept":"79","reg":"naq"}},{"type":"Feature","geometry":{"type":"Point","coordinates":[-0.80016,46.87258]},"properties":{"nom":"Les Fourboutières - Gîte Yole","sub":"LodgingBusiness","cm":"79700#Saint-Amand-sur-Sèvre","web":null,"uri":"https://data.datatourisme.fr/23/4a95fd32-a8cd-3944-9206-74ad872ce875","dept":"79","reg":"naq"}},{"type":"Feature","geometry":{"type":"Point","coordinates":[-0.50071,46.9299]},