{"type":"FeatureCollection","features":[{"type":"Feature","geometry":{"type":"Point","coordinates":[6.7376,43.45604]},"properties":{"nom":"Camping Siblu le Montourey","sub":"Camping","cm":"83600#Fréjus","web":"http://www.siblu.fr/","uri":"https://data.datatourisme.fr/13/3b9125db-7152-3682-8f1e-58a49a57d462","dept":"83","reg":"pac"}},{"type":"Feature","geometry":{"type":"Point","coordinates":[6.00508,43.1406]},"properties":{"nom":"Hôtel Noemys Toulon La Valette","sub":"Hotel","cm":"83160#La Valette-du-Var","web":"https://noemys.fr/hotels/hotel/noemys-toulon-la-valette/","uri":"https://data.datatourisme.fr/13/5e65e18f-640f-3dbe-b30c-567542d4d810","dept":"83","reg":"pac"}},{"type":"Feature","geometry":{"type":"Point","coordinates":[6.13136,43.11315]},"properties":{"nom":"Hôtel Ibis Hyères Centre","sub":"Hotel","cm":"83400#Hyères","web":"http://ibis.accorhotels.com/france/index.fr.shtml","uri":"https://data.datatourisme.fr/13/5fea5442-d151-32fd-8757-99efc4999098","dept":"83","reg":"pac"}},{"type":"Feature","geometry":{"type":"Point","coordinates":[5.78087,43.07977]},"properties":{"nom":"Hôtel Hélios","sub":"Hotel","cm":"83140#Six-Fours-les-Plages","web":"https://www.iledesembiez.com/dormir/hebergements/hotel-helios/","uri":"https://data.datatourisme.fr/13/6cefce8a-e3b8-3b93-a707-4bce3b1712a2","dept":"83","reg":"pac"}},{"type":"Feature","geometry":{"type":"Point","coordinates":[5.79866,43.11762]},"properties":{"nom":"Holidays & Work","sub":"Hotel","cm":"83110#Sanary-sur-Mer","web":"http://www.hotelhw.com/","uri":"https://data.datatourisme.fr/13/4b40a586-10c3-336a-9e15-41f5e28ea7ff","dept":"83","reg":"pac"}},{"type":"Feature","geometry":{"type":"Point","coordinates":[6.74645,43.42564]},"properties":{"nom":"Hôtel Sable & Soleil","sub":"Hotel","cm":"83600#Fréjus","web":"https://www.hotel-sableetsoleil.com/","uri":"https://data.datatourisme.fr/13/1964a68d-f10f-3557-a2f3-466cac0e4218","dept":"83","reg":"pac"}},{"type":"Feature","geometry":{"type":"Point","coordinates":[6.38193,43.14296]},"properties":{"nom":"Hôtel Les Flots Bleus","sub":"HotelRestaurant","cm":"83980#Le Lavandou","web":"https://www.les-flotsbleus.com/","uri":"https://data.datatourisme.fr/13/d2207d64-2abb-37fc-a702-fffd2ae52b46","dept":"83","reg":"pac"}},{"type":"Feature","geometry":{"type":"Point","coordinates":[6.36989,43.13971]},"properties":{"nom":"Hôtel La Petite Bohème","sub":"Hotel","cm":"83980#Le Lavandou","web":"https://www.hotel-la-petite-boheme.fr/","uri":"https://data.datatourisme.fr/13/2496403b-4400-345f-9100-7c436652edfc","dept":"83","reg":"pac"}},{"type":"Feature","geometry":{"type":"Point","coordinates":[6.15383,43.07905]},"properties":{"nom":"Hôtel Le Méditerranée","sub":"Hotel","cm":"83400#Hyères","web":"http://hotelmed.info/","uri":"https://data.datatourisme.fr/13/bbccd5b3-dacf-3faa-8bb1-2e3325269e43","dept":"83","reg":"pac"}},{"type":"Feature","geometry":{"type":"Point","coordinates":[6.13996,43.12026]},"properties":{"nom":"Hôtel Ibis Budget Hyères Centre Ville","sub":"Hotel","cm":"83400#Hyères","web":"https://all.accor.com/<>https://all.accor.com/hotel/2722/index.en.shtml?_ga=2.129465413.835669479.1674043740-2007276249.1663680213","uri":"https://data.datatourisme.fr/13/c794d734-0abe-3adf-8161-6c846414181d","dept":"83","reg":"pac"}},{"type":"Feature","geometry":{"type":"Point","coordinates":[6.16951,43.10072]},"properties":{"nom":"Camping Domaine du Ceinturon 3","sub":"Camping","cm":"83400#Hyères","web":"http://www.ceinturon3.fr/","uri":"https://data.datatourisme.fr/13/c967f517-40aa-374e-afca-1436dd000069","dept":"83","reg":"pac"}},{"type":"Feature","geometry":{"type":"Point","coordinates":[5.89394,43.08152]},"properties":{"nom":"Rives d'Or Hôtel","sub":"Hotel","cm":"83500#La Seyne-sur-Mer","web":"https://www.rivesdorhotel.com/","uri":"https://data.datatourisme.fr/13/c9d7d974-9d79-35a4-b8bf-14a58a7d90fd","dept":"83","reg":"pac"}},{"type":"Feature","geometry":{"type":"Point","coordinates":[6.21718,43.62329]},"properties":{"nom":"Campasun – Camping International Gorges du Verdon","sub":"Camping","cm":"83630#Aups","web":"https://www.campasun.eu/international/le-camping/","uri":"https://data.datatourisme.fr/13/2305a76b-bdb5-3e30-ab3b-220f68f68a8e","dept":"83","reg":"pac"}},{"type":"Feature","geometry":{"type":"Point","coordinates":[6.3273,43.10256]},"properties":{"nom":"Hôtel Les Palmiers","sub":"Hotel","cm":"83230#Bormes-les-Mimosas","web":"http://www.hotellespalmiers.com/","uri":"https://data.datatourisme.fr/13/4a04989d-72ce-3af4-9e9b-118e3a3bcf77","dept":"83","reg":"pac"}},{"type":"Feature","geometry":{"type":"Point","coordinates":[5.80619,43.19611]},"properties":{"nom":"Le Relais de la Calèche","sub":"HotelRestaurant","cm":"83330#Le Beausset","web":"http://hotel-caleche-beausset.fr/","uri":"https://data.datatourisme.fr/13/8dc91235-a585-32e1-a719-cc0c1157bf31","dept":"83","reg":"pac"}},{"type":"Feature","geometry":{"type":"Point","coordinates":[6.65786,43.25431]},"properties":{"nom":"Airelles Saint-Tropez Château de la Messardière","sub":"HotelRestaurant","cm":"83990#Saint-Tropez","web":"https://airelles.com/fr","uri":"https://data.datatourisme.fr/13/2f7ba2fb-e20f-300e-9c27-6adbfaabcba1","dept":"83","reg":"pac"}},{"type":"Feature","geometry":{"type":"Point","coordinates":[5.79277,43.11687]},"properties":{"nom":"Le Synaya","sub":"Hotel","cm":"83110#Sanary-sur-Mer","web":"http://www.hotelsynaya.com/","uri":"https://data.datatourisme.fr/13/e9f015b2-ced0-398a-a5b6-7c1d5d5b723a","dept":"83","reg":"pac"}},{"type":"Feature","geometry":{"type":"Point","coordinates":[6.62779,43.31201]},"properties":{"nom":"Hôtel Club Le Capet","sub":"Hotel","cm":"83120#Sainte-Maxime","web":"https://univac.net/hotel/sainte-maxime/","uri":"https://data.datatourisme.fr/13/8591ab8b-538d-3cd0-ba87-0630ecdc4767","dept":"83","reg":"pac"}},{"type":"Feature","geometry":{"type":"Point","coordinates":[6.76887,43.42184]},"properties":{"nom":"Le Beau Séjour","sub":"HotelRestaurant","cm":"83700#Saint-Raphaël","web":"http://www.beausejour-hotel.com/","uri":"https://data.datatourisme.fr/13/c8902b9c-3191-3918-8318-7c77b3f3b2ae","dept":"83","reg":"pac"}},{"type":"Feature","geometry":{"type":"Point","coordinates":[5.726,43.158]},"properties":{"nom":"Le Frégate Provence Resort**** Golf & Spa","sub":"HotelRestaurant","cm":"83270#Saint-Cyr-sur-Mer","web":"https://lefregateprovence.com/","uri":"https://data.datatourisme.fr/13/eab58b5e-5943-3998-b631-e6a97a348ed3","dept":"83","reg":"pac"}},{"type":"Feature","geometry":{"type":"Point","coordinates":[6.54212,43.18391]},"properties":{"nom":"Golfe Bleu","sub":"Hotel","cm":"83240#Cavalaire-sur-Mer","web":"https://www.legolfebleu-cavalaire.com/fr","uri":"https://data.datatourisme.fr/13/1884fbce-e3a5-39eb-a86f-fd0af8a643ef","dept":"83","reg":"pac"}},{"type":"Feature","geometry":{"type":"Point","coordinates":[6.64089,43.2143]},"properties":{"nom":"Camping  La Croix du Sud","sub":"Camping","cm":"83350#Ramatuelle","web":"http://www.campingramatuelle.com/","uri":"https://data.datatourisme.fr/13/00dd2381-863c-3b3e-b86b-e656e522020f","dept":"83","reg":"pac"}},{"type":"Feature","geometry":{"type":"Point","coordinates":[6.05828,43.41122]},"properties":{"nom":"Originals City Hotel - La Belle Etape","sub":"HotelRestaurant","cm":"83170#Brignoles","web":"https://www.theoriginalshotels.com/","uri":"https://data.datatourisme.fr/13/102f3bf1-4d17-39a3-911f-2fac208d0356","dept":"83","reg":"pac"}},{"type":"Feature","geometry":{"type":"Point","coordinates":[6.43447,43.15186]},"properties":{"nom":"Cap Nègre Hôtel","sub":"Hotel","cm":"83980#Le Lavandou","web":"https://www.hotel-le-cap-negre.fr/","uri":"https://data.datatourisme.fr/13/122d77bf-8614-39cb-af5c-80a1976ef034","dept":"83","reg":"pac"}},{"type":"Feature","geometry":{"type":"Point","coordinates":[6.4774,43.15664]},"properties":{"nom":"Le Bailli de Suffren","sub":"HotelRestaurant","cm":"83820#Rayol-Canadel-sur-Mer","web":"https://www.lebaillidesuffren.com/","uri":"https://data.datatourisme.fr/13/5507e5f7-2e3d-3d69-bf15-4f2c222246ab","dept":"83","reg":"pac"}},{"type":"Feature","geometry":{"type":"Point","coordinates":[6.38308,43.14372]},"properties":{"nom":"Hôtel Méditerranée","sub":"HotelRestaurant","cm":"83980#Le Lavandou","web":"https://www.hotel-med.fr/","uri":"https://data.datatourisme.fr/13/26dcc4e0-5630-352c-95f2-f0c9c315cccd","dept":"83","reg":"pac"}},{"type":"Feature","geometry":{"type":"Point","coordinates":[6.12576,43.03945]},"properties":{"nom":"Camping Clair de Lune","sub":"Camping","cm":"83400#Hyères","web":"http://www.campingclairdelune.fr/","uri":"https://data.datatourisme.fr/13/cb905f6a-4f61-37ae-a95d-6db920bb8bcb","dept":"83","reg":"pac"}},{"type":"Feature","geometry":{"type":"Point","coordinates":[6.63862,43.24587]},"properties":{"nom":"Villa Marie","sub":"HotelRestaurant","cm":"83350#Ramatuelle","web":"http://www.villamarie.fr/","uri":"https://data.datatourisme.fr/13/04d18b5e-b727-374a-a6dc-a2b75fbcb956","dept":"83","reg":"pac"}},{"type":"Feature","geometry":{"type":"Point","coordinates":[6.60888,43.29158]},"properties":{"nom":"Hôtel Villa Les Rosiers","sub":"HotelRestaurant","cm":"83120#Sainte-Maxime","web":"https://www.villalesrosiers.fr/","uri":"https://data.datatourisme.fr/13/e6564a73-dcd7-37a1-9b2b-833a5e69e865","dept":"83","reg":"pac"}},{"type":"Feature","geometry":{"type":"Point","coordinates":[6.66568,43.24553]},"properties":{"nom":"Saint André","sub":"Hotel","cm":"83350#Ramatuelle","web":"http://www.hotel-st-andre.com/","uri":"https://data.datatourisme.fr/13/ceebf109-6c30-3df7-bfbe-b82c7fdbf611","dept":"83","reg":"pac"}},{"type":"Feature","geometry":{"type":"Point","coordinates":[6.61702,43.26335]},"properties":{"nom":"Hôtel Le Brin d'Azur","sub":"Hotel","cm":"83580#Gassin","web":"http://www.hotelbrindazur.com/","uri":"https://data.datatourisme.fr/13/cf86dac0-ba6d-368d-98f1-04d0f3a9081e","dept":"83","reg":"pac"}},{"type":"Feature","geometry":{"type":"Point","coordinates":[5.89143,43.07885]},"properties":{"nom":"Grand Hôtel des Sablettes-Plage","sub":"Hotel","cm":"83500#La Seyne-sur-Mer","web":"http://ghsplage.fr/","uri":"https://data.datatourisme.fr/13/435b4784-40e3-3ec2-87ff-b195387c2645","dept":"83","reg":"pac"}},{"type":"Feature","geometry":{"type":"Point","coordinates":[5.83706,43.08266]},"properties":{"nom":"Camping Village Mer et Montagne","sub":"Camping","cm":"83140#Six-Fours-les-Plages","web":"http://campingmeretmontagne.fr/","uri":"https://data.datatourisme.fr/13/d04eda01-1302-3140-a0f4-f8eec0d82b54","dept":"83","reg":"pac"}},{"type":"Feature","geometry":{"type":"Point","coordinates":[6.12482,43.1092]},"properties":{"nom":"Hôtel Ibis Styles Hyères Rooftop et spa","sub":"Hotel","cm":"83400#Hyères","web":"http://www.ibis.com/fr/hotel-A0A9-ibis-styles-hyeres-centre-gare/index.shtml","uri":"https://data.datatourisme.fr/13/d3773b73-6110-316d-aa79-ac1eee0cbf9d","dept":"83","reg":"pac"}},{"type":"Feature","geometry":{"type":"Point","coordinates":[6.22128,43.76338]},"properties":{"nom":"Chanteraine","sub":"Camping","cm":"83630#Aiguines","web":"https://www.camping-chanteraine.com/","uri":"https://data.datatourisme.fr/13/d1c71507-bc7c-3550-ba8b-4a061d0a664d","dept":"83","reg":"pac"}},{"type":"Feature","geometry":{"type":"Point","coordinates":[6.22347,43.62773]},"properties":{"nom":"Le Grand Hôtel","sub":"HotelRestaurant","cm":"83630#Aups","web":"http://www.grand-hotel-aups.com/","uri":"https://data.datatourisme.fr/13/4a231545-0618-34cc-986e-f1ec9c0dfe1b","dept":"83","reg":"pac"}},{"type":"Feature","geometry":{"type":"Point","coordinates":[6.20879,43.77422]},"properties":{"nom":"Hôtel Le Verdon (anciennement Sainte Anne)","sub":"Hotel","cm":"83630#Les Salles-sur-Verdon","web":"http://www.hotel-verdon.fr/","uri":"https://data.datatourisme.fr/13/517caaa6-1c2f-3a82-9560-b67a1e9acf78","dept":"83","reg":"pac"}},{"type":"Feature","geometry":{"type":"Point","coordinates":[6.20836,43.77233]},"properties":{"nom":"Auberge des Salles","sub":"HotelRestaurant","cm":"83630#Les Salles-sur-Verdon","web":"https://aubergedessalles.com/index.php","uri":"https://data.datatourisme.fr/13/566682a6-6fd9-3d25-99a8-3c672bf4fc9e","dept":"83","reg":"pac"}},{"type":"Feature","geometry":{"type":"Point","coordinates":[6.30794,43.58636]},"properties":{"nom":"La Bastide de Tourtour","sub":"HotelRestaurant","cm":"83690#Tourtour","web":"http://www.bastidedetourtour.com/","uri":"https://data.datatourisme.fr/13/6f6f63ca-acee-3e03-bb6c-8df435c9cb54","dept":"83","reg":"pac"}},{"type":"Feature","geometry":{"type":"Point","coordinates":[6.18261,43.72407]},"properties":{"nom":"Ranch de la Blâche","sub":"Camping","cm":"83630#Bauduen","web":null,"uri":"https://data.datatourisme.fr/13/7b4bf45e-1241-3814-9612-5c25ed626157","dept":"83","reg":"pac"}},{"type":"Feature","geometry":{"type":"Point","coordinates":[6.3456,43.7372]},"properties":{"nom":"Le Grand Canyon du Verdon","sub":"HotelRestaurant","cm":"83630#Aiguines","web":"http://www.hotel-canyon-verdon.com/","uri":"https://data.datatourisme.fr/13/88b5c69e-f05f-3f99-b5a3-84bd74534790","dept":"83","reg":"pac"}},{"type":"Feature","geometry":{"type":"Point","coordinates":[6.15116,43.6608]},"properties":{"nom":"Marvilla Parks Les Lacs du Verdon","sub":"Camping","cm":"83630#Régusse","web":"http://www.homair.com/camping/les-lacs-du-verdon<>https://www.camping-lacs-du-verdon.com/?utm_source=google&utm_medium=organic&utm_campaign=gmb_search","uri":"https://data.datatourisme.fr/13/9e7ca7bf-f9a4-36fd-9957-797967dfe518","dept":"83","reg":"pac"}},{"type":"Feature","geometry":{"type":"Point","coordinates":[6.16806,43.65427]},"properties":{"nom":"La Bastide du Calalou","sub":"HotelRestaurant","cm":"83630#Moissac-Bellevue","web":null,"uri":"https://data.datatourisme.fr/13/ba9f8666-4ddb-326b-8411-b99bacf44cde","dept":"83","reg":"pac"}},{"type":"Feature","geometry":{"type":"Point","coordinates":[6.2171,43.77413]},"properties":{"nom":"Hôtel - Spa - Restaurant L'Ermitage","sub":"HotelRestaurant","cm":"83630#Les Salles-sur-Verdon","web":"https://www.hotel-ermitage.com/","uri":"https://data.datatourisme.fr/13/d36b3852-662a-3cb6-8963-8c7a4f9fe89c","dept":"83","reg":"pac"}},{"type":"Feature","geometry":{"type":"Point","coordinates":[6.18493,43.12045]},"properties":{"nom":"Camping Port Pothuau","sub":"Camping","cm":"83400#Hyères","web":"https://www.campingportpothuau.com/<>https://campingportpothuau.premium.secureholiday.net/fr/4090/?_ga=2.68299473.1787449713.1602747893-148318851.1602747893","uri":"https://data.datatourisme.fr/13/eb3a71b4-4b02-347b-b088-e1566d0cd566","dept":"83","reg":"pac"}},{"type":"Feature","geometry":{"type":"Point","coordinates":[6.65919,43.23855]},"properties":{"nom":"Toison d'Or à Ramatuelle","sub":"Camping","cm":"83350#Ramatuelle","web":"https://www.riviera-villages.com/toison-d-or","uri":"https://data.datatourisme.fr/13/dca85b8f-c19e-3cf5-86d6-0023df1aad69","dept":"83","reg":"pac"}},{"type":"Feature","geometry":{"type":"Point","coordinates":[6.47773,43.15779]},"properties":{"nom":"Les Terrasses du Bailli","sub":"Hotel","cm":"83820#Rayol-Canadel-sur-Mer","web":"https://www.hotel-terrasses-dubailli.com/<>https://www.instagram.com/lesterrassesdubailli/","uri":"https://data.datatourisme.fr/13/2ebb9cd8-3667-32ca-8e48-8e4b6d4eaa40","dept":"83","reg":"pac"}},{"type":"Feature","geometry":{"type":"Point","coordinates":[6.72049,43.60977]},"properties":{"nom":"SAS Camping Le Grillon","sub":"Camping","cm":"83440#Tourrettes","web":null,"uri":"https://data.datatourisme.fr/13/6f986f0c-e876-35f0-b2d5-177e2a92b095","dept":"83","reg":"pac"}},{"type":"Feature","geometry":{"type":"Point","coordinates":[6.37944,43.14349]},"properties":{"nom":"Hôtel l'Orangeraie","sub":"Hotel","cm":"83980#Le Lavandou","web":"https://www.hotelorangeraie.com/","uri":"https://data.datatourisme.fr/13/1629bcf8-cbdd-36fc-a66c-5b05980192f5","dept":"83","reg":"pac"}},{"type":"Feature","geometry":{"type":"Point","coordinates":[6.22924,43.62376]},"properties":{"nom":"L'Oasis du Verdon","sub":"Camping","cm":"83630#Aups","web":"https://www.oasis-verdon.com/","uri":"https://data.datatourisme.fr/13/73f08cd8-729c-3840-a52e-23643c72ce13","dept":"83","reg":"pac"}},{"type":"Feature","geometry":{"type":"Point","coordinates":[6.63889,43.27142]},"properties":{"nom":"Le Sube","sub":"Hotel","cm":"83990#Saint-Tropez","web":"http://www.hotelsubesainttropez.com/","uri":"https://data.datatourisme.fr/13/83e13a4e-c5ac-3862-a857-e5d2cc25b2e0","dept":"83","reg":"pac"}},{"type":"Feature","geometry":{"type":"Point","coordinates":[6.57366,43.20364]},"properties":{"nom":"L'Orangeraie","sub":"Hotel","cm":"83420#La Croix-Valmer","web":"http://www.hotel-lorangeraie.com/","uri":"https://data.datatourisme.fr/13/a2ef2a6c-f4ad-3f59-b2fb-914634efb6bc","dept":"83","reg":"pac"}},{"type":"Feature","geometry":{"type":"Point","coordinates":[6.76794,43.42377]},"properties":{"nom":"Hôtel le 21","sub":"Hotel","cm":"83700#Saint-Raphaël","web":"http://www.hotels-st-raphael.com/<>http://www.le21-hotel.com/","uri":"https://data.datatourisme.fr/13/2de26a31-baa4-3270-b8d5-6231e2c5ce18","dept":"83","reg":"pac"}},{"type":"Feature","geometry":{"type":"Point","coordinates":[6.79039,43.45646]},"properties":{"nom":"Najeti Golf Hôtel de Valescure","sub":"HotelRestaurant","cm":"83700#Saint-Raphaël","web":"http://www.valescure.najeti.fr/","uri":"https://data.datatourisme.fr/13/7dac181a-932f-39aa-977e-d9feb62c9d1b","dept":"83","reg":"pac"}},{"type":"Feature","geometry":{"type":"Point","coordinates":[6.47897,43.51759]},"properties":{"nom":"Camping de la Foux","sub":"Camping","cm":"83300#Draguignan","web":"http://www.camping-lafoux.com/","uri":"https://data.datatourisme.fr/13/80236c99-4d1c-3443-8d53-eccbc16a6c51","dept":"83","reg":"pac"}},{"type":"Feature","geometry":{"type":"Point","coordinates":[5.8061,43.11766]},"properties":{"nom":"Au Bon abri","sub":"HotelRestaurant","cm":"83110#Sanary-sur-Mer","web":"https://hotel-bonabri-sanary.com/","uri":"https://data.datatourisme.fr/13/3123e5a9-fdbe-3983-a470-35d8343a5bae","dept":"83","reg":"pac"}},{"type":"Feature","geometry":{"type":"Point","coordinates":[6.67491,43.39887]},"properties":{"nom":"Domaine de la Bergerie","sub":"Camping","cm":"83520#Roquebrune-sur-Argens","web":"https://www.instagram.com/domainedelabergerie/<>https://www.domainelabergerie.com/","uri":"https://data.datatourisme.fr/13/3fc7cf34-0d4b-31f0-97e3-773c51e77228","dept":"83","reg":"pac"}},{"type":"Feature","geometry":{"type":"Point","coordinates":[6.43861,43.52894]},"properties":{"nom":"Hôtel Le Col de l'Ange","sub":"HotelRestaurant","cm":"83300#Draguignan","web":"http://www.hotelcoldelange.fr/","uri":"https://data.datatourisme.fr/13/6f7e2c4f-f0fe-320b-a4ca-bf680b3b3031","dept":"83","reg":"pac"}},{"type":"Feature","geometry":{"type":"Point","coordinates":[6.64151,43.3073]},"properties":{"nom":"Hôtel Royal Bon Repos","sub":"Hotel","cm":"83120#Sainte-Maxime","web":"http://www.hotelroyalbonrepos.fr/","uri":"https://data.datatourisme.fr/13/1d294602-b5d9-30de-a21a-86c26fa1e8f3","dept":"83","reg":"pac"}},{"type":"Feature","geometry":{"type":"Point","coordinates":[6.6657,43.3176]},"properties":{"nom":"Hôtel La Plage","sub":"Hotel","cm":"83120#Sainte-Maxime","web":"http://www.hotel-plage-ste-maxime.com/","uri":"https://data.datatourisme.fr/13/20f47df8-6b5d-30d4-9a19-2310aeda9db0","dept":"83","reg":"pac"}},{"type":"Feature","geometry":{"type":"Point","coordinates":[6.64095,43.30717]},"properties":{"nom":"Hôtel Les Palmiers","sub":"HotelRestaurant","cm":"83120#Sainte-Maxime","web":"http://www.hotelespalmiers.com/","uri":"https://data.datatourisme.fr/13/2dd09401-2fe8-348a-b202-3a17aff78d81","dept":"83","reg":"pac"}},{"type":"Feature","geometry":{"type":"Point","coordinates":[6.64277,43.30882]},"properties":{"nom":"Hôtel Les Tourelles","sub":"HotelRestaurant","cm":"83120#Sainte-Maxime","web":"https://www.lestourelles.fr/","uri":"https://data.datatourisme.fr/13/397f4cd7-8163-3fdc-8b0f-4b0e99a8fc8a","dept":"83","reg":"pac"}},{"type":"Feature","geometry":{"type":"Point","coordinates":[6.64277,43.30882]},"properties":{"nom":"Résidence Les Tourelles","sub":"HolidayResort","cm":"83120#Sainte-Maxime","web":"http://www.lestourelles.fr/","uri":"https://data.datatourisme.fr/13/57c1b6c9-07c0-33d2-bdc1-18818714bb76","dept":"83","reg":"pac"}},{"type":"Feature","geometry":{"type":"Point","coordinates":[6.63363,43.30875]},"properties":{"nom":"Hôtel Le Petit Prince","sub":"Hotel","cm":"83120#Sainte-Maxime","web":"http://www.hotellepetitprince.com/","uri":"https://data.datatourisme.fr/13/3b07eb9b-aacb-39ad-bdce-8778c2ea440b","dept":"83","reg":"pac"}},{"type":"Feature","geometry":{"type":"Point","coordinates":[6.64701,43.30819]},"properties":{"nom":"Best Western Premier Hôtel Montfleuri","sub":"HotelRestaurant","cm":"83120#Sainte-Maxime","web":"http://www.montfleuri.com/","uri":"https://data.datatourisme.fr/13/4b8d7941-8799-3a31-91ed-4c3306402ce9","dept":"83","reg":"pac"}},{"type":"Feature","geometry":{"type":"Point","coordinates":[6.66432,43.31935]},"properties":{"nom":"Hôtel La Nartelle","sub":"Hotel","cm":"83120#Sainte-Maxime","web":"https://www.hotel-la-nartelle.com/","uri":"https://data.datatourisme.fr/13/4f8e21ec-0ec9-33bb-b1a8-530b3da1349d","dept":"83","reg":"pac"}},{"type":"Feature","geometry":{"type":"Point","coordinates":[6.63542,43.30878]},"properties":{"nom":"Hôtel Le Préconil","sub":"Hotel","cm":"83120#Sainte-Maxime","web":"http://www.hotellepreconil.com/","uri":"https://data.datatourisme.fr/13/55cb4fcd-5089-366e-bc60-ab516c90ab06","dept":"83","reg":"pac"}},{"type":"Feature","geometry":{"type":"Point","coordinates":[6.63588,43.30995]},"properties":{"nom":"Brit Hôtel Le Revest","sub":"Hotel","cm":"83120#Sainte-Maxime","web":"http://sainte-maxime-centre.brithotel.fr/","uri":"https://data.datatourisme.fr/13/55cc5bc4-f0e4-3446-adab-2c156d207fc4","dept":"83","reg":"pac"}},{"type":"Feature","geometry":{"type":"Point","coordinates":[6.62162,43.29838]},"properties":{"nom":"Domaine du Calidianus","sub":"Hotel","cm":"83120#Sainte-Maxime","web":"http://www.le-calidianus.com/","uri":"https://data.datatourisme.fr/13/7ebaaf39-b5ac-3cf2-9c1c-cfba3e52446b","dept":"83","reg":"pac"}},{"type":"Feature","geometry":{"type":"Point","coordinates":[6.62235,43.30209]},"properties":{"nom":"Hôtel Les Jardins de Sainte-Maxime","sub":"HotelRestaurant","cm":"83120#Sainte-Maxime","web":"http://www.hotel-lesjardins.fr/","uri":"https://data.datatourisme.fr/13/9a982a68-9c31-3772-b1ec-2afad859c33a","dept":"83","reg":"pac"}},{"type":"Feature","geometry":{"type":"Point","coordinates":[6.62613,43.73804]},"properties":{"nom":"Hôtel Restaurant Le Lachens","sub":"HotelRestaurant","cm":"83840#La Bastide","web":"http://www.hotel-du-lachens.fr/<>https://www.instagram.com/lelachens/","uri":"https://data.datatourisme.fr/13/8e8e9ebf-1159-3796-97de-e7b89e34ae42","dept":"83","reg":"pac"}},{"type":"Feature","geometry":{"type":"Point","coordinates":[6.58626,43.28186]},"properties":{"nom":"Camping de la Plage","sub":"Camping","cm":"83310#Grimaud","web":"http://www.camping-de-la-plage.fr/","uri":"https://data.datatourisme.fr/13/1107cc18-13cc-3a1f-a489-e2aa9deec0ea","dept":"83","reg":"pac"}},{"type":"Feature","geometry":{"type":"Point","coordinates":[6.588,43.19146]},"properties":{"nom":"Château de Valmer","sub":"HotelRestaurant","cm":"83420#La Croix-Valmer","web":"http://www.chateauvalmer.com/","uri":"https://data.datatourisme.fr/13/e624892f-288c-32d4-ac09-1cdd2a560521","dept":"83","reg":"pac"}},{"type":"Feature","geometry":{"type":"Point","coordinates":[6.58396,43.2638]},"properties":{"nom":"Marina Hôtel Club","sub":"HotelRestaurant","cm":"83310#Cogolin","web":"http://www.marinahotelclub.com/","uri":"https://data.datatourisme.fr/13/591925f3-04da-37f7-bdd5-d637195eaaa6","dept":"83","reg":"pac"}},{"type":"Feature","geometry":{"type":"Point","coordinates":[6.68496,43.62213]},"properties":{"nom":"Hôtel Le Moulin de la Camandoule***","sub":"HotelRestaurant","cm":"83440#Fayence","web":"https://www.camandoule.com/","uri":"https://data.datatourisme.fr/13/aaa11484-cd02-3071-8f27-db2d72da34b6","dept":"83","reg":"pac"}},{"type":"Feature","geometry":{"type":"Point","coordinates":[6.40194,43.14993]},"properties":{"nom":"Hôtel Les Alcyons","sub":"HotelRestaurant","cm":"83980#Le Lavandou","web":"https://www.hotellesalcyons.com/","uri":"https://data.datatourisme.fr/13/4ef8ad7e-74bd-3446-95db-36da2dd1b24a","dept":"83","reg":"pac"}},{"type":"Feature","geometry":{"type":"Point","coordinates":[6.38209,43.14357]},"properties":{"nom":"Hôtel Tamaris","sub":"Hotel","cm":"83980#Le Lavandou","web":"https://www.hoteltamaris.fr/","uri":"https://data.datatourisme.fr/13/df4bddfe-aa56-356d-8139-5bea9bb81dfb","dept":"83","reg":"pac"}},{"type":"Feature","geometry":{"type":"Point","coordinates":[6.28832,43.48206]},"properties":{"nom":"Natur'Evasion - Canöe paddle","sub":"Rental","cm":"83510#Saint-Antonin-du-Var","web":"https://naturevasion.com/<>https://naturevasion.com/velo-e-bike/","uri":"https://data.datatourisme.fr/13/a9d045df-d4bc-31f3-9c4c-ff24474d27c4","dept":"83","reg":"pac"}},{"type":"Feature","geometry":{"type":"Point","coordinates":[6.28856,43.48184]},"properties":{"nom":"Natur'Evasion - Cyclisme","sub":"Rental","cm":"83510#Saint-Antonin-du-Var","web":"https://naturevasion.com/<>https://naturevasion.com/velo-e-bike/","uri":"https://data.datatourisme.fr/13/f18067a1-9f75-3e66-8417-fefcc60255a3","dept":"83","reg":"pac"}},{"type":"Feature","geometry":{"type":"Point","coordinates":[6.18742,43.12315]},"properties":{"nom":"Camping Le Capricorne","sub":"Camping","cm":"83400#Hyères","web":"http://www.campingcapricorne.com/","uri":"https://data.datatourisme.fr/13/74b910bc-3f67-35ac-9437-75c6a58b7bcf","dept":"83","reg":"pac"}},{"type":"Feature","geometry":{"type":"Point","coordinates":[6.20371,42.9999]},"properties":{"nom":"Auberge les glycines","sub":"HotelRestaurant","cm":"83400#Hyères","web":"https://www.auberge-glycines.com/","uri":"https://data.datatourisme.fr/13/fc44da3d-2d7f-304c-b14d-5cf6aea7e78d","dept":"83","reg":"pac"}},{"type":"Feature","geometry":{"type":"Point","coordinates":[6.15402,43.07823]},"properties":{"nom":"Hôtel La Potinière les 3 Palmiers","sub":"Hotel","cm":"83400#Hyères","web":"http://www.lapotiniere83.com/","uri":"https://data.datatourisme.fr/13/fde60776-5fe0-353f-99d4-259f821051c8","dept":"83","reg":"pac"}},{"type":"Feature","geometry":{"type":"Point","coordinates":[6.20378,43.00014]},"properties":{"nom":"Villa Sainte Anne","sub":"HotelRestaurant","cm":"83400#Hyères","web":"http://www.sainteanne.com/","uri":"https://data.datatourisme.fr/13/69b432c6-a444-36b6-aae5-a986ee288763","dept":"83","reg":"pac"}},{"type":"Feature","geometry":{"type":"Point","coordinates":[5.80546,43.07502]},"properties":{"nom":"Résidence Les Terrasses des Embiez","sub":"HolidayResort","cm":"83140#Six-Fours-les-Plages","web":"http://www.vacances-lagrange.com/","uri":"https://data.datatourisme.fr/13/c9910c43-8b5e-38d1-9236-18c80bf147e8","dept":"83","reg":"pac"}},{"type":"Feature","geometry":{"type":"Point","coordinates":[6.637,43.25113]},"properties":{"nom":"Muse Hôtel","sub":"Hotel","cm":"83350#Ramatuelle","web":"http://www.muse-hotels.com/","uri":"https://data.datatourisme.fr/13/cb75eddd-7302-327a-bed8-d4cbcb284417","dept":"83","reg":"pac"}},{"type":"Feature","geometry":{"type":"Point","coordinates":[6.50352,43.27269]},"properties":{"nom":"Camping Charlemagne \"Le Pont de Bois\"","sub":"Camping","cm":"83310#Grimaud","web":"https://www.camping-charlemagne.com/fr/","uri":"https://data.datatourisme.fr/13/2ef74607-f981-3e22-a9e7-3ae2b6aae15d","dept":"83","reg":"pac"}},{"type":"Feature","geometry":{"type":"Point","coordinates":[6.73438,43.46934]},"properties":{"nom":"Ibis Budget Fréjus Capitou","sub":"Hotel","cm":"83600#Fréjus","web":"https://all.accor.com/hotel/2550/index.fr.shtml?utm_campaign=seo+maps&utm_medium=seo+maps&utm_source=google+Maps","uri":"https://data.datatourisme.fr/13/f0489e48-4609-3776-85c9-6745d75d9e7b","dept":"83","reg":"pac"}},{"type":"Feature","geometry":{"type":"Point","coordinates":[6.72458,43.46406]},"properties":{"nom":"Camping Cap fun Le Fréjus","sub":"Camping","cm":"83600#Fréjus","web":"https://www.capfun.com/","uri":"https://data.datatourisme.fr/13/d8c13ed2-1086-30b5-9a05-74e16058403f","dept":"83","reg":"pac"}},{"type":"Feature","geometry":{"type":"Point","coordinates":[6.35747,43.12455]},"properties":{"nom":"Hôtel de la Plage - HDLP","sub":"HotelRestaurant","cm":"83230#Bormes-les-Mimosas","web":"http://www.hdlp.fr/","uri":"https://data.datatourisme.fr/13/08cab50c-aa7b-3f90-8c3d-c0ed569b775a","dept":"83","reg":"pac"}},{"type":"Feature","geometry":{"type":"Point","coordinates":[5.85017,43.12113]},"properties":{"nom":"Hôtel Ibis Styles Toulon La Seyne Sur Mer","sub":"Hotel","cm":"83500#La Seyne-sur-Mer","web":"https://all.accor.com/hotel/0443/index.fr.shtml","uri":"https://data.datatourisme.fr/13/98b5f7b8-77b3-3e0f-8372-766e0aec338a","dept":"83","reg":"pac"}},{"type":"Feature","geometry":{"type":"Point","coordinates":[5.92922,43.13868]},"properties":{"nom":"Holiday Inn Express Toulon Est","sub":"Hotel","cm":"83000#Toulon","web":"https://www.ihg.com/holidayinnexpress/hotels/us/en/toulon/tlnsm/hoteldetail","uri":"https://data.datatourisme.fr/13/9a825196-b0b0-3c39-a91d-f7fb9f213d05","dept":"83","reg":"pac"}},{"type":"Feature","geometry":{"type":"Point","coordinates":[6.59188,43.46948]},"properties":{"nom":"Domaine de la Noguière - Parc résidentiel de loisirs","sub":"CampingAndCaravanning","cm":"83490#Le Muy","web":"http://www.rcn.fr/","uri":"https://data.datatourisme.fr/13/8e6e3972-318f-374b-9948-01340248199e","dept":"83","reg":"pac"}},{"type":"Feature","geometry":{"type":"Point","coordinates":[5.78695,43.1247]},"properties":{"nom":"Camping Campasun Parc Mogador","sub":"Camping","cm":"83110#Sanary-sur-Mer","web":"https://www.campasun.eu/parc-mogador/le-camping/","uri":"https://data.datatourisme.fr/13/c98d4024-e8a0-384c-b487-8ac75eddbc01","dept":"83","reg":"pac"}},{"type":"Feature","geometry":{"type":"Point","coordinates":[6.7559,43.43048]},"properties":{"nom":"Ibis Budget Fréjus centre","sub":"Hotel","cm":"83600#Fréjus","web":"https://all.accor.com/hotel/3185/index.fr.shtml?utm_campaign=seo+maps&utm_medium=seo+maps&utm_source=google+Maps","uri":"https://data.datatourisme.fr/13/1f87ffec-4faf-3dc2-a080-070127dee1f7","dept":"83","reg":"pac"}},{"type":"Feature","geometry":{"type":"Point","coordinates":[6.00528,43.55713]},"properties":{"nom":"Logis Hôtel du Pont d'Or","sub":"HotelRestaurant","cm":"83670#Barjols","web":"https://www.hotel-barjols.com/","uri":"https://data.datatourisme.fr/13/2a52ccf3-a03e-3a1f-819c-4ac4690844cb","dept":"83","reg":"pac"}},{"type":"Feature","geometry":{"type":"Point","coordinates":[6.36864,43.13826]},"properties":{"nom":"Hôtel L'Oustaou","sub":"Hotel","cm":"83980#Le Lavandou","web":"https://www.lavandou-hotel-oustaou.com/","uri":"https://data.datatourisme.fr/13/24811737-3aaf-372b-85de-a2b23282774a","dept":"83","reg":"pac"}},{"type":"Feature","geometry":{"type":"Point","coordinates":[6.53634,43.16745]},"properties":{"nom":"Hotel de la Calanque","sub":"HotelRestaurant","cm":"83240#Cavalaire-sur-Mer","web":"http://www.hoteldelacalanque.com/","uri":"https://data.datatourisme.fr/13/f22b90ce-1307-3e2f-b319-848234b27747","dept":"83","reg":"pac"}},{"type":"Feature","geometry":{"type":"Point","coordinates":[5.88301,43.1266]},"properties":{"nom":"Hôtel & spa Parc Azur","sub":"HotelRestaurant","cm":"83190#Ollioules","web":"https://www.hotelparcazur.com/","uri":"https://data.datatourisme.fr/13/f7ed8511-cbd9-3a04-9695-c62937e7b03b","dept":"83","reg":"pac"}},{"type":"Feature","geometry":{"type":"Point","coordinates":[6.18608,43.72137]},"properties":{"nom":"Aux Vallons","sub":"Camping","cm":"83630#Bauduen","web":"https://www.auxvallons.fr/","uri":"https://data.datatourisme.fr/13/9d6544a4-5efe-3566-b747-5950faa0a9d4","dept":"83","reg":"pac"}},{"type":"Feature","geometry":{"type":"Point","coordinates":[6.19274,43.71495]},"properties":{"nom":"Le Clos de Barbey","sub":"Camping","cm":"83630#Bauduen","web":"https://www.closdebarbey.com/","uri":"https://data.datatourisme.fr/13/b30eb778-3693-3c61-8b47-40446ed9123d","dept":"83","reg":"pac"}},{"type":"Feature","geometry":{"type":"Point","coordinates":[6.43235,43.33729]},"properties":{"nom":"Ultimate Provence | Hôtel","sub":"HotelRestaurant","cm":"83680#La Garde-Freinet","web":"http://www.ultimateprovence.com/","uri":"https://data.datatourisme.fr/13/1d7ad23b-30d6-3e13-aada-1d020e9edfca","dept":"83","reg":"pac"}},{"type":"Feature","geometry":{"type":"Point","coordinates":[6.75843,43.42436]},"properties":{"nom":"Hôtel Les Palmiers","sub":"HotelRestaurant","cm":"83600#Fréjus","web":"https://www.palmiers-hotel.com/","uri":"https://data.datatourisme.fr/13/7a1f0c29-9935-3405-8084-2725e7ddec35","dept":"83","reg":"pac"}},{"type":"Feature","geometry":{"type":"Point","coordinates":[6.72933,43.42481]},"properties":{"nom":"Hôtel Ibis Styles Fréjus Port / Saint-Raphaël","sub":"HotelRestaurant","cm":"83600#Fréjus","web":"https://all.accor.com/a/fr.html","uri":"https://data.datatourisme.fr/13/ab234989-1105-3be3-9e74-ff8ee8dc2a0f","dept":"83","reg":"pac"}},{"type":"Feature","geometry":{"type":"Point","coordinates":[5.86264,43.46048]},"properties":{"nom":"Ibis Budget","sub":"Hotel","cm":"83470#Saint-Maximin-la-Sainte-Baume","web":"https://all.accor.com/hotel/7420/index.en.shtml","uri":"https://data.datatourisme.fr/13/728193a4-2b15-3f28-b5e1-0efa6438ae7b","dept":"83","reg":"pac"}},{"type":"Feature","geometry":{"type":"Point","coordinates":[6.77839,43.60714]},"properties":{"nom":"Camping Les Floralies***","sub":"Camping","cm":"83440#Montauroux","web":"https://www.domainedesfloralies.fr/","uri":"https://data.datatourisme.fr/13/f1e23ecd-8ffa-36e5-8bc6-a650b62b0fa1","dept":"83","reg":"pac"}},{"type":"Feature","geometry":{"type":"Point","coordinates":[6.38486,43.14513]},"properties":{"nom":"Hôtel Belle Vue","sub":"Hotel","cm":"83980#Le Lavandou","web":"https://www.bellevue.fr/","uri":"https://data.datatourisme.fr/13/251ef54b-ecf2-305a-bc2a-4bcfeda10b78","dept":"83","reg":"pac"}},{"type":"Feature","geometry":{"type":"Point","coordinates":[6.37051,43.13888]},"properties":{"nom":"Hôtel L'Escapade","sub":"Hotel","cm":"83980#Le Lavandou","web":"https://www.hotellavandou.com/","uri":"https://data.datatourisme.fr/13/f1387f7e-2965-3fe2-93e5-1f51e9086247","dept":"83","reg":"pac"}},{"type":"Feature","geometry":{"type":"Point","coordinates":[6.369,43.13805]},"properties":{"nom":"Hôtel L'Espadon Bleu","sub":"Hotel","cm":"83980#Le Lavandou","web":"https://www.espadonbleu-lavandou.com/","uri":"https://data.datatourisme.fr/13/f4541bc6-9cfe-3a88-8491-e85fdf9c7311","dept":"83","reg":"pac"}},{"type":"Feature","geometry":{"type":"Point","coordinates":[6.53016,43.16978]},"properties":{"nom":"Camping de la Baie","sub":"Camping","cm":"83240#Cavalaire-sur-Mer","web":"https://www.capfun.com/camping-france-provence_alpes_cote_d_azur-baie_de_cavalaire-FR.html","uri":"https://data.datatourisme.fr/13/f2d6cf3d-7420-32ce-aada-d1afda94e759","dept":"83","reg":"pac"}},{"type":"Feature","geometry":{"type":"Point","coordinates":[6.37189,43.13818]},"properties":{"nom":"Hôtel Le Rabelais","sub":"Hotel","cm":"83980#Le Lavandou","web":"https://www.le-rabelais.fr/","uri":"https://data.datatourisme.fr/13/5b104985-2299-37f3-8a49-424593f73195","dept":"83","reg":"pac"}},{"type":"Feature","geometry":{"type":"Point","coordinates":[6.76584,43.42438]},"properties":{"nom":"Hôtel du Vieux Port","sub":"Hotel","cm":"83700#Saint-Raphaël","web":"https://www.hotelvieuxport.com/","uri":"https://data.datatourisme.fr/13/1e1a9741-b89a-30f8-aab7-11f9fe1f0d9d","dept":"83","reg":"pac"}},{"type":"Feature","geometry":{"type":"Point","coordinates":[5.93349,43.12394]},"properties":{"nom":"Grand Hôtel Dauphiné, Boutique Hôtel & Suite","sub":"Hotel","cm":"83000#Toulon","web":"http://www.grandhoteldauphine.com/","uri":"https://data.datatourisme.fr/13/9df12282-941f-3cfe-ae59-aeab870526ef","dept":"83","reg":"pac"}},{"type":"Feature","geometry":{"type":"Point","coordinates":[6.12219,43.11395]},"properties":{"nom":"Hôtel Best Western Plus Hyères Côte d'Azur","sub":"Hotel","cm":"83400#Hyères","web":null,"uri":"https://data.datatourisme.fr/13/a60ba808-a2ed-3f8c-b9cc-792cee1c672f","dept":"83","reg":"pac"}},{"type":"Feature","geometry":{"type":"Point","coordinates":[6.14805,43.0558]},"properties":{"nom":"Camping Eurosurf Vacances André Trigano","sub":"Camping","cm":"83400#Hyères","web":"https://vacances-andretrigano.com/camping/camping-eurosurf","uri":"https://data.datatourisme.fr/13/af159ab2-3791-3f84-a798-2ff384e4a7e3","dept":"83","reg":"pac"}},{"type":"Feature","geometry":{"type":"Point","coordinates":[6.14777,43.05606]},"properties":{"nom":"Salines – Collection Rivages","sub":"Camping","cm":"83400#Hyères","web":"https://www.salines-giens.com/fr","uri":"https://data.datatourisme.fr/13/2576a90b-7a31-3f7a-8eb9-7d0151bab9ce","dept":"83","reg":"pac"}},{"type":"Feature","geometry":{"type":"Point","coordinates":[6.74801,43.4383]},"properties":{"nom":"Hôtel Cyano Fréjus - Saint-Raphaël","sub":"HotelRestaurant","cm":"83600#Fréjus","web":null,"uri":"https://data.datatourisme.fr/13/fa682304-439f-381a-b9ee-a6daca1e8cec","dept":"83","reg":"pac"}},{"type":"Feature","geometry":{"type":"Point","coordinates":[5.78388,43.24934]},"properties":{"nom":"Hôtel & Spa du Castellet","sub":"HotelRestaurant","cm":"83330#Le Castellet","web":"https://www.hotelducastellet.net/fr/","uri":"https://data.datatourisme.fr/13/242ad911-8f95-335e-9c63-559905abd413","dept":"83","reg":"pac"}},{"type":"Feature","geometry":{"type":"Point","coordinates":[5.69582,43.17241]},"properties":{"nom":"Baumelles Loisirs","sub":"Camping","cm":"83270#Saint-Cyr-sur-Mer","web":"http://www.campinglesbaumelles.fr/","uri":"https://data.datatourisme.fr/13/1dbae7d1-9d7c-381a-bd0b-c29b5938eced","dept":"83","reg":"pac"}},{"type":"Feature","geometry":{"type":"Point","coordinates":[6.44804,43.15633]},"properties":{"nom":"Parc Camping de Pramousquier","sub":"Camping","cm":"83980#Le Lavandou","web":"https://www.campingpramousquier.fr/","uri":"https://data.datatourisme.fr/13/440330e6-31b6-3104-86f3-8ecb17197616","dept":"83","reg":"pac"}},{"type":"Feature","geometry":{"type":"Point","coordinates":[6.20901,43.77644]},"properties":{"nom":"Les Pins","sub":"Camping","cm":"83630#Les Salles-sur-Verdon","web":"http://www.campinglespins.com/","uri":"https://data.datatourisme.fr/13/915aa1e5-53b2-3f4d-a0a1-11045746d92a","dept":"83","reg":"pac"}},{"type":"Feature","geometry":{"type":"Point","coordinates":[6.58092,43.28263]},"properties":{"nom":"SOWELL HÔTELS Golfe de Saint-Tropez","sub":"Hotel","cm":"83310#Grimaud","web":"https://www.sowell.fr/hotel/hotel-saint-tropez","uri":"https://data.datatourisme.fr/13/b21406c3-2f3c-3dd4-9ca4-cec559dc8ad6","dept":"83","reg":"pac"}},{"type":"Feature","geometry":{"type":"Point","coordinates":[6.63691,43.46056]},"properties":{"nom":"Hôtel B&B Roquebrune","sub":"Hotel","cm":"83520#Roquebrune-sur-Argens","web":"https://www.hotel-bb.com/fr<>https://www.instagram.com/bbhotels_fr/","uri":"https://data.datatourisme.fr/13/b95ecbe2-aefe-30e8-ba41-5a2573700d09","dept":"83","reg":"pac"}},{"type":"Feature","geometry":{"type":"Point","coordinates":[6.06729,43.42069]},"properties":{"nom":"Ibis Budget","sub":"Hotel","cm":"83170#Brignoles","web":"https://all.accor.com/hotel/9163/index.fr.shtml","uri":"https://data.datatourisme.fr/13/af5b0da3-138b-3627-98c3-83ca2688bd7b","dept":"83","reg":"pac"}},{"type":"Feature","geometry":{"type":"Point","coordinates":[5.84984,43.12129]},"properties":{"nom":"Hôtel Ibis La Seyne sur Mer","sub":"Hotel","cm":"83500#La Seyne-sur-Mer","web":"http://www.ibis.com/fr/hotel-0828-ibis-toulon-la-seyne/index.shtml","uri":"https://data.datatourisme.fr/13/4146e14c-fc31-3ae1-8089-ee682fc93aaa","dept":"83","reg":"pac"}},{"type":"Feature","geometry":{"type":"Point","coordinates":[6.76525,43.42473]},"properties":{"nom":"Hôtel Le Provençal","sub":"Hotel","cm":"83700#Saint-Raphaël","web":"http://www.hotel-provencal.com/","uri":"https://data.datatourisme.fr/13/ed20282c-65c3-36e9-9300-222bc956fa04","dept":"83","reg":"pac"}},{"type":"Feature","geometry":{"type":"Point","coordinates":[5.75109,43.13329]},"properties":{"nom":"Hôtel ***** Ile Rousse Thalazur","sub":"HotelRestaurant","cm":"83150#Bandol","web":"https://www.thalazur.fr/bandol/hotel/","uri":"https://data.datatourisme.fr/13/82c2a52a-aaa6-3e29-b13e-10d432fce925","dept":"83","reg":"pac"}},{"type":"Feature","geometry":{"type":"Point","coordinates":[5.75084,43.1358]},"properties":{"nom":"Hôtel Provençal***","sub":"Hotel","cm":"83150#Bandol","web":"http://www.hotelprovencal.eu/","uri":"https://data.datatourisme.fr/13/e1909453-9d83-37b6-b3a0-8361fc24c769","dept":"83","reg":"pac"}},{"type":"Feature","geometry":{"type":"Point","coordinates":[5.78092,43.12884]},"properties":{"nom":"Hostellerie la Farandole","sub":"HotelRestaurant","cm":"83110#Sanary-sur-Mer","web":"http://www.hostellerielafarandole.com/","uri":"https://data.datatourisme.fr/13/81dff368-6151-332d-8c1f-49e91c805ff7","dept":"83","reg":"pac"}},{"type":"Feature","geometry":{"type":"Point","coordinates":[6.40246,43.14993]},"properties":{"nom":"Hôtel Beau Soleil","sub":"HotelRestaurant","cm":"83980#Le Lavandou","web":"https://www.beausoleil-lavandou.com/","uri":"https://data.datatourisme.fr/13/f9bd576a-a049-3337-82b1-cab8f66108ae","dept":"83","reg":"pac"}},{"type":"Feature","geometry":{"type":"Point","coordinates":[6.65625,43.26343]},"properties":{"nom":"Lou Pinet","sub":"HotelRestaurant","cm":"83990#Saint-Tropez","web":"https://www.loupinet.com/fr/","uri":"https://data.datatourisme.fr/13/c104f4c7-46c4-352c-adc3-0192cb659679","dept":"83","reg":"pac"}},{"type":"Feature","geometry":{"type":"Point","coordinates":[6.85755,43.43302]},"properties":{"nom":"Royal Camping","sub":"Camping","cm":"83530#Saint-Raphaël","web":"http://www.royalcamping.net/","uri":"https://data.datatourisme.fr/13/18c994bb-a242-3836-8c60-713bf07f4643","dept":"83","reg":"pac"}},{"type":"Feature","geometry":{"type":"Point","coordinates":[6.85927,43.43373]},"properties":{"nom":"Le Relais d'Agay","sub":"HotelRestaurant","cm":"83530#Saint-Raphaël","web":"http://www.relaisdagay.com/","uri":"https://data.datatourisme.fr/13/31aa9df3-f85d-3ce2-9055-2d2931719e8f","dept":"83","reg":"pac"}},{"type":"Feature","geometry":{"type":"Point","coordinates":[6.06248,43.41346]},"properties":{"nom":"B&B Hôtel","sub":"Hotel","cm":"83170#Brignoles","web":"https://www.hotel-bb.com/fr/hotel/brignoles","uri":"https://data.datatourisme.fr/13/0bf2c466-c4e2-34f6-8d85-8b51e84d4a38","dept":"83","reg":"pac"}},{"type":"Feature","geometry":{"type":"Point","coordinates":[5.72919,43.15963]},"properties":{"nom":"Clos Ste Thérèse","sub":"Camping","cm":"83270#Saint-Cyr-sur-Mer","web":"http://www.clos-therese.com/","uri":"https://data.datatourisme.fr/13/c1a467af-29bd-3f65-b06d-2f45298d89b0","dept":"83","reg":"pac"}},{"type":"Feature","geometry":{"type":"Point","coordinates":[6.36775,43.13753]},"properties":{"nom":"Hôtel L'Ilôt Fleuri","sub":"Hotel","cm":"83980#Le Lavandou","web":"https://www.hotelilotfleuri.fr/","uri":"https://data.datatourisme.fr/13/fd676127-6a59-3f2c-b6ed-6412f23fb1ef","dept":"83","reg":"pac"}},{"type":"Feature","geometry":{"type":"Point","coordinates":[6.1055,43.16062]},"properties":{"nom":"Bois de Mont Redon","sub":"Camping","cm":"83260#La Crau","web":"http://www.montredon.com/","uri":"https://data.datatourisme.fr/13/492fc6b2-80be-3012-8908-f0322bc3c415","dept":"83","reg":"pac"}},{"type":"Feature","geometry":{"type":"Point","coordinates":[6.64273,43.63665]},"properties":{"nom":"Hôtel & Restaurant des Deux Rocs","sub":"HotelRestaurant","cm":"83440#Seillans","web":"http://www.hoteldeuxrocs.com/","uri":"https://data.datatourisme.fr/13/617b53e2-acb9-358e-b8c3-a5ec46918d52","dept":"83","reg":"pac"}},{"type":"Feature","geometry":{"type":"Point","coordinates":[6.33494,43.14462]},"properties":{"nom":"Hôtel Paradis","sub":"Hotel","cm":"83230#Bormes-les-Mimosas","web":"http://www.hotelparadis.fr/","uri":"https://data.datatourisme.fr/13/54ebbf0f-378b-3a85-b9be-79e46612d9ca","dept":"83","reg":"pac"}},{"type":"Feature","geometry":{"type":"Point","coordinates":[6.5207,43.17184]},"properties":{"nom":"Camping la Pinède","sub":"Camping","cm":"83240#Cavalaire-sur-Mer","web":"http://www.camping-lapinede.com/","uri":"https://data.datatourisme.fr/13/1dbf1dc0-26d7-386b-bb1d-4a5d2dbc91fe","dept":"83","reg":"pac"}},{"type":"Feature","geometry":{"type":"Point","coordinates":[6.18719,43.2982]},"properties":{"nom":"Le Castel Fleuri","sub":"HotelRestaurant","cm":"83660#Carnoules","web":"http://www.lecastelfleuri.fr/","uri":"https://data.datatourisme.fr/13/14344b95-dd7c-3b0f-9afd-938c30b88a60","dept":"83","reg":"pac"}},{"type":"Feature","geometry":{"type":"Point","coordinates":[5.75638,43.25369]},"properties":{"nom":"Camping L'Arbois du Castellet","sub":"Camping","cm":"83330#Le Castellet","web":"https://www.capfun.com/camping-france-provence_alpes_cote_d_azur-arbois_du_castellet-FR.html","uri":"https://data.datatourisme.fr/13/b1cb0cd3-7b19-3aac-bf6f-e0d752f6c640","dept":"83","reg":"pac"}},{"type":"Feature","geometry":{"type":"Point","coordinates":[5.81503,43.20824]},"properties":{"nom":"Hôtel La Cigalière","sub":"Hotel","cm":"83330#Le Beausset","web":"https://www.hotellacigaliere.fr/","uri":"https://data.datatourisme.fr/13/10eaf29e-2208-33ca-beee-b17854ddc7ed","dept":"83","reg":"pac"}},{"type":"Feature","geometry":{"type":"Point","coordinates":[6.8346,43.41748]},"properties":{"nom":"Domaine de l'Île d'Or","sub":"Camping","cm":"83700#Saint-Raphaël","web":"http://www.camping-iledor.com/","uri":"https://data.datatourisme.fr/13/8e843a91-4283-394f-a43c-fa1503a1d774","dept":"83","reg":"pac"}},{"type":"Feature","geometry":{"type":"Point","coordinates":[6.54363,43.46154]},"properties":{"nom":"Camping Les Cigales","sub":"Camping","cm":"83490#Le Muy","web":"https://www.tikayan.com/fr/camping-les-cigales-accueil","uri":"https://data.datatourisme.fr/13/6a25801b-05bf-3131-9e76-6fa0f0391bf5","dept":"83","reg":"pac"}},{"type":"Feature","geometry":{"type":"Point","coordinates":[6.67875,43.46947]},"properties":{"nom":"Camping La Bastiane Yelloh Village ****","sub":"Camping","cm":"83480#Puget-sur-Argens","web":"http://www.labastiane.com/","uri":"https://data.datatourisme.fr/13/edf1b0a6-f090-33be-acd9-895e683e08ce","dept":"83","reg":"pac"}},{"type":"Feature","geometry":{"type":"Point","coordinates":[5.6879,43.182]},"properties":{"nom":"Grand Hôtel des Lecques","sub":"HotelRestaurant","cm":"83270#Saint-Cyr-sur-Mer","web":"https://bestwestern-ghl.com/","uri":"https://data.datatourisme.fr/13/e6c80fea-2976-3b24-9d25-83d71fab17ac","dept":"83","reg":"pac"}},{"type":"Feature","geometry":{"type":"Point","coordinates":[6.02902,43.08714]},"properties":{"nom":"Camping Mauvallon 1","sub":"Camping","cm":"83220#Le Pradet","web":"https://campingmauvallon.fr/","uri":"https://data.datatourisme.fr/13/163375ff-7db2-3157-979f-7dc676417e40","dept":"83","reg":"pac"}},{"type":"Feature","geometry":{"type":"Point","coordinates":[6.60884,43.29159]},"properties":{"nom":"Villa Les Rosiers","sub":"HotelRestaurant","cm":"83310#Grimaud","web":"https://www.villalesrosiers.fr/","uri":"https://data.datatourisme.fr/13/d71ae480-c1b4-3bd8-967c-5f162625b615","dept":"83","reg":"pac"}},{"type":"Feature","geometry":{"type":"Point","coordinates":[6.76663,43.42396]},"properties":{"nom":"Le Touring","sub":"Hotel","cm":"83700#Saint-Raphaël","web":"https://www.letouring.fr/","uri":"https://data.datatourisme.fr/13/684438d9-f6f6-3d92-a83b-45dd4c3cec81","dept":"83","reg":"pac"}},{"type":"Feature","geometry":{"type":"Point","coordinates":[6.58532,43.49503]},"properties":{"nom":"La Résidence du Domaine de Saint Endréol","sub":"HotelRestaurant","cm":"83920#La Motte","web":"http://www.st-endreol.com/","uri":"https://data.datatourisme.fr/13/3c1124cc-03f4-32b7-bb11-2789de67c537","dept":"83","reg":"pac"}},{"type":"Feature","geometry":{"type":"Point","coordinates":[6.58532,43.49503]},"properties":{"nom":"Domaine de Saint Endréol - Villas","sub":"HolidayResort","cm":"83920#La Motte","web":"http://www.st-endreol.com/","uri":"https://data.datatourisme.fr/13/aba334c0-ccfc-305e-aff6-3a137303e038","dept":"83","reg":"pac"}},{"type":"Feature","geometry":{"type":"Point","coordinates":[6.5725,43.54671]},"properties":{"nom":"Hostellerie Les Gorges de Pennafort","sub":"HotelRestaurant","cm":"83830#Callas","web":"http://www.hostellerie-pennafort.com/","uri":"https://data.datatourisme.fr/13/4114b403-86a7-34a8-b862-ebd1abeb5214","dept":"83","reg":"pac"}},{"type":"Feature","geometry":{"type":"Point","coordinates":[6.57872,43.28535]},"properties":{"nom":"Domaine des Naïades","sub":"Camping","cm":"83310#Grimaud","web":"http://www.lesnaiades.com/","uri":"https://data.datatourisme.fr/13/3312ba4f-ab2b-3621-9f28-7e335cffba14","dept":"83","reg":"pac"}},{"type":"Feature","geometry":{"type":"Point","coordinates":[6.49267,43.2924]},"properties":{"nom":"Domaine de Miremer","sub":"Camping","cm":"83680#La Garde-Freinet","web":"http://www.miremer.com/","uri":"https://data.datatourisme.fr/13/34d7a581-9f17-3ee9-bcc5-ea5128de70d2","dept":"83","reg":"pac"}},{"type":"Feature","geometry":{"type":"Point","coordinates":[6.69392,43.45967]},"properties":{"nom":"Camping des Aubrèdes ****","sub":"Camping","cm":"83480#Puget-sur-Argens","web":"http://www.campingaubredes.com/<>https://www.capfun.com/camping-france-provence_alpes_cote_d_azur-aubredes-FR.html","uri":"https://data.datatourisme.fr/13/36336b48-c62c-3151-b9cd-13264329eae0","dept":"83","reg":"pac"}},{"type":"Feature","geometry":{"type":"Point","coordinates":[6.40127,43.15037]},"properties":{"nom":"Hôtel Restaurant La Piscine","sub":"HotelRestaurant","cm":"83980#Le Lavandou","web":"https://www.hotel-la-piscine.com/","uri":"https://data.datatourisme.fr/13/363c4cd0-5e4b-3537-bfee-f74c777d234a","dept":"83","reg":"pac"}},{"type":"Feature","geometry":{"type":"Point","coordinates":[5.75436,43.21875]},"properties":{"nom":"Camping du Castillon","sub":"Camping","cm":"83330#Le Castellet","web":null,"uri":"https://data.datatourisme.fr/13/d96b5795-d6fb-3740-a963-b68c1d0f82f8","dept":"83","reg":"pac"}},{"type":"Feature","geometry":{"type":"Point","coordinates":[5.77667,43.25359]},"properties":{"nom":"Grand Prix Hôtel & Restaurant","sub":"Hotel","cm":"83330#Le Castellet","web":"https://www.grandprixhotel.fr/","uri":"https://data.datatourisme.fr/13/067ea5d6-de43-3190-b224-e1db2d6a75f5","dept":"83","reg":"pac"}},{"type":"Feature","geometry":{"type":"Point","coordinates":[6.54868,43.46859]},"properties":{"nom":"Camping La Prairie","sub":"Camping","cm":"83490#Le Muy","web":"http://www.camping-la-prairie.fr/","uri":"https://data.datatourisme.fr/13/80b2f67e-efe0-366e-9235-0453e4d1ca84","dept":"83","reg":"pac"}},{"type":"Feature","geometry":{"type":"Point","coordinates":[6.36622,43.51614]},"properties":{"nom":"Château de Berne","sub":"Hotel","cm":"83780#Flayosc","web":"http://www.chateauberne.com/","uri":"https://data.datatourisme.fr/13/82630388-5ffb-3637-a094-80da5b54f76a","dept":"83","reg":"pac"}},{"type":"Feature","geometry":{"type":"Point","coordinates":[6.50853,43.71236]},"properties":{"nom":"Camping Humawaka","sub":"Camping","cm":"83840#Comps-sur-Artuby","web":"http://www.humawaka.com/","uri":"https://data.datatourisme.fr/13/b4e47dc3-e116-3c17-9aa5-8aaa2f159098","dept":"83","reg":"pac"}},{"type":"Feature","geometry":{"type":"Point","coordinates":[6.69206,43.62127]},"properties":{"nom":"Hôtel Les Oliviers","sub":"Hotel","cm":"83440#Fayence","web":"http://www.lesoliviersfayence.fr/","uri":"https://data.datatourisme.fr/13/e65a0501-41e8-3334-843e-ccddfef12162","dept":"83","reg":"pac"}},{"type":"Feature","geometry":{"type":"Point","coordinates":[6.65792,43.23144]},"properties":{"nom":"Kon Tiki à Ramatuelle","sub":"Camping","cm":"83350#Ramatuelle","web":"http://www.riviera-villages.com/<>http://www.tiki-hutte.com/","uri":"https://data.datatourisme.fr/13/4a649310-22b8-3d15-9fce-c03543950d13","dept":"83","reg":"pac"}},{"type":"Feature","geometry":{"type":"Point","coordinates":[6.24545,43.77633]},"properties":{"nom":"Campasun - Camping de l'Aigle","sub":"Camping","cm":"83630#Aiguines","web":"https://www.campasun.eu/aigle/le-camping/","uri":"https://data.datatourisme.fr/13/8f45355d-8961-34ef-a866-8d9d67cf21c8","dept":"83","reg":"pac"}},{"type":"Feature","geometry":{"type":"Point","coordinates":[6.4466,43.15548]},"properties":{"nom":"Hôtel Beau Site","sub":"HotelRestaurant","cm":"83980#Le Lavandou","web":"https://www.hotelbeausite.fr/","uri":"https://data.datatourisme.fr/13/197e2dea-fc40-3031-90fd-083276284900","dept":"83","reg":"pac"}},{"type":"Feature","geometry":{"type":"Point","coordinates":[6.6584,43.44591]},"properties":{"nom":"Camping le Moulin des Iscles","sub":"Camping","cm":"83520#Roquebrune-sur-Argens","web":"https://campingdesiscles.com/","uri":"https://data.datatourisme.fr/13/321f8908-430e-39f1-881c-88b7b28aada4","dept":"83","reg":"pac"}},{"type":"Feature","geometry":{"type":"Point","coordinates":[6.24587,43.12725]},"properties":{"nom":"Les Voiles d'Azur - Séjour nuitée","sub":"HotelRestaurant","cm":"83250#La Londe-les-Maures","web":"http://www.lesvoilesdazur.com/","uri":"https://data.datatourisme.fr/13/e111b790-88d4-3c4c-83ec-3d277f7d8f72","dept":"83","reg":"pac"}},{"type":"Feature","geometry":{"type":"Point","coordinates":[6.24587,43.12725]},"properties":{"nom":"Les Voiles d'Azur - Centre de vacances","sub":"Hostel","cm":"83250#La Londe-les-Maures","web":"http://www.lesvoilesdazur.com/","uri":"https://data.datatourisme.fr/13/a88c068e-2152-3aea-ae87-abc9c8068627","dept":"83","reg":"pac"}},{"type":"Feature","geometry":{"type":"Point","coordinates":[6.7815,43.41319]},"properties":{"nom":"Best Western Plus Hôtel La Marina","sub":"HotelRestaurant","cm":"83700#Saint-Raphaël","web":"http://www.hotel-lamarina.fr/","uri":"https://data.datatourisme.fr/13/29070f2e-4f17-32be-afc1-112086dc89b6","dept":"83","reg":"pac"}},{"type":"Feature","geometry":{"type":"Point","coordinates":[5.69013,43.18375]},"properties":{"nom":"Logis Hôtel de Port d'Alon","sub":"Hotel","cm":"83270#Saint-Cyr-sur-Mer","web":"https://www.logishotels.com/fr/hotel/logis-hotel-de-port-dalon-461937","uri":"https://data.datatourisme.fr/13/9b6edbd0-cf8a-3ddb-a992-45e48c8d0b0e","dept":"83","reg":"pac"}},{"type":"Feature","geometry":{"type":"Point","coordinates":[6.43478,43.15113]},"properties":{"nom":"Hôtel Le Club de Cavalière & Spa","sub":"HotelRestaurant","cm":"83980#Le Lavandou","web":"https://www.clubdecavaliere.com/","uri":"https://data.datatourisme.fr/13/5dbea54b-a39a-3b75-b7ac-b18f39ca0265","dept":"83","reg":"pac"}},{"type":"Feature","geometry":{"type":"Point","coordinates":[6.0085,43.10486]},"properties":{"nom":"Camping Le Pin de Galle","sub":"Camping","cm":"83220#Le Pradet","web":"http://www.campingdupindegalle.com/","uri":"https://data.datatourisme.fr/13/27de2991-aa20-36e9-88aa-0a105f458ce6","dept":"83","reg":"pac"}},{"type":"Feature","geometry":{"type":"Point","coordinates":[6.51945,43.16688]},"properties":{"nom":"Camping Bonporteau","sub":"Camping","cm":"83240#Cavalaire-sur-Mer","web":"http://www.bonporteau.fr/","uri":"https://data.datatourisme.fr/13/286f1566-d814-321f-8043-1aeb1db14f16","dept":"83","reg":"pac"}},{"type":"Feature","geometry":{"type":"Point","coordinates":[6.71412,43.61745]},"properties":{"nom":"Hôtel Auberge des Pins***","sub":"HotelRestaurant","cm":"83440#Tourrettes","web":"https://www.aubergedespins.com/","uri":"https://data.datatourisme.fr/13/fa369e8b-230a-35d0-b98e-d8766128a894","dept":"83","reg":"pac"}},{"type":"Feature","geometry":{"type":"Point","coordinates":[6.35142,43.13533]},"properties":{"nom":"Camping Beauséjour","sub":"Camping","cm":"83980#Le Lavandou","web":"https://www.tikayan.com/fr/camping-beau-sejour-accueil","uri":"https://data.datatourisme.fr/13/6a084070-e315-32d9-828f-682e8cd87082","dept":"83","reg":"pac"}},{"type":"Feature","geometry":{"type":"Point","coordinates":[6.37395,43.13796]},"properties":{"nom":"Hôtel Baptistin","sub":"Hotel","cm":"83980#Le Lavandou","web":"https://www.hotel-baptistin.com/","uri":"https://data.datatourisme.fr/13/d125046a-2c10-3669-aeb9-743ebe276498","dept":"83","reg":"pac"}},{"type":"Feature","geometry":{"type":"Point","coordinates":[6.38373,43.14386]},"properties":{"nom":"Roc Hôtel","sub":"Hotel","cm":"83980#Le Lavandou","web":"https://www.roc-hotel.com/","uri":"https://data.datatourisme.fr/13/e320e94b-15aa-3c0c-a9da-5e8d561f37ba","dept":"83","reg":"pac"}},{"type":"Feature","geometry":{"type":"Point","coordinates":[6.55519,43.19482]},"properties":{"nom":"Selection Camping","sub":"Camping","cm":"83420#La Croix-Valmer","web":"http://www.selectioncamping.com/","uri":"https://data.datatourisme.fr/13/21bf8de5-406f-3a92-8b7a-048a3ffbf71c","dept":"83","reg":"pac"}},{"type":"Feature","geometry":{"type":"Point","coordinates":[6.78018,43.45033]},"properties":{"nom":"Le Confidentiel Hôtel & SPA","sub":"HotelRestaurant","cm":"83700#Saint-Raphaël","web":"http://www.confidentiel-hotel.com/","uri":"https://data.datatourisme.fr/13/8d2d6de7-b8d7-336e-bf6f-68bc819ceb99","dept":"83","reg":"pac"}},{"type":"Feature","geometry":{"type":"Point","coordinates":[6.47299,43.18882]},"properties":{"nom":"Camping Pachacaïd","sub":"Camping","cm":"83310#La Môle","web":"http://www.pachacaid.com/","uri":"https://data.datatourisme.fr/13/94f18f67-77a3-314d-9a8c-fbdb7e0359a3","dept":"83","reg":"pac"}},{"type":"Feature","geometry":{"type":"Point","coordinates":[6.16883,43.40481]},"properties":{"nom":"Mercure Brignoles Golf de Barbaroux & Spa","sub":"HotelRestaurant","cm":"83170#Brignoles","web":"https://www.barbaroux.com/","uri":"https://data.datatourisme.fr/13/765c9d2c-a3eb-3d2d-9daf-228d90b7f8c5","dept":"83","reg":"pac"}},{"type":"Feature","geometry":{"type":"Point","coordinates":[5.81522,43.13175]},"properties":{"nom":"Camping Campasun Mas de Pierredon","sub":"Camping","cm":"83110#Sanary-sur-Mer","web":"https://www.campasun.eu/mas-pierredon/le-camping/","uri":"https://data.datatourisme.fr/13/5907ed76-e57f-3dc8-9f12-36193a0fa82c","dept":"83","reg":"pac"}},{"type":"Feature","geometry":{"type":"Point","coordinates":[6.63735,43.4742]},"properties":{"nom":"Le Parpaillon","sub":"Camping","cm":"83520#Roquebrune-sur-Argens","web":"http://www.campingdeparpaillon.com/","uri":"https://data.datatourisme.fr/13/5cfbedb7-90af-36d9-8768-a440b443ac54","dept":"83","reg":"pac"}},{"type":"Feature","geometry":{"type":"Point","coordinates":[6.60583,43.26207]},"properties":{"nom":"Hôtel Les Capucines","sub":"Hotel","cm":"83580#Gassin","web":"https://www.hotelcapucines.fr/","uri":"https://data.datatourisme.fr/13/10e454be-cc39-32c0-9294-f9188e567a1c","dept":"83","reg":"pac"}},{"type":"Feature","geometry":{"type":"Point","coordinates":[6.74917,43.45041]},"properties":{"nom":"Camping Site de Gorge Vent","sub":"Camping","cm":"83600#Fréjus","web":"http://www.camping-gorge-vent.com/","uri":"https://data.datatourisme.fr/13/0964f3fa-123d-34e3-9aac-82f5bc978839","dept":"83","reg":"pac"}},{"type":"Feature","geometry":{"type":"Point","coordinates":[6.66625,43.58466]},"properties":{"nom":"Camping Naturiste La Tuquette","sub":"Camping","cm":"83440#Fayence","web":"http://www.tuquette.com/fr/accueil-p1.php","uri":"https://data.datatourisme.fr/13/09361d7a-4507-300f-bcf1-4b956a765e96","dept":"83","reg":"pac"}},{"type":"Feature","geometry":{"type":"Point","coordinates":[6.78492,43.4207]},"properties":{"nom":"Le Thimothée","sub":"Hotel","cm":"83700#Saint-Raphaël","web":"https://www.hotel-thimothee.com/","uri":"https://data.datatourisme.fr/13/68a019d8-2065-3289-ab2e-4b09187e35d0","dept":"83","reg":"pac"}},{"type":"Feature","geometry":{"type":"Point","coordinates":[6.46326,43.15866]},"properties":{"nom":"Le Relais des Maures","sub":"HotelRestaurant","cm":"83820#Rayol-Canadel-sur-Mer","web":"http://www.lerelaisdesmaures.fr/","uri":"https://data.datatourisme.fr/13/ee73a688-8c2b-3bdf-a51d-519213d51511","dept":"83","reg":"pac"}},{"type":"Feature","geometry":{"type":"Point","coordinates":[6.37141,43.13911]},"properties":{"nom":"Hôtel California","sub":"Hotel","cm":"83980#Le Lavandou","web":"https://hotelcalifornia.fr/","uri":"https://data.datatourisme.fr/13/a00c2b12-f8b6-3c0a-9ad5-aa2d7671c2e1","dept":"83","reg":"pac"}},{"type":"Feature","geometry":{"type":"Point","coordinates":[5.85035,43.10706]},"properties":{"nom":"Hôtel Première Classe","sub":"Hotel","cm":"83500#La Seyne-sur-Mer","web":"https://toulon-la-seyne-sur-mer.premiereclasse.com/fr-fr/","uri":"https://data.datatourisme.fr/13/7fdd2c50-8126-3834-8f94-69534a7f3a1a","dept":"83","reg":"pac"}},{"type":"Feature","geometry":{"type":"Point","coordinates":[6.16139,43.09467]},"properties":{"nom":"Camping Les Pins Maritimes","sub":"Camping","cm":"83400#Hyères","web":"http://www.lespinsmaritimes.fr/","uri":"https://data.datatourisme.fr/13/84ad000b-f041-3693-aa64-a704d801b80e","dept":"83","reg":"pac"}},{"type":"Feature","geometry":{"type":"Point","coordinates":[5.93564,43.11953]},"properties":{"nom":"Ibis Styles Toulon Centre Port","sub":"Hotel","cm":"83000#Toulon","web":"https://all.accor.com/","uri":"https://data.datatourisme.fr/13/8a2f6603-cebb-3641-96c7-b506a122a753","dept":"83","reg":"pac"}},{"type":"Feature","geometry":{"type":"Point","coordinates":[6.14797,43.03935]},"properties":{"nom":"Camping l'île d'Or","sub":"Camping","cm":"83400#Hyères","web":"http://www.camping-iles-d-or.com/","uri":"https://data.datatourisme.fr/13/8a7ed1c4-7c98-38eb-acf9-7397631dfcbd","dept":"83","reg":"pac"}},{"type":"Feature","geometry":{"type":"Point","coordinates":[5.93165,43.12654]},"properties":{"nom":"Celenya Hôtel","sub":"Hotel","cm":"83000#Toulon","web":"http://www.hotel-celenya-toulon.com/","uri":"https://data.datatourisme.fr/13/8f2eae3e-ee43-382c-85a7-a45fc235d50a","dept":"83","reg":"pac"}},{"type":"Feature","geometry":{"type":"Point","coordinates":[5.83734,43.09366]},"properties":{"nom":"Le Clos des Pins","sub":"Hotel","cm":"83140#Six-Fours-les-Plages","web":"http://www.hotel-leclosdespins.fr/","uri":"https://data.datatourisme.fr/13/c1f63ef7-eabe-3c20-aa86-8fe215aa1cc8","dept":"83","reg":"pac"}},{"type":"Feature","geometry":{"type":"Point","coordinates":[5.92375,43.12726]},"properties":{"nom":"Holiday Inn Toulon City Centre","sub":"Hotel","cm":"83000#Toulon","web":null,"uri":"https://data.datatourisme.fr/13/c7c2fbe1-4b81-3e11-b664-1f9cae9645ed","dept":"83","reg":"pac"}},{"type":"Feature","geometry":{"type":"Point","coordinates":[6.39314,43.39732]},"properties":{"nom":"Domaine Les Ombrages","sub":"Camping","cm":"83550#Vidauban","web":"http://domaine-lesombrages.com/","uri":"https://data.datatourisme.fr/13/985c9c0a-f0cf-349a-a3fc-b14badb8f04f","dept":"83","reg":"pac"}},{"type":"Feature","geometry":{"type":"Point","coordinates":[6.62612,43.72268]},"properties":{"nom":"Camping Municipal Notre Dame","sub":"Camping","cm":"83840#La Roque-Esclapon","web":"http://camping.la-roque-esclapon.fr/","uri":"https://data.datatourisme.fr/13/37b9c971-fb67-3d18-8ef4-520da7497023","dept":"83","reg":"pac"}},{"type":"Feature","geometry":{"type":"Point","coordinates":[6.55786,43.264]},"properties":{"nom":"La Pierrerie","sub":"Hotel","cm":"83310#Grimaud","web":"http://www.lapierrerie.com/","uri":"https://data.datatourisme.fr/13/989564e3-721e-335a-b896-8829c14ff749","dept":"83","reg":"pac"}},{"type":"Feature","geometry":{"type":"Point","coordinates":[5.80064,43.11749]},"properties":{"nom":"Hôtel de la Tour","sub":"HotelRestaurant","cm":"83110#Sanary-sur-Mer","web":"http://www.sanary-hoteldelatour.com/","uri":"https://data.datatourisme.fr/13/93c140d6-d512-3dc9-98be-b31a30cf8a85","dept":"83","reg":"pac"}},{"type":"Feature","geometry":{"type":"Point","coordinates":[6.0407,43.39374]},"properties":{"nom":"Hostellerie de l'Abbaye de La Celle","sub":"HotelRestaurant","cm":"83170#La Celle","web":"https://www.abbaye-celle.com/<>https://secure.reservit.com/engine/booking/2/5978/dates?specialMode=default&langcode=FR&m=booking","uri":"https://data.datatourisme.fr/13/c85a3bb6-6db0-3ec0-b8f9-00473289bc86","dept":"83","reg":"pac"}},{"type":"Feature","geometry":{"type":"Point","coordinates":[6.78294,43.42209]},"properties":{"nom":"Hôtel du Soleil","sub":"Hotel","cm":"83700#Saint-Raphaël","web":"http://www.hotel-dusoleil.com/","uri":"https://data.datatourisme.fr/13/496a0470-2c3f-3032-b288-d7b8a5571e5f","dept":"83","reg":"pac"}},{"type":"Feature","geometry":{"type":"Point","coordinates":[5.75986,43.13724]},"properties":{"nom":"Hôtel de La Baie ***","sub":"Hotel","cm":"83150#Bandol","web":"https://www.hotelbaiebandol.fr/","uri":"https://data.datatourisme.fr/13/f067e47a-0277-37b7-a54e-a8a430448b74","dept":"83","reg":"pac"}},{"type":"Feature","geometry":{"type":"Point","coordinates":[5.74985,43.13741]},"properties":{"nom":"Hôtel Bel Ombra**","sub":"HotelRestaurant","cm":"83150#Bandol","web":"http://www.hotelbelombra.fr/","uri":"https://data.datatourisme.fr/13/f1cba317-efb0-3530-af27-ade62a3c7b19","dept":"83","reg":"pac"}},{"type":"Feature","geometry":{"type":"Point","coordinates":[6.63564,43.45055]},"properties":{"nom":"Camping les Pêcheurs","sub":"Camping","cm":"83520#Roquebrune-sur-Argens","web":"https://www.camping-les-pecheurs.com/","uri":"https://data.datatourisme.fr/13/8b5a1290-d315-328f-8459-bd54b8a68121","dept":"83","reg":"pac"}},{"type":"Feature","geometry":{"type":"Point","coordinates":[6.74393,43.4215]},"properties":{"nom":"Atoll Hôtel","sub":"HotelRestaurant","cm":"83600#Fréjus","web":"http://www.atollhotel.fr/","uri":"https://data.datatourisme.fr/13/8bc9c0cd-e02b-3db5-bb3a-7ff00009b6bf","dept":"83","reg":"pac"}},{"type":"Feature","geometry":{"type":"Point","coordinates":[6.75222,43.44263]},"properties":{"nom":"Camping Les Acacias","sub":"Camping","cm":"83600#Fréjus","web":"http://www.campingacacias.fr/","uri":"https://data.datatourisme.fr/13/8241c37c-45dd-3daa-9519-5d5cf4e8c8d5","dept":"83","reg":"pac"}},{"type":"Feature","geometry":{"type":"Point","coordinates":[6.38002,43.14138]},"properties":{"nom":"Hôtel La Bastide","sub":"Hotel","cm":"83980#Le Lavandou","web":"https://www.hotel-la-bastide.fr/","uri":"https://data.datatourisme.fr/13/87bb5b04-59d1-3392-9783-688cccb11489","dept":"83","reg":"pac"}},{"type":"Feature","geometry":{"type":"Point","coordinates":[6.39494,43.14677]},"properties":{"nom":"Hôtel de la Fossette","sub":"Hotel","cm":"83980#Le Lavandou","web":"https://www.hoteldelafossette.com/","uri":"https://data.datatourisme.fr/13/9435076a-9bcd-30f0-8863-060e6e5d2547","dept":"83","reg":"pac"}},{"type":"Feature","geometry":{"type":"Point","coordinates":[6.27876,43.14986]},"properties":{"nom":"Camping Parc Valrose","sub":"Camping","cm":"83250#La Londe-les-Maures","web":"http://www.parcvalrose.com/","uri":"https://data.datatourisme.fr/13/dab1a961-8a34-305f-aa7d-6abb01cfc382","dept":"83","reg":"pac"}},{"type":"Feature","geometry":{"type":"Point","coordinates":[6.47784,43.46429]},"properties":{"nom":"Le Château d'Argens","sub":"HotelRestaurant","cm":"83460#Les Arcs","web":"https://www.chateaudargens.com/","uri":"https://data.datatourisme.fr/13/1a44cfe8-5846-391f-b2ed-e122be1537ba","dept":"83","reg":"pac"}},{"type":"Feature","geometry":{"type":"Point","coordinates":[6.6449,43.26616]},"properties":{"nom":"La Mandarine","sub":"HotelRestaurant","cm":"83990#Saint-Tropez","web":"http://www.hotellamandarine.com/","uri":"https://data.datatourisme.fr/13/9da3c616-61cf-3683-b172-a9ae5eb06f24","dept":"83","reg":"pac"}},{"type":"Feature","geometry":{"type":"Point","coordinates":[6.58961,43.18659]},"properties":{"nom":"La Pinède Plage","sub":"HotelRestaurant","cm":"83420#La Croix-Valmer","web":"http://www.pinedeplage.com/","uri":"https://data.datatourisme.fr/13/04bce775-ec9e-36e9-bbc8-f9978eaef369","dept":"83","reg":"pac"}},{"type":"Feature","geometry":{"type":"Point","coordinates":[5.7428,43.13518]},"properties":{"nom":"Hôtel Clairefont ***","sub":"Hotel","cm":"83150#Bandol","web":"https://www.vtf-vacances.com/fr","uri":"https://data.datatourisme.fr/13/c201bd2c-84f8-332c-861b-a2e1ae06297b","dept":"83","reg":"pac"}},{"type":"Feature","geometry":{"type":"Point","coordinates":[5.92973,43.12777]},"properties":{"nom":"Grand Hôtel de la Gare","sub":"Hotel","cm":"83000#Toulon","web":"http://www.grandhotelgare.com/","uri":"https://data.datatourisme.fr/13/6b49e98f-7067-33b1-9f52-d6fca9dce08e","dept":"83","reg":"pac"}},{"type":"Feature","geometry":{"type":"Point","coordinates":[6.14945,43.03762]},"properties":{"nom":"Le Domaine de la Mer","sub":"Hotel","cm":"83400#Hyères","web":"http://www.domainedelamer.com/","uri":"https://data.datatourisme.fr/13/d78addf6-6513-3730-aad5-84444ca0d942","dept":"83","reg":"pac"}},{"type":"Feature","geometry":{"type":"Point","coordinates":[5.85258,43.11015]},"properties":{"nom":"Parc des Fontanettes","sub":"Camping","cm":"83500#La Seyne-sur-Mer","web":"https://www.camping-fontanettes.com/","uri":"https://data.datatourisme.fr/13/d9d690f3-9bcc-3729-ad56-f44ca341c1dd","dept":"83","reg":"pac"}},{"type":"Feature","geometry":{"type":"Point","coordinates":[6.12775,43.04157]},"properties":{"nom":"Spin out","sub":"Rental","cm":"83400#Hyères","web":"http://www.spinout.fr/","uri":"https://data.datatourisme.fr/13/daa1c87a-3e0a-3755-aa53-ac8732c07670","dept":"83","reg":"pac"}},{"type":"Feature","geometry":{"type":"Point","coordinates":[6.14878,43.03898]},"properties":{"nom":"Camping Le Méditerranée","sub":"Camping","cm":"83400#Hyères","web":"https://www.tikayan.com/fr/camping-le-mediterranee-accueil","uri":"https://data.datatourisme.fr/13/dd07839d-9c1b-35c8-ac1a-309585865cd8","dept":"83","reg":"pac"}},{"type":"Feature","geometry":{"type":"Point","coordinates":[6.10366,43.03979]},"properties":{"nom":"Camping Olbia","sub":"Camping","cm":"83400#Hyères","web":"https://www.camping-olbia.com/","uri":"https://data.datatourisme.fr/13/dddbd39d-44b7-3e39-a453-65a3e9bfe7c2","dept":"83","reg":"pac"}},{"type":"Feature","geometry":{"type":"Point","coordinates":[5.88363,43.1019]},"properties":{"nom":"Mercure Toulon La Seyne Sur Mer","sub":"Hotel","cm":"83500#La Seyne-sur-Mer","web":"https://all.accor.com/hotel/B3F9/index.fr.shtml","uri":"https://data.datatourisme.fr/13/df7afb25-8b09-3a7b-b186-77b3d2873b11","dept":"83","reg":"pac"}},{"type":"Feature","geometry":{"type":"Point","coordinates":[5.813,43.11031]},"properties":{"nom":"Hôtel Bel Azur","sub":"Hotel","cm":"83140#Six-Fours-les-Plages","web":"http://www.hotel-belazur.com/","uri":"https://data.datatourisme.fr/13/e38d93f9-f038-3d47-b06c-ed3bb2ba5ea9","dept":"83","reg":"pac"}},{"type":"Feature","geometry":{"type":"Point","coordinates":[6.43891,43.01987]},"properties":{"nom":"La Brise marine","sub":"Hotel","cm":"83400#Hyères","web":"http://labrisedulevant.com/","uri":"https://data.datatourisme.fr/13/f088867a-a42f-3dce-ac3c-274710afb095","dept":"83","reg":"pac"}},{"type":"Feature","geometry":{"type":"Point","coordinates":[6.44413,43.7625]},"properties":{"nom":"Château de Trigance","sub":"Hotel","cm":"83840#Trigance","web":"https://www.chateau-de-trigance.fr/","uri":"https://data.datatourisme.fr/13/177630be-8614-31dc-8978-7609045751c2","dept":"83","reg":"pac"}},{"type":"Feature","geometry":{"type":"Point","coordinates":[6.58065,43.27404]},"properties":{"nom":"Le Suffren Hotel - Port Grimaud","sub":"Hotel","cm":"83310#Grimaud","web":"http://www.hotel-suffren.com/","uri":"https://data.datatourisme.fr/13/b4f742f5-d2e6-374c-bc9a-e683c8862b5d","dept":"83","reg":"pac"}},{"type":"Feature","geometry":{"type":"Point","coordinates":[6.77729,43.60269]},"properties":{"nom":"Newbike tout pour le vélo","sub":"Rental","cm":"83440#Montauroux","web":null,"uri":"https://data.datatourisme.fr/13/b319c4d8-600f-39ac-895d-9b20c6fcac7f","dept":"83","reg":"pac"}},{"type":"Feature","geometry":{"type":"Point","coordinates":[6.4246,43.15816]},"properties":{"nom":"Azur Hôtel","sub":"Hotel","cm":"83980#Le Lavandou","web":"https://www.azur-hotel.org/","uri":"https://data.datatourisme.fr/13/a72fd0c4-017b-3444-ac87-0a44847ebc9b","dept":"83","reg":"pac"}},{"type":"Feature","geometry":{"type":"Point","coordinates":[6.43918,43.02065]},"properties":{"nom":"Héliotel","sub":"Hotel","cm":"83400#Hyères","web":"http://www.heliotel.net/","uri":"https://data.datatourisme.fr/13/d8dd248f-0a3a-3958-8298-b7f73d1731a7","dept":"83","reg":"pac"}},{"type":"Feature","geometry":{"type":"Point","coordinates":[5.83026,43.11301]},"properties":{"nom":"Camping Les Playes","sub":"Camping","cm":"83140#Six-Fours-les-Plages","web":"http://www.camplayes.com/","uri":"https://data.datatourisme.fr/13/2b0daefa-8a40-366b-b635-2f54a09cce2a","dept":"83","reg":"pac"}},{"type":"Feature","geometry":{"type":"Point","coordinates":[5.93884,43.11999]},"properties":{"nom":"Ibis Budget","sub":"Hotel","cm":"83000#Toulon","web":"https://all.accor.com/hotel/5096/index.fr.shtml?dateIn=&nights=&compositions=1&stayplus=false&snu=false#origin=ibis","uri":"https://data.datatourisme.fr/13/3314d92f-eb11-3913-8c88-73c447e2cd5f","dept":"83","reg":"pac"}},{"type":"Feature","geometry":{"type":"Point","coordinates":[5.85964,43.45328]},"properties":{"nom":"Hôtel de France","sub":"HotelRestaurant","cm":"83470#Saint-Maximin-la-Sainte-Baume","web":"https://www.hotelsaintmaximin.com/","uri":"https://data.datatourisme.fr/13/112cd626-0b11-39f8-a7cf-75e58ef1478d","dept":"83","reg":"pac"}},{"type":"Feature","geometry":{"type":"Point","coordinates":[6.06729,43.42059]},"properties":{"nom":"Hôtel Ibis Provence Verte","sub":"HotelRestaurant","cm":"83170#Brignoles","web":"https://all.accor.com/hotel/1051/index.fr.shtml","uri":"https://data.datatourisme.fr/13/310e0b9e-6e5c-3eb3-8608-06acd122f231","dept":"83","reg":"pac"}},{"type":"Feature","geometry":{"type":"Point","coordinates":[6.38087,43.13918]},"properties":{"nom":"Hotel Astria","sub":"HotelRestaurant","cm":"83980#Le Lavandou","web":"https://www.hotelastria.fr/","uri":"https://data.datatourisme.fr/13/8d7e72dd-98b5-380f-a9a9-12a455c8a091","dept":"83","reg":"pac"}},{"type":"Feature","geometry":{"type":"Point","coordinates":[6.36712,43.13616]},"properties":{"nom":"Hôtel Beau Rivage","sub":"Hotel","cm":"83980#Le Lavandou","web":"https://www.hotelbeaurivage.fr/","uri":"https://data.datatourisme.fr/13/e7b46c17-ac68-3e33-98d7-a91f47c36b74","dept":"83","reg":"pac"}},{"type":"Feature","geometry":{"type":"Point","coordinates":[6.52213,43.47885]},"properties":{"nom":"Les Pins  Blancs en Provence","sub":"HotelRestaurant","cm":"83490#Le Muy","web":"http://lespinsblancs.com/","uri":"https://data.datatourisme.fr/13/07a7a97e-216b-3ed5-af96-7c3356989037","dept":"83","reg":"pac"}},{"type":"Feature","geometry":{"type":"Point","coordinates":[6.51319,43.25652]},"properties":{"nom":"Sunêlia l'Argentière","sub":"Camping","cm":"83310#Cogolin","web":"http://www.camping-argentiere.com/","uri":"https://data.datatourisme.fr/13/b3079051-0012-3c2e-9f24-8e266735ecbe","dept":"83","reg":"pac"}},{"type":"Feature","geometry":{"type":"Point","coordinates":[6.13442,43.1147]},"properties":{"nom":"Hôtel Mercure","sub":"Hotel","cm":"83400#Hyères","web":"https://www.accorhotels.com/fr/hotel-1055-hotel-mercure-hyeres-centre/index.shtml#origin=mercure","uri":"https://data.datatourisme.fr/13/1dc235ea-bf8a-3a76-850e-4097aa4e52da","dept":"83","reg":"pac"}},{"type":"Feature","geometry":{"type":"Point","coordinates":[6.13217,43.11876]},"properties":{"nom":"Hôtel des Palmiers","sub":"Hotel","cm":"83400#Hyères","web":"https://www.hotelcasinohyeres.fr/","uri":"https://data.datatourisme.fr/13/1edc00e2-49ca-3821-8c42-b0d78c89912f","dept":"83","reg":"pac"}},{"type":"Feature","geometry":{"type":"Point","coordinates":[5.85579,43.11538]},"properties":{"nom":"B&B Hôtel","sub":"Hotel","cm":"83500#La Seyne-sur-Mer","web":"https://www.hotel-bb.com/fr/hotel/toulon-la-seyne-sur-mer","uri":"https://data.datatourisme.fr/13/1f178ec5-a9ac-3978-87c2-013341dfdc0f","dept":"83","reg":"pac"}},{"type":"Feature","geometry":{"type":"Point","coordinates":[6.14787,43.05757]},"properties":{"nom":"Hôtel Ibis Thalassa","sub":"Hotel","cm":"83400#Hyères","web":"https://all.accor.com/hotel/1559/index.fr.shtml?dateIn=&nights=&compositions=1&stayplus=false&snu=false#origin=accor","uri":"https://data.datatourisme.fr/13/248bc897-92e5-3715-be4f-ad13bc9bac43","dept":"83","reg":"pac"}},{"type":"Feature","geometry":{"type":"Point","coordinates":[6.67971,43.26161]},"properties":{"nom":"Tartane Saint-Tropez","sub":"HotelRestaurant","cm":"83990#Saint-Tropez","web":"https://www.latartane-hotel.com/","uri":"https://data.datatourisme.fr/13/1b54add3-411d-31ac-b28d-2aafa06cb744","dept":"83","reg":"pac"}},{"type":"Feature","geometry":{"type":"Point","coordinates":[6.76742,43.42213]},"properties":{"nom":"Excelsior","sub":"HotelRestaurant","cm":"83700#Saint-Raphaël","web":"http://www.excelsior-hotel.com/","uri":"https://data.datatourisme.fr/13/ccdf7609-3dc3-39dc-8d3b-a7a8cdff9bf3","dept":"83","reg":"pac"}},{"type":"Feature","geometry":{"type":"Point","coordinates":[6.80324,43.41444]},"properties":{"nom":"La Villa Mauresque","sub":"HotelRestaurant","cm":"83700#Saint-Raphaël","web":"http://www.villa-mauresque.com/","uri":"https://data.datatourisme.fr/13/da96240b-f0a3-32ed-a133-360e9adbd59f","dept":"83","reg":"pac"}},{"type":"Feature","geometry":{"type":"Point","coordinates":[6.61932,43.29651]},"properties":{"nom":"Villa des Anges","sub":"Hotel","cm":"83310#Grimaud","web":"https://www.hotelvilladesanges.fr/","uri":"https://data.datatourisme.fr/13/d561f01b-6f95-32cb-88d7-e3782a1ee9df","dept":"83","reg":"pac"}},{"type":"Feature","geometry":{"type":"Point","coordinates":[6.5984,43.194]},"properties":{"nom":"Lily of the Valley","sub":"HotelRestaurant","cm":"83420#La Croix-Valmer","web":"https://www.lilyofthevalley.com/","uri":"https://data.datatourisme.fr/13/4cdf48b2-e839-367b-abc6-28f492d8881b","dept":"83","reg":"pac"}},{"type":"Feature","geometry":{"type":"Point","coordinates":[6.65779,43.4633]},"properties":{"nom":"Campinus ***","sub":"Camping","cm":"83480#Puget-sur-Argens","web":"http://www.campinus.fr/","uri":"https://data.datatourisme.fr/13/2160e28b-6a0d-3386-9bbc-067820470357","dept":"83","reg":"pac"}},{"type":"Feature","geometry":{"type":"Point","coordinates":[6.69797,43.53654]},"properties":{"nom":"Hôtel Au Relais Provençal","sub":"Hotel","cm":"83600#Bagnols-en-Forêt","web":"http://www.aurelaisprovencal.com/","uri":"https://data.datatourisme.fr/13/3fa74431-da33-3799-874c-3a369bf61058","dept":"83","reg":"pac"}},{"type":"Feature","geometry":{"type":"Point","coordinates":[6.17103,42.99954]},"properties":{"nom":"Le Mas du Langoustier","sub":"HotelRestaurant","cm":"83400#Hyères","web":"http://www.langoustier.com/","uri":"https://data.datatourisme.fr/13/058477b0-ef44-35c8-9301-b76dc0a4e79b","dept":"83","reg":"pac"}},{"type":"Feature","geometry":{"type":"Point","coordinates":[5.87441,43.12337]},"properties":{"nom":"B&B Ollioules","sub":"Hotel","cm":"83190#Ollioules","web":"https://www.hotel-bb.com/fr/hotel/toulon-ollioules?utm_source=google&utm_medium=cpc&utm_campaign=fr_goo_brand_text_tROI_Hotel_FR_FR_DefenseMarque&gclsrc=aw.ds&gad_source=1&gad_campaignid=23516554318&gbraid=0AAAAAC-XIuB-NxsIkQ4CIHbos-XuIgvQi&gclid=Cj0KCQjw7cLOBhDmARIsAGsuA0l4Dkk0r2Ez-CRF9piW2JCF9_qU3a5dDW2FT_AljEGrVEIeSTTqhT8aAg1zEALw_wcB","uri":"https://data.datatourisme.fr/13/0fe9b4f4-38cd-31e7-8bcf-eee55d050e98","dept":"83","reg":"pac"}},{"type":"Feature","geometry":{"type":"Point","coordinates":[5.93617,43.10698]},"properties":{"nom":"Best Western Plus La Corniche","sub":"Hotel","cm":"83000#Toulon","web":"http://www.hotel-corniche.com/<>http://www.hotels-toulon-mer.com/","uri":"https://data.datatourisme.fr/13/15819560-b0b4-30c4-80c9-2273fe50fb1f","dept":"83","reg":"pac"}},{"type":"Feature","geometry":{"type":"Point","coordinates":[6.1435,43.04101]},"properties":{"nom":"Camping La Presqu'île de Giens","sub":"Camping","cm":"83400#Hyères","web":"https://camping-giens.com/","uri":"https://data.datatourisme.fr/13/18029aef-697a-3720-8895-c5c5eff94d39","dept":"83","reg":"pac"}},{"type":"Feature","geometry":{"type":"Point","coordinates":[6.16851,43.09985]},"properties":{"nom":"Camping Bernard","sub":"Camping","cm":"83400#Hyères","web":null,"uri":"https://data.datatourisme.fr/13/1abf0d0e-7549-376a-9f50-0647cdc26164","dept":"83","reg":"pac"}},{"type":"Feature","geometry":{"type":"Point","coordinates":[6.70496,43.53592]},"properties":{"nom":"Camping Les Clos*","sub":"Camping","cm":"83600#Bagnols-en-Forêt","web":"http://camping-les-clos.fr/camping/","uri":"https://data.datatourisme.fr/13/986cfeba-42ee-3839-ace5-fb4a3502c4d3","dept":"83","reg":"pac"}},{"type":"Feature","geometry":{"type":"Point","coordinates":[6.1279,43.04147]},"properties":{"nom":"Camping International","sub":"Camping","cm":"83400#Hyères","web":"http://www.international-giens.com/","uri":"https://data.datatourisme.fr/13/52a0eef8-7581-3437-855e-bbc19adbe343","dept":"83","reg":"pac"}},{"type":"Feature","geometry":{"type":"Point","coordinates":[5.92972,43.12512]},"properties":{"nom":"Hôtel Amirauté","sub":"Hotel","cm":"83000#Toulon","web":"http://www.hotelamiraute.fr/","uri":"https://data.datatourisme.fr/13/5577ec67-b14c-38c5-9ff8-8bdeb47cd9d0","dept":"83","reg":"pac"}},{"type":"Feature","geometry":{"type":"Point","coordinates":[6.20403,43.00102]},"properties":{"nom":"Les Mèdes","sub":"Hotel","cm":"83400#Hyères","web":"http://www.hotel-les-medes.fr/","uri":"https://data.datatourisme.fr/13/68de3150-c7b1-3c9e-9ca2-729007b56944","dept":"83","reg":"pac"}},{"type":"Feature","geometry":{"type":"Point","coordinates":[6.20404,43.00105]},"properties":{"nom":"Résidence les Mèdes","sub":"HolidayResort","cm":"83400#Hyères","web":"http://www.hotel-les-medes.fr/","uri":"https://data.datatourisme.fr/13/89384d72-88e1-3bff-83e4-57802f74d93c","dept":"83","reg":"pac"}},{"type":"Feature","geometry":{"type":"Point","coordinates":[6.23755,43.14561]},"properties":{"nom":"Storm Bicycle","sub":"Rental","cm":"83250#La Londe-les-Maures","web":"http://www.stormbicycle.fr/","uri":"https://data.datatourisme.fr/13/2462c051-3c53-3ced-a5f5-490195edc2d0","dept":"83","reg":"pac"}},{"type":"Feature","geometry":{"type":"Point","coordinates":[6.09913,43.23408]},"properties":{"nom":"Hôtel restaurant Le Mas du Lingousto","sub":"HotelRestaurant","cm":"83390#Cuers","web":"http://www.lingousto.fr/","uri":"https://data.datatourisme.fr/13/f74541c4-46dc-390c-aef1-5ec81a0838bd","dept":"83","reg":"pac"}},{"type":"Feature","geometry":{"type":"Point","coordinates":[6.24839,43.13527]},"properties":{"nom":"Azureva","sub":"HotelRestaurant","cm":"83250#La Londe-les-Maures","web":"https://www.azureva-vacances.com/fr/village-vacances/la-londe-les-maures","uri":"https://data.datatourisme.fr/13/2815e2c1-d553-3cd9-b70c-5d5de75b8dfc","dept":"83","reg":"pac"}},{"type":"Feature","geometry":{"type":"Point","coordinates":[6.24839,43.13527]},"properties":{"nom":"Azureva","sub":"CollectiveAccommodation","cm":"83250#La Londe-les-Maures","web":"https://www.azureva-vacances.com/fr/village-vacances/la-londe-les-maures","uri":"https://data.datatourisme.fr/13/12e0edc6-31b3-38cd-9a44-971ba620ff4d","dept":"83","reg":"pac"}},{"type":"Feature","geometry":{"type":"Point","coordinates":[6.30692,43.23665]},"properties":{"nom":"Hôtel Notre Dame","sub":"HotelRestaurant","cm":"83610#Collobrières","web":"https://www.hotel-collobrieres.com/","uri":"https://data.datatourisme.fr/13/2bf45876-2fcb-3f6b-b6bc-4c886cbd2300","dept":"83","reg":"pac"}},{"type":"Feature","geometry":{"type":"Point","coordinates":[6.23642,43.11364]},"properties":{"nom":"Camping Le Pansard","sub":"Camping","cm":"83250#La Londe-les-Maures","web":"http://www.camping-pansard.com/","uri":"https://data.datatourisme.fr/13/3851f566-eeec-3700-93f6-8299aed80e56","dept":"83","reg":"pac"}},{"type":"Feature","geometry":{"type":"Point","coordinates":[6.25097,43.14764]},"properties":{"nom":"Château Maravenne","sub":"LodgingBusiness","cm":"83250#La Londe-les-Maures","web":"http://www.maravenne.com/","uri":"https://data.datatourisme.fr/13/3aac0385-dd07-3747-b3e1-fbc0722d6969","dept":"83","reg":"pac"}},{"type":"Feature","geometry":{"type":"Point","coordinates":[6.25092,43.14782]},"properties":{"nom":"Château Maravenne","sub":"BedAndBreakfast","cm":"83250#La Londe-les-Maures","web":"http://www.maravenne.com/","uri":"https://data.datatourisme.fr/13/7c59e173-04d9-355c-8223-41b2e68309ba","dept":"83","reg":"pac"}},{"type":"Feature","geometry":{"type":"Point","coordinates":[6.25084,43.14747]},"properties":{"nom":"Gîte Porquerolles - 46 m²  - 6 pers","sub":"LodgingBusiness","cm":"83250#La Londe-les-Maures","web":"http://www.maravenne.com/","uri":"https://data.datatourisme.fr/13/9e04b4c6-bead-37b7-8a2d-7a16b9431f55","dept":"83","reg":"pac"}},{"type":"Feature","geometry":{"type":"Point","coordinates":[6.21657,43.1311]},"properties":{"nom":"Camping Les Jardins de La Pascalinette","sub":"Camping","cm":"83250#La Londe-les-Maures","web":"http://www.lapascalinette.fr/","uri":"https://data.datatourisme.fr/13/41903876-2580-3caa-a1be-f7ccaa9bea68","dept":"83","reg":"pac"}},{"type":"Feature","geometry":{"type":"Point","coordinates":[6.14331,43.22721]},"properties":{"nom":"Hôtel restaurant La Clé des Songes","sub":"HotelRestaurant","cm":"83390#Pierrefeu-du-Var","web":"http://www.la-cle-des-songes.fr/","uri":"https://data.datatourisme.fr/13/6535443c-6f50-314e-9d1e-a1741f3bcb38","dept":"83","reg":"pac"}},{"type":"Feature","geometry":{"type":"Point","coordinates":[6.30338,43.14918]},"properties":{"nom":"Les Jardins de Bormes","sub":"Hotel","cm":"83230#Bormes-les-Mimosas","web":"https://www.les-jardins-de-bormes.com/fr","uri":"https://data.datatourisme.fr/13/46c3ddf1-32f0-367a-a577-b607f86ddff9","dept":"83","reg":"pac"}},{"type":"Feature","geometry":{"type":"Point","coordinates":[6.01954,43.09847]},"properties":{"nom":"Camping l'Hermitage","sub":"Camping","cm":"83220#Le Pradet","web":"http://www.camping-hermitage.com/","uri":"https://data.datatourisme.fr/13/8ffc9f1e-1436-3a19-a825-9a21996c7b0d","dept":"83","reg":"pac"}},{"type":"Feature","geometry":{"type":"Point","coordinates":[6.04312,43.10736]},"properties":{"nom":"Camping Lou Pantai","sub":"Camping","cm":"83220#Le Pradet","web":"https://campingloupantai.com/","uri":"https://data.datatourisme.fr/13/6d8b46c9-853e-341d-9490-75c8956243f2","dept":"83","reg":"pac"}},{"type":"Feature","geometry":{"type":"Point","coordinates":[6.69452,43.40436]},"properties":{"nom":"Château Vaudois réception","sub":"Rental","cm":"83520#Roquebrune-sur-Argens","web":"http://www.chateau-vaudois.com/","uri":"https://data.datatourisme.fr/13/d5f9067b-9d86-3baa-8375-de3a8cc49de0","dept":"83","reg":"pac"}},{"type":"Feature","geometry":{"type":"Point","coordinates":[6.34985,43.1299]},"properties":{"nom":"Camping Le Grand Batailler","sub":"Camping","cm":"83230#Bormes-les-Mimosas","web":"http://www.campingdugrandbatailler.com/","uri":"https://data.datatourisme.fr/13/5c888673-50bf-336c-b1a3-438f928e3aa4","dept":"83","reg":"pac"}},{"type":"Feature","geometry":{"type":"Point","coordinates":[6.62193,43.26396]},"properties":{"nom":"La Villa Dune Hotel & Spa Nuxe","sub":"Hotel","cm":"83580#Gassin","web":"https://www.lavilladune.fr/","uri":"https://data.datatourisme.fr/13/a0feaa65-c2e2-323a-bf87-cecdbc620e8a","dept":"83","reg":"pac"}},{"type":"Feature","geometry":{"type":"Point","coordinates":[5.93511,43.64149]},"properties":{"nom":"Camping de La Verdière","sub":"Camping","cm":"83560#La Verdière","web":"https://www.camping-la-verdiere-83.com/","uri":"https://data.datatourisme.fr/13/9ef677cf-ab7f-355d-bbd2-f1ec1b586a01","dept":"83","reg":"pac"}},{"type":"Feature","geometry":{"type":"Point","coordinates":[6.05941,43.40681]},"properties":{"nom":"Le Provence","sub":"HotelRestaurant","cm":"83170#Brignoles","web":"https://hoteldeprovencebrignoles.fr/","uri":"https://data.datatourisme.fr/13/1cdc7792-f4c5-3cf2-8143-9dd1dce88125","dept":"83","reg":"pac"}},{"type":"Feature","geometry":{"type":"Point","coordinates":[6.07581,43.08749]},"properties":{"nom":"Le Richiardi","sub":"Hotel","cm":"83320#Carqueiranne","web":"http://www.hotelrichiardi.com/","uri":"https://data.datatourisme.fr/13/a7390d16-ab7e-377a-8736-3e70da5ada18","dept":"83","reg":"pac"}},{"type":"Feature","geometry":{"type":"Point","coordinates":[6.02389,43.08174]},"properties":{"nom":"Camping Les Oursinières . Vacances André Trigano","sub":"Camping","cm":"83220#Le Pradet","web":"https://vacances-andretrigano.com/camping/var/les-oursinieres-le-pradet","uri":"https://data.datatourisme.fr/13/aacbb68d-587c-3c77-a1a5-218ae0dd5369","dept":"83","reg":"pac"}},{"type":"Feature","geometry":{"type":"Point","coordinates":[6.35772,43.1258]},"properties":{"nom":"Hôtel La Voile","sub":"Hotel","cm":"83230#Bormes-les-Mimosas","web":"https://www.hotellavoile.fr/fr/","uri":"https://data.datatourisme.fr/13/c4005563-6204-350b-97c1-c3f65ae18176","dept":"83","reg":"pac"}},{"type":"Feature","geometry":{"type":"Point","coordinates":[6.52077,43.17073]},"properties":{"nom":"Camping de la Treille","sub":"Camping","cm":"83240#Cavalaire-sur-Mer","web":"http://www.campingdelatreille.com/","uri":"https://data.datatourisme.fr/13/ba35616d-457d-33bb-8210-b34024e0a4ca","dept":"83","reg":"pac"}},{"type":"Feature","geometry":{"type":"Point","coordinates":[6.60777,43.32712]},"properties":{"nom":"B&B Hôtel","sub":"Hotel","cm":"83120#Sainte-Maxime","web":"https://www.hotel-bb.com/fr/hotel/sainte-maxime","uri":"https://data.datatourisme.fr/13/1c7b0db8-96ad-3c26-8897-a45041031651","dept":"83","reg":"pac"}},{"type":"Feature","geometry":{"type":"Point","coordinates":[6.72668,43.44559]},"properties":{"nom":"Sandaya Domaine du Colombier","sub":"Camping","cm":"83600#Fréjus","web":"https://www.sandaya.fr/nos-campings/domaine-du-colombier/nos-locations","uri":"https://data.datatourisme.fr/13/fd3b40de-870e-30ef-b454-c458f90de9d5","dept":"83","reg":"pac"}},{"type":"Feature","geometry":{"type":"Point","coordinates":[5.84769,43.67302]},"properties":{"nom":"Camping de Ginasservis","sub":"Camping","cm":"83560#Ginasservis","web":"https://www.camping-ginasservis.fr/","uri":"https://data.datatourisme.fr/13/9bae051c-ab97-3ae9-8682-54e6f375ac45","dept":"83","reg":"pac"}},{"type":"Feature","geometry":{"type":"Point","coordinates":[6.76941,43.42214]},"properties":{"nom":"Nouvel Hôtel","sub":"Hotel","cm":"83700#Saint-Raphaël","web":"http://www.nouvelhotel.net/","uri":"https://data.datatourisme.fr/13/153908f4-97a3-31be-a0a6-e11c184478d8","dept":"83","reg":"pac"}},{"type":"Feature","geometry":{"type":"Point","coordinates":[6.63999,43.47759]},"properties":{"nom":"Camping Leï Suves","sub":"Camping","cm":"83520#Roquebrune-sur-Argens","web":"http://www.lei-suves.com/","uri":"https://data.datatourisme.fr/13/fcc76a03-e817-31e9-8268-0c38932a4930","dept":"83","reg":"pac"}},{"type":"Feature","geometry":{"type":"Point","coordinates":[6.4262,43.152]},"properties":{"nom":"Grand Hôtel Moriaz","sub":"Hotel","cm":"83980#Le Lavandou","web":"https://www.grandhotelmoriaz.com/","uri":"https://data.datatourisme.fr/13/aeea1fa4-c15d-3595-a58f-22d09597ab3d","dept":"83","reg":"pac"}},{"type":"Feature","geometry":{"type":"Point","coordinates":[6.049,43.10798]},"properties":{"nom":"Camping les Palmiers","sub":"Camping","cm":"83320#Carqueiranne","web":"https://campinglespalmiers.hubside.fr/","uri":"https://data.datatourisme.fr/13/afeea664-3f7c-351e-bbaf-5a31e9b5ed6e","dept":"83","reg":"pac"}},{"type":"Feature","geometry":{"type":"Point","coordinates":[6.6924,43.41092]},"properties":{"nom":"Camping de Vaudois","sub":"Camping","cm":"83520#Roquebrune-sur-Argens","web":"http://www.campingdevaudois.com/","uri":"https://data.datatourisme.fr/13/ccce3f69-0af7-3c0b-8939-43e624997a67","dept":"83","reg":"pac"}},{"type":"Feature","geometry":{"type":"Point","coordinates":[6.66942,43.26356]},"properties":{"nom":"Le Pré de la Mer","sub":"HotelRestaurant","cm":"83990#Saint-Tropez","web":"https://www.lepredelamer.fr/","uri":"https://data.datatourisme.fr/13/90ffb895-dc07-36f3-ba50-3281ff4d59d3","dept":"83","reg":"pac"}},{"type":"Feature","geometry":{"type":"Point","coordinates":[5.80997,43.11901]},"properties":{"nom":"Hôtel Best Western Plus Sanary","sub":"Hotel","cm":"83110#Sanary-sur-Mer","web":"https://hotel-sanary.fr/","uri":"https://data.datatourisme.fr/13/4dffa077-d3a8-3fb0-bcee-217179339ca9","dept":"83","reg":"pac"}},{"type":"Feature","geometry":{"type":"Point","coordinates":[5.67988,43.18668]},"properties":{"nom":"Les Dauphins","sub":"Camping","cm":"83270#Saint-Cyr-sur-Mer","web":"http://www.aec-vacances.com/","uri":"https://data.datatourisme.fr/13/9dbb1703-c25e-36f1-9979-11b8199f46b8","dept":"83","reg":"pac"}},{"type":"Feature","geometry":{"type":"Point","coordinates":[6.243,43.79624]},"properties":{"nom":"Le Galetas - FERME","sub":"Camping","cm":"83630#Aiguines","web":"https://campinglegaletas.wixsite.com/monsite","uri":"https://data.datatourisme.fr/13/0acd0c98-e528-399a-8a8e-a53a8eaaa385","dept":"83","reg":"pac"}},{"type":"Feature","geometry":{"type":"Point","coordinates":[6.21339,43.78161]},"properties":{"nom":"Les Ruisses","sub":"Camping","cm":"83630#Les Salles-sur-Verdon","web":"http://www.campinglesruisses.fr/","uri":"https://data.datatourisme.fr/13/1bba5840-cfbb-3e97-a172-cc1c17baef11","dept":"83","reg":"pac"}},{"type":"Feature","geometry":{"type":"Point","coordinates":[6.16452,43.09641]},"properties":{"nom":"Hôtel Plein Sud","sub":"Hotel","cm":"83400#Hyères","web":"http://www.vacancesbleues.fr/","uri":"https://data.datatourisme.fr/13/1d59233c-0d67-310a-87c4-139c3c1d2033","dept":"83","reg":"pac"}},{"type":"Feature","geometry":{"type":"Point","coordinates":[6.14624,43.0447]},"properties":{"nom":"Camping la Bergerie plage","sub":"Camping","cm":"83400#Hyères","web":"https://www.tikayan.com/fr/camping-la-bergerie-plage-accueil","uri":"https://data.datatourisme.fr/13/729e1040-04f1-3a29-a3d5-c3b00f761a60","dept":"83","reg":"pac"}},{"type":"Feature","geometry":{"type":"Point","coordinates":[6.11885,43.08195]},"properties":{"nom":"Hôtel Almanarre plage","sub":"Hotel","cm":"83400#Hyères","web":"http://www.hotel-almanarreplage.com/","uri":"https://data.datatourisme.fr/13/845ce8f5-1dec-3403-85a5-277736dd51b8","dept":"83","reg":"pac"}},{"type":"Feature","geometry":{"type":"Point","coordinates":[6.13117,43.03805]},"properties":{"nom":"Hôtel restaurants Le Provençal","sub":"Hotel","cm":"83400#Hyères","web":"http://www.provencalhotel.com/","uri":"https://data.datatourisme.fr/13/b8dfe714-6559-3ad0-8da4-64de8920df91","dept":"83","reg":"pac"}},{"type":"Feature","geometry":{"type":"Point","coordinates":[6.19584,43.71104]},"properties":{"nom":"Les Restanques","sub":"Camping","cm":"83630#Bauduen","web":"http://www.camping-gorge-verdon.com/fr/","uri":"https://data.datatourisme.fr/13/0aff625c-73dd-3508-bc49-c8fdaee15da3","dept":"83","reg":"pac"}},{"type":"Feature","geometry":{"type":"Point","coordinates":[6.46814,43.5341]},"properties":{"nom":"Hôtel Victoria","sub":"Hotel","cm":"83300#Draguignan","web":"http://www.hotel-victoria-draguignan.com/","uri":"https://data.datatourisme.fr/13/c04ff859-7bec-33e9-b822-40edb9f262a1","dept":"83","reg":"pac"}},{"type":"Feature","geometry":{"type":"Point","coordinates":[6.66108,43.47075]},"properties":{"nom":"Oasis Village - Parc Saint James *****","sub":"Camping","cm":"83480#Puget-sur-Argens","web":"https://montanaparc.com/villages-vacances/oasis-village/<>https://thelisresa.webcamp.fr/formulaire.php?TYPE_CAMPING=1&TYPE_LOCATION=2&camping=oasisvillage&simpleSearch=0&duration=7&typecamping=0&typelocation=1&type=2&version=2015&lang=fr&PHPSESSID=d3ke4ko2mk0igrcmo592h0e3ju&_ga=2.123058635.135483825.1583318561-1664346631.1580294347","uri":"https://data.datatourisme.fr/13/dae45e70-355a-35fd-af7d-afc853a3f10a","dept":"83","reg":"pac"}},{"type":"Feature","geometry":{"type":"Point","coordinates":[6.63667,43.27001]},"properties":{"nom":"Playa","sub":"Hotel","cm":"83990#Saint-Tropez","web":"http://www.playahotelsttropez.com/","uri":"https://data.datatourisme.fr/13/e411dcbf-6d6a-3d52-a7a2-d30b55a61d0a","dept":"83","reg":"pac"}},{"type":"Feature","geometry":{"type":"Point","coordinates":[6.58289,43.28042]},"properties":{"nom":"Les Prairies de la Mer","sub":"Camping","cm":"83310#Grimaud","web":"https://www.riviera-villages.com/Les-Prairies-de-la-Mer","uri":"https://data.datatourisme.fr/13/4b43a1ab-9db3-3795-bbc8-6b0c5a2f31cc","dept":"83","reg":"pac"}},{"type":"Feature","geometry":{"type":"Point","coordinates":[5.74955,43.13893]},"properties":{"nom":"Hôtel Villa Florida**","sub":"Hotel","cm":"83150#Bandol","web":"https://www.villaflorida.pro/","uri":"https://data.datatourisme.fr/13/a548bbd5-b572-3786-89a5-6a6bef04bc15","dept":"83","reg":"pac"}},{"type":"Feature","geometry":{"type":"Point","coordinates":[6.62827,43.26669]},"properties":{"nom":"Le Mouillage","sub":"Hotel","cm":"83990#Saint-Tropez","web":"http://www.hotelmouillage.fr/","uri":"https://data.datatourisme.fr/13/1a3cc1f0-3190-3dc7-8319-1fdad364e761","dept":"83","reg":"pac"}},{"type":"Feature","geometry":{"type":"Point","coordinates":[6.53809,43.26519]},"properties":{"nom":"Camping Tikayan Domaine du Golfe de Saint-Tropez","sub":"Camping","cm":"83310#Grimaud","web":"https://www.tikayan.com/fr/camping-domaine-du-golfe-de-saint-tropez-accueil","uri":"https://data.datatourisme.fr/13/5793d914-e5bc-3b28-9088-477bcecf2923","dept":"83","reg":"pac"}},{"type":"Feature","geometry":{"type":"Point","coordinates":[6.65726,43.25122]},"properties":{"nom":"La Garbine","sub":"Hotel","cm":"83350#Ramatuelle","web":"http://www.lagarbine.com/","uri":"https://data.datatourisme.fr/13/8b550f6d-7277-3bac-a7c3-916b7e8c1072","dept":"83","reg":"pac"}},{"type":"Feature","geometry":{"type":"Point","coordinates":[6.47358,43.44655]},"properties":{"nom":"Camping L'Eau Vive","sub":"Camping","cm":"83460#Les Arcs","web":"http://www.campingleauvive.fr/","uri":"https://data.datatourisme.fr/13/7978d715-3b7f-3997-b00a-e07a3be113be","dept":"83","reg":"pac"}},{"type":"Feature","geometry":{"type":"Point","coordinates":[6.50813,43.2721]},"properties":{"nom":"La Boulangerie","sub":"Hotel","cm":"83310#Grimaud","web":"https://hotellaboulangerie.com/","uri":"https://data.datatourisme.fr/13/1bad9feb-ddca-3da8-aa6b-0645c24ad65b","dept":"83","reg":"pac"}},{"type":"Feature","geometry":{"type":"Point","coordinates":[6.26385,43.12164]},"properties":{"nom":"Appartement - 31 m² - 3 pers","sub":"LodgingBusiness","cm":"83250#La Londe-les-Maures","web":null,"uri":"https://data.datatourisme.fr/13/dd2acab8-1a06-3b49-9147-a710533e93a7","dept":"83","reg":"pac"}},{"type":"Feature","geometry":{"type":"Point","coordinates":[6.63557,43.26984]},"properties":{"nom":"Hôtel de Paris Saint-Tropez","sub":"HotelRestaurant","cm":"83990#Saint-Tropez","web":"http://www.hoteldeparis-sainttropez.com/","uri":"https://data.datatourisme.fr/13/3e40bd0b-0ceb-328b-a5ad-797da434e764","dept":"83","reg":"pac"}},{"type":"Feature","geometry":{"type":"Point","coordinates":[6.76506,43.42476]},"properties":{"nom":"Unique Hôtel-Résidence & SPA","sub":"Hotel","cm":"83700#Saint-Raphaël","web":"http://www.unique-hotelsresidences.com/","uri":"https://data.datatourisme.fr/13/9632c11a-6365-3758-9d31-9d1e5b8dfb66","dept":"83","reg":"pac"}},{"type":"Feature","geometry":{"type":"Point","coordinates":[6.76506,43.42476]},"properties":{"nom":"Unique Hôtel-Résidence & SPA","sub":"HolidayResort","cm":"83700#Saint-Raphaël","web":"http://www.unique-hotelsresidences.com/","uri":"https://data.datatourisme.fr/13/eac5bf85-5b03-38c4-8266-9e93bb73814b","dept":"83","reg":"pac"}},{"type":"Feature","geometry":{"type":"Point","coordinates":[5.80612,43.11688]},"properties":{"nom":"Adonis Provence","sub":"Hotel","cm":"83110#Sanary-sur-Mer","web":"http://www.adonis-hotel-sanary.com/","uri":"https://data.datatourisme.fr/13/9ffca608-22b6-340d-90de-1dc813e19555","dept":"83","reg":"pac"}},{"type":"Feature","geometry":{"type":"Point","coordinates":[6.53903,43.24885]},"properties":{"nom":"Hôtel Ibis Golfe de Saint-Tropez","sub":"Hotel","cm":"83310#Cogolin","web":"http://www.accorhotels.com/fr/hotel-7240-ibis-golfe-de-saint-tropez/index.shtml","uri":"https://data.datatourisme.fr/13/b839a814-761b-3660-a0b2-f32096b6c370","dept":"83","reg":"pac"}},{"type":"Feature","geometry":{"type":"Point","coordinates":[6.73575,43.43228]},