{"type":"FeatureCollection","features":[{"type":"Feature","geometry":{"type":"Point","coordinates":[1.44293,45.91989]},"properties":{"nom":"Camping du Soleil Levant","sub":"Camping","cm":"87400#Saint-Martin-Terressus","web":"https://st-martin-terressus.fr/camping-municipal/","uri":"https://data.datatourisme.fr/23/24d62b79-933e-37eb-ad62-bbaf74344c8e","dept":"87","reg":"naq"}},{"type":"Feature","geometry":{"type":"Point","coordinates":[1.49118,45.82317]},"properties":{"nom":"Camping de Beaufort","sub":"Camping","cm":"87400#Saint-Léonard-de-Noblat","web":"https://www.campingdebeaufort.fr/","uri":"https://data.datatourisme.fr/23/87f7aa8e-6812-315e-b459-bfd2b02cf5d4","dept":"87","reg":"naq"}},{"type":"Feature","geometry":{"type":"Point","coordinates":[1.3707,46.11493]},"properties":{"nom":"Gîte de groupe Vauguenige","sub":"CollectiveAccommodation","cm":"87250#Saint-Pardoux-le-Lac","web":null,"uri":"https://data.datatourisme.fr/23/8e0ba662-37d8-3082-b324-48942cdcd565","dept":"87","reg":"naq"}},{"type":"Feature","geometry":{"type":"Point","coordinates":[1.27135,46.07336]},"properties":{"nom":"Vauguenige","sub":"BedAndBreakfast","cm":"87250#Saint-Pardoux-le-Lac","web":null,"uri":"https://data.datatourisme.fr/23/e37a761e-83f3-3c4d-9a06-844454588dc9","dept":"87","reg":"naq"}},{"type":"Feature","geometry":{"type":"Point","coordinates":[0.86265,46.17057]},"properties":{"nom":"Gîte de groupe Gîte de l'Isop","sub":"CollectiveAccommodation","cm":"87330#Saint-Martial-sur-Isop","web":"http://www.clos-isop.com/<>https://www.gites-de-france-hautevienne.fr/resa/etape1.php?NUM=87G2430&INSTANCE=gites87&OPE=LEI&ORI=LEI&&&&","uri":"https://data.datatourisme.fr/23/1953bd5f-3547-34fb-a0ff-cb877a7d4b43","dept":"87","reg":"naq"}},{"type":"Feature","geometry":{"type":"Point","coordinates":[0.86274,46.16941]},"properties":{"nom":"Les tipis de l'Isop","sub":"LodgingBusiness","cm":"87330#Saint-Martial-sur-Isop","web":"https://www.clos-isop.com/","uri":"https://data.datatourisme.fr/23/05653270-b4df-36f0-8808-2c788953f5e4","dept":"87","reg":"naq"}},{"type":"Feature","geometry":{"type":"Point","coordinates":[0.86288,46.17043]},"properties":{"nom":"Le Clos de l'Isop","sub":"BedAndBreakfast","cm":"87330#Saint-Martial-sur-Isop","web":"https://www.clos-isop.com/","uri":"https://data.datatourisme.fr/23/387bb2fd-9075-37bd-ab21-132e4e86421b","dept":"87","reg":"naq"}},{"type":"Feature","geometry":{"type":"Point","coordinates":[0.95438,46.10785]},"properties":{"nom":"Gîte de groupe La Beige","sub":"CollectiveAccommodation","cm":"87330#Val d'Issoire","web":"https://www.domainedelabeige.com/","uri":"https://data.datatourisme.fr/23/188f7213-51cc-320d-9218-bc76b55e30a8","dept":"87","reg":"naq"}},{"type":"Feature","geometry":{"type":"Point","coordinates":[1.51328,45.82489]},"properties":{"nom":"Chabant","sub":"BedAndBreakfast","cm":"87400#Saint-Léonard-de-Noblat","web":"https://www.gites-de-france-hautevienne.fr/cgi.php?&OPE=SIRTAQUI&ORI=SIRTAQUI&NUM=87G5718&ACC=H&FICHE=O&INSTANCE=gites87&","uri":"https://data.datatourisme.fr/23/bb6e7902-bc78-343c-bb7b-def16e22f84d","dept":"87","reg":"naq"}},{"type":"Feature","geometry":{"type":"Point","coordinates":[1.48967,45.83863]},"properties":{"nom":"La Route de St Jacques","sub":"BedAndBreakfast","cm":"87400#Saint-Léonard-de-Noblat","web":null,"uri":"https://data.datatourisme.fr/23/84a0cac3-3fcd-32cf-a3db-d9a5188c95e6","dept":"87","reg":"naq"}},{"type":"Feature","geometry":{"type":"Point","coordinates":[0.9758,45.65191]},"properties":{"nom":"Location de vélos - Espace Loisirs Voie Verte de Châlus","sub":"Rental","cm":"87230#Châlus","web":"https://www.voieverte-enlimousin.com/<>https://reservation.elloha.com/?IdPublication=748eea56-56fd-4f2a-8cfc-49847300a3a6&culture=fr-FR&idoi=4d6b7ad7-4238-4171-bf51-626a0f0273b0&searchFirstAvailableDates=1","uri":"https://data.datatourisme.fr/23/b7255886-73a8-37aa-b7fe-a714f9e82510","dept":"87","reg":"naq"}},{"type":"Feature","geometry":{"type":"Point","coordinates":[1.48899,45.83733]},"properties":{"nom":"Le Jardin des Lys","sub":"BedAndBreakfast","cm":"87400#Saint-Léonard-de-Noblat","web":"https://www.le-jardin-des-lys.com/fr/booking/room<>https://www.le-jardin-des-lys.com/<>https://www.le-jardin-des-lys.com/fr","uri":"https://data.datatourisme.fr/23/b25fc79a-f884-3ada-a919-855421f4694f","dept":"87","reg":"naq"}},{"type":"Feature","geometry":{"type":"Point","coordinates":[1.49015,45.83914]},"properties":{"nom":"Hôtel Restaurant Le Relais Saint Jacques","sub":"Hotel","cm":"87400#Saint-Léonard-de-Noblat","web":"https://www.lerelaissaintjacques.com/<>https://www.logishotels.com/fr/tarifs-et-disponibilites-chambre?lang=FR&partid=568&id=5195&fday=13&fmonth=4&fyear=2023&tday=14&tmonth=4&tyear=2023&lang=FR&partid=568&id=5195&nb_aldultes=undefined&action=resa&fday=13&fmonth=4&fyear=2023&tday=14&tmonth=4&tyear=2023&fday=13&fmonth=04&fyear=2023&DateIn=","uri":"https://data.datatourisme.fr/23/93e2f193-65be-3d21-8581-de8767e328c9","dept":"87","reg":"naq"}},{"type":"Feature","geometry":{"type":"Point","coordinates":[1.36649,45.61464]},"properties":{"nom":"Gîtes de France Mas Equilibre","sub":"CollectiveAccommodation","cm":"87380#Château-Chervix","web":"https://www.gites-de-france.com/fr/nouvelle-aquitaine/haute-vienne/mas-equilibre-87g6602","uri":"https://data.datatourisme.fr/23/c2ef62b8-035e-3266-a186-695ac7ba4081","dept":"87","reg":"naq"}},{"type":"Feature","geometry":{"type":"Point","coordinates":[1.1098,45.63885]},"properties":{"nom":"Chez Mémé Marie","sub":"LodgingBusiness","cm":"87800#Rilhac-Lastours","web":"https://www.gites-de-france-hautevienne.fr/cgi.php?&OPE=SIRTAQUI&ORI=SIRTAQUI&NUM=87G6330&ACC=G&FICHE=O&INSTANCE=gites87&","uri":"https://data.datatourisme.fr/23/d2302808-2a21-3896-b1c3-54f293b1b04d","dept":"87","reg":"naq"}},{"type":"Feature","geometry":{"type":"Point","coordinates":[1.36212,46.10324]},"properties":{"nom":"Hôtel restaurant Le Bellevue","sub":"Hotel","cm":"87250#Bessines-sur-Gartempe","web":"https://reservation.elloha.com/Search/Index/cbf1837f-3718-4678-bc1d-cce651fccdad?idoi=43b98055-7e1d-443f-9d99-50cafba8ffcf&searchFirstAvailableDates=1<>https://www.bellevue-restaurant-bessines-sur-gartrempe.fr/","uri":"https://data.datatourisme.fr/23/13283b36-841f-3f23-bf84-23cff6082db4","dept":"87","reg":"naq"}},{"type":"Feature","geometry":{"type":"Point","coordinates":[1.36702,46.10751]},"properties":{"nom":"The Originals City, Hôtel de France","sub":"Hotel","cm":"87250#Bessines-sur-Gartempe","web":"https://www.theoriginalshotels.com/hotels/de-france-bessines-sur-gartempe/book/accommodations<>https://www.theoriginalshotels.com/hotels/de-france-bessines-sur-gartempe","uri":"https://data.datatourisme.fr/23/1d5ca019-6c54-3116-a459-e625d5a9327c","dept":"87","reg":"naq"}},{"type":"Feature","geometry":{"type":"Point","coordinates":[1.77262,45.81592]},"properties":{"nom":"Hôtel-Bistro-Cafe- PMU Le Bellerive","sub":"Hotel","cm":"87470#Peyrat-le-Château","web":"https://reservation.elloha.com/?idPublication=befc3d8f-fd0a-4cc9-b6f8-eadc35d0d714&idoi=9e318684-a01c-44c5-af9a-03c0dc0a1dd6&culture=fr-FR&reload=1&searchFirstAvailableDates=1<>https://www.lebellerive.net/","uri":"https://data.datatourisme.fr/23/29bd185d-ea55-3ef8-8191-990781624bd0","dept":"87","reg":"naq"}},{"type":"Feature","geometry":{"type":"Point","coordinates":[1.84518,45.80129]},"properties":{"nom":"Hôtel-Restaurant La Caravelle","sub":"Hotel","cm":"87470#Peyrat-le-Château","web":"http://www.la-caravelle-vassiviere.fr/<>https://reservation.elloha.com/?IdPublication=903596f2-1c8f-4423-8686-d48babf59b2c&culture=fr-FR&idoi=c3c0c168-aa74-4a5a-84de-5b6634767d26&searchFirstAvailableDates=1","uri":"https://data.datatourisme.fr/23/096d4584-7480-3f17-b435-8f12d3af5a25","dept":"87","reg":"naq"}},{"type":"Feature","geometry":{"type":"Point","coordinates":[1.35855,45.69492]},"properties":{"nom":"Hôtel Restaurant Auberge Dupuytren","sub":"Hotel","cm":"87260#Pierre-Buffière","web":"https://reservation.elloha.com/Search/Index/cbf1837f-3718-4678-bc1d-cce651fccdad?idoi=c8398ca5-e856-4da0-aaa0-c130d20bcf7d&searchFirstAvailableDates=1<>https://www.hotel-limousin.fr/","uri":"https://data.datatourisme.fr/23/20e96ff9-db88-3434-9b85-19aa1a89506b","dept":"87","reg":"naq"}},{"type":"Feature","geometry":{"type":"Point","coordinates":[1.35852,45.69502]},"properties":{"nom":"Restaurant \"Auberge Dupuytren\"","sub":"HotelRestaurant","cm":"87260#Pierre-Buffière","web":"https://www.hotel-limousin.fr/","uri":"https://data.datatourisme.fr/23/8af648af-9615-3080-aeea-31b90501cdd9","dept":"87","reg":"naq"}},{"type":"Feature","geometry":{"type":"Point","coordinates":[1.74257,45.73969]},"properties":{"nom":"Hôtel-Restaurant Le Relais du Haut Limousin","sub":"Hotel","cm":"87120#Eymoutiers","web":"https://reservation.elloha.com/Search/Index/cbf1837f-3718-4678-bc1d-cce651fccdad?idoi=10dba946-ffde-4db9-8a43-9468426cc9da&searchFirstAvailableDates=1<>https://www.relaisduhautlimousin.com/","uri":"https://data.datatourisme.fr/23/80f51c7a-66cd-3622-8127-eb37d302df5c","dept":"87","reg":"naq"}},{"type":"Feature","geometry":{"type":"Point","coordinates":[1.26112,45.83224]},"properties":{"nom":"Hôtel Mercure Limoges Centre","sub":"Hotel","cm":"87000#Limoges","web":"https://reservation.elloha.com/Search/Index/cbf1837f-3718-4678-bc1d-cce651fccdad?idoi=6e5d15cd-121c-4337-b393-c36c329bf51d&searchFirstAvailableDates=1<>https://all.accor.com/hotel/5955/index.fr.shtml","uri":"https://data.datatourisme.fr/23/9dc72f50-794d-3372-9e09-7c2eafbc819d","dept":"87","reg":"naq"}},{"type":"Feature","geometry":{"type":"Point","coordinates":[1.28585,45.81217]},"properties":{"nom":"Domaine Golf Saint Lazare","sub":"Hotel","cm":"87000#Limoges","web":"https://reservation.elloha.com/Search/Index/cbf1837f-3718-4678-bc1d-cce651fccdad?idoi=ec2f516e-04f8-4b7c-a8f0-c82415045d85&searchFirstAvailableDates=1<>https://ledomainedugolf.fr/hotelchambres/","uri":"https://data.datatourisme.fr/23/01030ef0-70ff-364a-a2c7-f6b7dd5ae5fd","dept":"87","reg":"naq"}},{"type":"Feature","geometry":{"type":"Point","coordinates":[1.28585,45.81217]},"properties":{"nom":"Restaurant Le Golf Saint Lazare","sub":"HotelRestaurant","cm":"87000#Limoges","web":"https://golfsaintlazare.fr/","uri":"https://data.datatourisme.fr/23/63a45f0a-7665-34ca-919a-4c5f0482a56c","dept":"87","reg":"naq"}},{"type":"Feature","geometry":{"type":"Point","coordinates":[0.89459,45.88542]},"properties":{"nom":"Hôtel Restaurant Le Relais de Comodoliac","sub":"Hotel","cm":"87200#Saint-Junien","web":"https://www.comodoliac.com/<>https://premium.logishotels.com/fo/booking/233/365/dates?specialMode=default&langcode=FR&m=booking","uri":"https://data.datatourisme.fr/23/1289fda5-ccd2-3ea0-91de-f01aac45b59c","dept":"87","reg":"naq"}},{"type":"Feature","geometry":{"type":"Point","coordinates":[1.33515,46.00554]},"properties":{"nom":"Camping Les Roussilles","sub":"Camping","cm":"87240#Saint-Sylvestre","web":"https://reservation.secureholiday.net/fr/18309/?fbclid=IwAR1-ze_hprEfE2DvmHPDkZ6Zy20k14M0-dUY4ypyCaXH06E5apeCw4OvZis_aem_AZq34DPHs7yvLmi7lXJ4zETHYVRNxSjKjoya5gWEsbQbNPmpXoWfY9T9bItGhBwCTUmrMdKM11qm-2Pwa-4u66JY<>https://www.lesroussilles.com/","uri":"https://data.datatourisme.fr/23/8de7931d-1d22-3773-9efe-f9e30240fba5","dept":"87","reg":"naq"}},{"type":"Feature","geometry":{"type":"Point","coordinates":[1.41345,45.97133]},"properties":{"nom":"Camping L'Ecrin Nature","sub":"Camping","cm":"87240#Ambazac","web":"https://www.campinglecrinnature.com/<>https://www.campinglecrinnature.com/fr/reservation/","uri":"https://data.datatourisme.fr/23/d3fc2593-9cae-3407-874c-3e2ff26bc6f7","dept":"87","reg":"naq"}},{"type":"Feature","geometry":{"type":"Point","coordinates":[1.15997,45.63541]},"properties":{"nom":"Camping L'Air du Lac","sub":"Camping","cm":"87800#Saint-Hilaire-les-Places","web":"https://reservation.secureholiday.net/fr/8092/search/product-list?searchType=exact&productType=all&_gl=1%2Aiyn0ap%2A_ga%2ANDEwMjk1NTg1LjE1ODI2NDU3NDQ.%2A_ga_TCR4J2ZSDJ%2AMTcwMDQ3NjI0NS41MC4xLjE3MDA0NzYyODEuMC4wLjA.&filterStatus=showPeriod<>https://www.campinglairdulac.com/","uri":"https://data.datatourisme.fr/23/feba80e8-684c-3e21-8df4-21367b47233e","dept":"87","reg":"naq"}},{"type":"Feature","geometry":{"type":"Point","coordinates":[1.16094,45.63493]},"properties":{"nom":"Aire d'accueil Camping-car Park","sub":"CampingAndCaravanning","cm":"87800#Saint-Hilaire-les-Places","web":"https://www.campingcarpark.com/fr_FR/sejour/aire-etape-camping-car/nouvelle-aquitaine/87-haute-vienne/saint-hilaire-les-places","uri":"https://data.datatourisme.fr/23/811a492b-c2fb-3ea0-a629-8f3067c7eb09","dept":"87","reg":"naq"}},{"type":"Feature","geometry":{"type":"Point","coordinates":[1.16032,45.63463]},"properties":{"nom":"Gîte duo - Camping L'Air du Lac","sub":"LodgingBusiness","cm":"87800#Saint-Hilaire-les-Places","web":"https://campinglairdulac.com/<>https://reservation.secureholiday.net/fr/8092/","uri":"https://data.datatourisme.fr/23/83df7bb5-941c-3e94-816f-dfe2f9e9d680","dept":"87","reg":"naq"}},{"type":"Feature","geometry":{"type":"Point","coordinates":[1.16032,45.63463]},"properties":{"nom":"Gîte tribu - Camping L'Air du Lac","sub":"LodgingBusiness","cm":"87800#Saint-Hilaire-les-Places","web":"https://campinglairdulac.com/<>https://reservation.secureholiday.net/fr/8092/","uri":"https://data.datatourisme.fr/23/8560ff61-d344-3a78-97e4-36b28fece7e6","dept":"87","reg":"naq"}},{"type":"Feature","geometry":{"type":"Point","coordinates":[1.16032,45.63463]},"properties":{"nom":"Gîte au bord du lac - Camping L'Air du Lac","sub":"LodgingBusiness","cm":"87800#Saint-Hilaire-les-Places","web":"https://campinglairdulac.com/<>https://reservation.secureholiday.net/fr/8092/","uri":"https://data.datatourisme.fr/23/89b07b9c-dbb0-3edf-9f3b-b8ecc4413eb1","dept":"87","reg":"naq"}},{"type":"Feature","geometry":{"type":"Point","coordinates":[1.16032,45.63463]},"properties":{"nom":"Gîte famille - Camping L'Air du Lac","sub":"LodgingBusiness","cm":"87800#Saint-Hilaire-les-Places","web":"https://campinglairdulac.com/<>https://reservation.secureholiday.net/fr/8092/","uri":"https://data.datatourisme.fr/23/f39cb6f2-ad81-3a85-856d-ed12d26425c6","dept":"87","reg":"naq"}},{"type":"Feature","geometry":{"type":"Point","coordinates":[1.50153,45.61225]},"properties":{"nom":"Camping de Montréal","sub":"Camping","cm":"87380#Saint-Germain-les-Belles","web":"http://www.campingdemontreal.com/","uri":"https://data.datatourisme.fr/23/3382cd4b-998f-391c-b612-10825e2b91f1","dept":"87","reg":"naq"}},{"type":"Feature","geometry":{"type":"Point","coordinates":[1.51481,45.94297]},"properties":{"nom":"Camping Au Pont du Dognon","sub":"Camping","cm":"87240#Saint-Laurent-les-Églises","web":"https://reservation.elloha.com/?idPublication=0b21644b-d3cd-4407-bd9a-cf28c3733e08&idoi=cdcf273d-0c00-44b7-8379-7c9681ff8dc6&culture=fr-FR&reload=1&searchFirstAvailableDates=1<>http://www.campingdognon.com/","uri":"https://data.datatourisme.fr/23/aac4e5a5-4e94-316f-bca4-0721dd855c30","dept":"87","reg":"naq"}},{"type":"Feature","geometry":{"type":"Point","coordinates":[0.8177,45.81302]},"properties":{"nom":"Camping de la Météorite","sub":"Camping","cm":"87600#Rochechouart","web":"https://campingmeteor.fr/","uri":"https://data.datatourisme.fr/23/160b185f-08e0-3df4-8e26-73f169b78c7d","dept":"87","reg":"naq"}},{"type":"Feature","geometry":{"type":"Point","coordinates":[1.18042,45.67105]},"properties":{"nom":"Camping de la Lande","sub":"Camping","cm":"87800#Nexon","web":"https://reservation.elloha.com/?idPublication=cbf1837f-3718-4678-bc1d-cce651fccdad&idoi=131b001c-736c-467c-8437-8e019ce84bd2&culture=fr-FR&reload=1&searchFirstAvailableDates=1<>https://www.camping-nexon.fr/<>https://www.camping-nexon.fr/reservation-en-ligne.html","uri":"https://data.datatourisme.fr/23/5c47430a-60ad-34e4-94b8-8bbf9514d9bf","dept":"87","reg":"naq"}},{"type":"Feature","geometry":{"type":"Point","coordinates":[1.03141,45.61509]},"properties":{"nom":"Camping de l'Espace Hermeline","sub":"Camping","cm":"87230#Bussière-Galant","web":"https://espace-hermeline.com/","uri":"https://data.datatourisme.fr/23/bd8d1923-9a95-3296-ac97-a918f0508483","dept":"87","reg":"naq"}},{"type":"Feature","geometry":{"type":"Point","coordinates":[1.0954,45.77818]},"properties":{"nom":"Hôtel restaurant Le Relais des Tuileries","sub":"Hotel","cm":"87620#Séreilhac","web":"https://www.relais-tuileries.fr/<>https://www.relais-tuileries.fr/hotel/","uri":"https://data.datatourisme.fr/23/248472c3-ff8a-39e9-80a6-dedcc39fa4fc","dept":"87","reg":"naq"}},{"type":"Feature","geometry":{"type":"Point","coordinates":[1.26362,45.83128]},"properties":{"nom":"Hôtel de la Paix","sub":"Hotel","cm":"87000#Limoges","web":"https://hoteldelapaixlimoges.fr/","uri":"https://data.datatourisme.fr/23/55f8c410-8aaf-3a06-9c82-8777dbe574f9","dept":"87","reg":"naq"}},{"type":"Feature","geometry":{"type":"Point","coordinates":[1.29126,45.88626]},"properties":{"nom":"Hôtel Kyriad Direct Limoges Nord","sub":"Hotel","cm":"87280#Limoges","web":"https://direct-limoges-nord.kyriad.com/fr-fr/#L'H%C3%B4tel","uri":"https://data.datatourisme.fr/23/0681427b-aab6-36b5-9406-b69cdd61ac41","dept":"87","reg":"naq"}},{"type":"Feature","geometry":{"type":"Point","coordinates":[1.25998,45.8363]},"properties":{"nom":"Contact Hôtel Limoges - Hôtel des Deux Moulins","sub":"Hotel","cm":"87000#Limoges","web":"https://www.hotel-limoges.com/","uri":"https://data.datatourisme.fr/23/0ae00893-fcf5-32aa-9a5a-9535d802e41d","dept":"87","reg":"naq"}},{"type":"Feature","geometry":{"type":"Point","coordinates":[1.17406,45.86138]},"properties":{"nom":"Cit'Hôtel Les Alizés","sub":"Hotel","cm":"87100#Limoges","web":"https://reservation.elloha.com/Search/Index/cbf1837f-3718-4678-bc1d-cce651fccdad?idoi=5f81350c-cd86-4ce0-86c3-a6aba90e1d35&searchFirstAvailableDates=1<>https://www.lesalizes-hotel.fr/","uri":"https://data.datatourisme.fr/23/1a2594d8-68d8-385e-a1e7-047a3c4e4493","dept":"87","reg":"naq"}},{"type":"Feature","geometry":{"type":"Point","coordinates":[1.26609,45.83723]},"properties":{"nom":"Hotel Restaurant de la Poste","sub":"Hotel","cm":"87100#Limoges","web":"https://reservation.elloha.com/Search/Index/cbf1837f-3718-4678-bc1d-cce651fccdad?idoi=15153d74-4a75-430d-bf39-91d57f2746da&searchFirstAvailableDates=1<>https://www.hotel-poste-limoges.fr/","uri":"https://data.datatourisme.fr/23/1bd1963f-e48f-35d0-b24a-f4c9fa4cee9d","dept":"87","reg":"naq"}},{"type":"Feature","geometry":{"type":"Point","coordinates":[1.26969,45.86446]},"properties":{"nom":"Hôtel Restaurant Campanile Limoges Nord","sub":"Hotel","cm":"87000#Limoges","web":"https://reservation.elloha.com/Search/Index/cbf1837f-3718-4678-bc1d-cce651fccdad?idoi=2effa1c1-e7ce-41ef-b91d-78883f135d7a&searchFirstAvailableDates=1<>https://limoges-nord.campanile.com/fr-fr/","uri":"https://data.datatourisme.fr/23/c2934d88-2d7e-38c1-8bb5-8bc34f7374e3","dept":"87","reg":"naq"}},{"type":"Feature","geometry":{"type":"Point","coordinates":[1.30497,45.80773]},"properties":{"nom":"Sure Hôtel by B.W","sub":"Hotel","cm":"87220#Feytiat","web":"https://reservation.elloha.com/Search/Index/cbf1837f-3718-4678-bc1d-cce651fccdad?idoi=f95fba76-18f0-40c8-b9e5-29fb52a1bf1e&searchFirstAvailableDates=1<>https://surehotel-limoges-sud.com/","uri":"https://data.datatourisme.fr/23/c68ce446-1ec2-3596-8ac0-68b794fbf31c","dept":"87","reg":"naq"}},{"type":"Feature","geometry":{"type":"Point","coordinates":[1.25511,45.83258]},"properties":{"nom":"Hôtel Ibis Limoges Centre","sub":"Hotel","cm":"87000#Limoges","web":"https://all.accor.com/ssr/app/accor/rates/0881/index.fr.shtml?dateIn=2021-10-22&nights=1&compositions=1&stayplus=false<>https://reservation.elloha.com/Search/Index/cbf1837f-3718-4678-bc1d-cce651fccdad?idoi=0e189d9b-59a4-49b7-b1b7-2a1604575e56&searchFirstAvailableDates=1<>https://all.accor.com/ssr/app/accor/rates/0881/index.fr.shtml?compositions=1&dateIn=2024-09-13&nights=1&hideHotelDetails=false&hideWDR=false&destination=limoges-france","uri":"https://data.datatourisme.fr/23/c9326f77-f802-3086-94b1-fba056234d96","dept":"87","reg":"naq"}},{"type":"Feature","geometry":{"type":"Point","coordinates":[1.12649,45.84391]},"properties":{"nom":"Verdoyer","sub":"LodgingBusiness","cm":"87430#Verneuil-sur-Vienne","web":"https://www.gites-de-france-hautevienne.fr/cgi.php?&OPE=SIRTAQUI&ORI=SIRTAQUI&NUM=87G9517&ACC=G&FICHE=O&INSTANCE=gites87&","uri":"https://data.datatourisme.fr/23/23245c88-18b5-3131-9954-8c97800b8c1c","dept":"87","reg":"naq"}},{"type":"Feature","geometry":{"type":"Point","coordinates":[1.12592,45.84414]},"properties":{"nom":"Merlie","sub":"LodgingBusiness","cm":"87430#Verneuil-sur-Vienne","web":"https://www.gites-de-france-hautevienne.fr/cgi.php?&OPE=SIRTAQUI&ORI=SIRTAQUI&NUM=87G9523&ACC=G&FICHE=O&INSTANCE=gites87&","uri":"https://data.datatourisme.fr/23/28dfed53-ae5b-31ea-a22e-8dcec14db7e2","dept":"87","reg":"naq"}},{"type":"Feature","geometry":{"type":"Point","coordinates":[1.12685,45.84424]},"properties":{"nom":"Essarts","sub":"LodgingBusiness","cm":"87430#Verneuil-sur-Vienne","web":"https://www.gites-de-france-hautevienne.fr/cgi.php?&OPE=SIRTAQUI&ORI=SIRTAQUI&NUM=87G9510&ACC=G&FICHE=O&INSTANCE=gites87&","uri":"https://data.datatourisme.fr/23/cd4a061a-150a-33c9-8e5b-57b85f25bdef","dept":"87","reg":"naq"}},{"type":"Feature","geometry":{"type":"Point","coordinates":[1.12693,45.84398]},"properties":{"nom":"Loutre","sub":"LodgingBusiness","cm":"87430#Verneuil-sur-Vienne","web":"https://www.gites-de-france-hautevienne.fr/cgi.php?&OPE=SIRTAQUI&ORI=SIRTAQUI&NUM=87G9514&ACC=G&FICHE=O&INSTANCE=gites87&","uri":"https://data.datatourisme.fr/23/7cf49986-8aeb-3bc7-8406-63d8fe3766b4","dept":"87","reg":"naq"}},{"type":"Feature","geometry":{"type":"Point","coordinates":[1.12718,45.84433]},"properties":{"nom":"Echo","sub":"LodgingBusiness","cm":"87430#Verneuil-sur-Vienne","web":"https://www.gites-de-france-hautevienne.fr/cgi.php?&OPE=SIRTAQUI&ORI=SIRTAQUI&NUM=87G9509&ACC=G&FICHE=O&INSTANCE=gites87&","uri":"https://data.datatourisme.fr/23/8a9ff18b-9216-3951-9f88-59b49c3ec190","dept":"87","reg":"naq"}},{"type":"Feature","geometry":{"type":"Point","coordinates":[1.12631,45.844]},"properties":{"nom":"Pré Poulou","sub":"LodgingBusiness","cm":"87430#Verneuil-sur-Vienne","web":"https://www.gites-de-france-hautevienne.fr/cgi.php?&OPE=SIRTAQUI&ORI=SIRTAQUI&NUM=87G9519&ACC=G&FICHE=O&INSTANCE=gites87&","uri":"https://data.datatourisme.fr/23/94974f2f-79db-3cbb-8121-7835a53b0324","dept":"87","reg":"naq"}},{"type":"Feature","geometry":{"type":"Point","coordinates":[1.12681,45.84452]},"properties":{"nom":"Chanceaux","sub":"LodgingBusiness","cm":"87430#Verneuil-sur-Vienne","web":"https://www.gites-de-france-hautevienne.fr/cgi.php?&OPE=SIRTAQUI&ORI=SIRTAQUI&NUM=87G9502&ACC=G&FICHE=O&INSTANCE=gites87&","uri":"https://data.datatourisme.fr/23/ffe778a9-0895-3225-aaa6-a5097c45c461","dept":"87","reg":"naq"}},{"type":"Feature","geometry":{"type":"Point","coordinates":[1.12582,45.84412]},"properties":{"nom":"Maillartre","sub":"LodgingBusiness","cm":"87430#Verneuil-sur-Vienne","web":"https://www.gites-de-france-hautevienne.fr/cgi.php?&OPE=SIRTAQUI&ORI=SIRTAQUI&NUM=87G9522&ACC=G&FICHE=O&INSTANCE=gites87&","uri":"https://data.datatourisme.fr/23/5d20f064-bf8a-32d6-ab37-00a28a63fb29","dept":"87","reg":"naq"}},{"type":"Feature","geometry":{"type":"Point","coordinates":[1.126,45.84404]},"properties":{"nom":"Mules","sub":"LodgingBusiness","cm":"87430#Verneuil-sur-Vienne","web":"https://www.gites-de-france-hautevienne.fr/cgi.php?&OPE=SIRTAQUI&ORI=SIRTAQUI&NUM=87G9521&ACC=G&FICHE=O&INSTANCE=gites87&","uri":"https://data.datatourisme.fr/23/770d7fcc-02e5-348f-8120-2ca11ab279c1","dept":"87","reg":"naq"}},{"type":"Feature","geometry":{"type":"Point","coordinates":[1.12708,45.84432]},"properties":{"nom":"Coquadou","sub":"LodgingBusiness","cm":"87430#Verneuil-sur-Vienne","web":"https://www.gites-de-france-hautevienne.fr/cgi.php?&OPE=SIRTAQUI&ORI=SIRTAQUI&NUM=87G9508&ACC=G&FICHE=O&INSTANCE=gites87&","uri":"https://data.datatourisme.fr/23/2fea7bed-5476-3c4d-a61f-d4dc5d9f04da","dept":"87","reg":"naq"}},{"type":"Feature","geometry":{"type":"Point","coordinates":[1.12668,45.84437]},"properties":{"nom":"Chaume","sub":"LodgingBusiness","cm":"87430#Verneuil-sur-Vienne","web":"https://www.gites-de-france-hautevienne.fr/cgi.php?&OPE=SIRTAQUI&ORI=SIRTAQUI&NUM=87G9506&ACC=G&FICHE=O&INSTANCE=gites87&","uri":"https://data.datatourisme.fr/23/158c728d-f3ac-369b-9dfd-5900725cc18e","dept":"87","reg":"naq"}},{"type":"Feature","geometry":{"type":"Point","coordinates":[1.127,45.84387]},"properties":{"nom":"Vignes","sub":"LodgingBusiness","cm":"87430#Verneuil-sur-Vienne","web":"https://www.gites-de-france-hautevienne.fr/cgi.php?&OPE=SIRTAQUI&ORI=SIRTAQUI&NUM=87G9515&ACC=G&FICHE=O&INSTANCE=gites87&","uri":"https://data.datatourisme.fr/23/1d717196-267e-3f78-b381-e722298d3b53","dept":"87","reg":"naq"}},{"type":"Feature","geometry":{"type":"Point","coordinates":[1.22311,45.88187]},"properties":{"nom":"La Garde","sub":"LodgingBusiness","cm":"87270#Couzeix","web":"https://www.gites-de-france-hautevienne.fr/cgi.php?&OPE=SIRTAQUI&ORI=SIRTAQUI&NUM=87G9093&ACC=G&FICHE=O&INSTANCE=gites87&","uri":"https://data.datatourisme.fr/23/d7d72cbd-8df6-39fc-b2b7-39c7002ac9f1","dept":"87","reg":"naq"}},{"type":"Feature","geometry":{"type":"Point","coordinates":[1.4494,46.07953]},"properties":{"nom":"La Chaize","sub":"LodgingBusiness","cm":"87370#Bersac-sur-Rivalier","web":"https://www.gites-de-france-hautevienne.fr/cgi.php?&OPE=SIRTAQUI&ORI=SIRTAQUI&NUM=87G4041&ACC=G&FICHE=O&INSTANCE=gites87&","uri":"https://data.datatourisme.fr/23/ca4ce25b-2d06-3912-b513-cc72cd52527e","dept":"87","reg":"naq"}},{"type":"Feature","geometry":{"type":"Point","coordinates":[1.3179,45.5113]},"properties":{"nom":"Gîte aux fleurs","sub":"LodgingBusiness","cm":"87500#Coussac-Bonneval","web":"https://www.gites-de-france-hautevienne.fr/cgi.php?&OPE=SIRTAQUI&ORI=SIRTAQUI&NUM=87G6043&ACC=G&FICHE=O&INSTANCE=gites87&","uri":"https://data.datatourisme.fr/23/d2774bdc-fd22-3dd6-94c3-82818dbdefdc","dept":"87","reg":"naq"}},{"type":"Feature","geometry":{"type":"Point","coordinates":[1.127,45.84415]},"properties":{"nom":"Gabie","sub":"LodgingBusiness","cm":"87430#Verneuil-sur-Vienne","web":"https://www.gites-de-france-hautevienne.fr/cgi.php?&OPE=SIRTAQUI&ORI=SIRTAQUI&NUM=87G9512&ACC=G&FICHE=O&INSTANCE=gites87&","uri":"https://data.datatourisme.fr/23/d7b8f81d-8f1a-32b3-9078-28ea642a5ee0","dept":"87","reg":"naq"}},{"type":"Feature","geometry":{"type":"Point","coordinates":[1.12677,45.84438]},"properties":{"nom":"Chérauds","sub":"LodgingBusiness","cm":"87430#Verneuil-sur-Vienne","web":"https://www.gites-de-france-hautevienne.fr/cgi.php?&OPE=SIRTAQUI&ORI=SIRTAQUI&NUM=87G9507&ACC=G&FICHE=O&INSTANCE=gites87&","uri":"https://data.datatourisme.fr/23/611f86e9-6ab3-342f-8e99-7a2cbe286b01","dept":"87","reg":"naq"}},{"type":"Feature","geometry":{"type":"Point","coordinates":[1.12693,45.8445]},"properties":{"nom":"Boilerie","sub":"LodgingBusiness","cm":"87430#Verneuil-sur-Vienne","web":"https://www.gites-de-france-hautevienne.fr/cgi.php?&OPE=SIRTAQUI&ORI=SIRTAQUI&NUM=87G9503&ACC=G&FICHE=O&INSTANCE=gites87&","uri":"https://data.datatourisme.fr/23/d9c3a57a-0132-36b2-aab8-fc612af81ce9","dept":"87","reg":"naq"}},{"type":"Feature","geometry":{"type":"Point","coordinates":[1.12661,45.84393]},"properties":{"nom":"Vazais","sub":"LodgingBusiness","cm":"87430#Verneuil-sur-Vienne","web":"https://www.gites-de-france-hautevienne.fr/cgi.php?&OPE=SIRTAQUI&ORI=SIRTAQUI&NUM=87G9516&ACC=G&FICHE=O&INSTANCE=gites87&","uri":"https://data.datatourisme.fr/23/1e0a3f7d-ed75-3f24-ade9-d777b53f2bc4","dept":"87","reg":"naq"}},{"type":"Feature","geometry":{"type":"Point","coordinates":[1.1268,45.84415]},"properties":{"nom":"Fûtier","sub":"LodgingBusiness","cm":"87430#Verneuil-sur-Vienne","web":"https://www.gites-de-france-hautevienne.fr/cgi.php?&OPE=SIRTAQUI&ORI=SIRTAQUI&NUM=87G9511&ACC=G&FICHE=O&INSTANCE=gites87&","uri":"https://data.datatourisme.fr/23/2934b787-f4c5-353c-bb07-91f4478ae5b8","dept":"87","reg":"naq"}},{"type":"Feature","geometry":{"type":"Point","coordinates":[1.12719,45.84454]},"properties":{"nom":"Bataudas","sub":"LodgingBusiness","cm":"87430#Verneuil-sur-Vienne","web":"https://www.gites-de-france-hautevienne.fr/cgi.php?&OPE=SIRTAQUI&ORI=SIRTAQUI&NUM=87G9505&ACC=G&FICHE=O&INSTANCE=gites87&","uri":"https://data.datatourisme.fr/23/30ddd00d-4b8b-3f70-8688-947d3bf8b833","dept":"87","reg":"naq"}},{"type":"Feature","geometry":{"type":"Point","coordinates":[1.12708,45.84451]},"properties":{"nom":"Betoulles","sub":"LodgingBusiness","cm":"87430#Verneuil-sur-Vienne","web":"https://www.gites-de-france-hautevienne.fr/cgi.php?&OPE=SIRTAQUI&ORI=SIRTAQUI&NUM=87G9504&ACC=G&FICHE=O&INSTANCE=gites87&","uri":"https://data.datatourisme.fr/23/3480a03d-534c-3acd-a31c-5371b891f192","dept":"87","reg":"naq"}},{"type":"Feature","geometry":{"type":"Point","coordinates":[1.1267,45.84453]},"properties":{"nom":"Chataignaux","sub":"LodgingBusiness","cm":"87430#Verneuil-sur-Vienne","web":"https://www.gites-de-france-hautevienne.fr/cgi.php?&OPE=SIRTAQUI&ORI=SIRTAQUI&NUM=87G9501&ACC=G&FICHE=O&INSTANCE=gites87&","uri":"https://data.datatourisme.fr/23/5cf14e74-7a92-3849-b030-7adb3cd30120","dept":"87","reg":"naq"}},{"type":"Feature","geometry":{"type":"Point","coordinates":[1.1271,45.84415]},"properties":{"nom":"Lavenaud","sub":"LodgingBusiness","cm":"87430#Verneuil-sur-Vienne","web":"https://www.gites-de-france-hautevienne.fr/cgi.php?&OPE=SIRTAQUI&ORI=SIRTAQUI&NUM=87G9513&ACC=G&FICHE=O&INSTANCE=gites87&","uri":"https://data.datatourisme.fr/23/85aaf454-0c99-391e-b7bd-4a6d9d0da0cd","dept":"87","reg":"naq"}},{"type":"Feature","geometry":{"type":"Point","coordinates":[1.12617,45.84399]},"properties":{"nom":"Peyroux","sub":"LodgingBusiness","cm":"87430#Verneuil-sur-Vienne","web":"https://www.gites-de-france-hautevienne.fr/cgi.php?&OPE=SIRTAQUI&ORI=SIRTAQUI&NUM=87G9520&ACC=G&FICHE=O&INSTANCE=gites87&","uri":"https://data.datatourisme.fr/23/1327affc-9676-331b-8a0f-f279026707a1","dept":"87","reg":"naq"}},{"type":"Feature","geometry":{"type":"Point","coordinates":[1.12641,45.84403]},"properties":{"nom":"Quatre Vents","sub":"LodgingBusiness","cm":"87430#Verneuil-sur-Vienne","web":"https://www.gites-de-france-hautevienne.fr/cgi.php?&OPE=SIRTAQUI&ORI=SIRTAQUI&NUM=87G9518&ACC=G&FICHE=O&INSTANCE=gites87&","uri":"https://data.datatourisme.fr/23/f7ff63cc-3731-3796-a8ad-fb42922b7304","dept":"87","reg":"naq"}},{"type":"Feature","geometry":{"type":"Point","coordinates":[0.93263,45.73283]},"properties":{"nom":"Cabane et emplacements à la ferme Ane et Carotte","sub":"Camping","cm":"87150#Champagnac-la-Rivière","web":"https://www.lafermeaneetcarotte.com/cabane-%C3%A0-la-ferme","uri":"https://data.datatourisme.fr/23/43e29a64-7eca-3846-9933-0c8f67a06b3a","dept":"87","reg":"naq"}},{"type":"Feature","geometry":{"type":"Point","coordinates":[1.15589,45.75249]},"properties":{"nom":"Petit Boucheron","sub":"LodgingBusiness","cm":"87700#Beynac","web":"https://www.gites-de-france-hautevienne.fr/cgi.php?&OPE=SIRTAQUI&ORI=SIRTAQUI&NUM=87G9021&ACC=G&FICHE=O&INSTANCE=gites87&","uri":"https://data.datatourisme.fr/23/61c97ce9-6ce1-32df-b8cf-010e77949c9f","dept":"87","reg":"naq"}},{"type":"Feature","geometry":{"type":"Point","coordinates":[1.15589,45.75249]},"properties":{"nom":"Boucheron","sub":"LodgingBusiness","cm":"87700#Beynac","web":"https://www.gites-de-france-hautevienne.fr/cgi.php?&OPE=SIRTAQUI&ORI=SIRTAQUI&NUM=87G9020&ACC=G&FICHE=O&INSTANCE=gites87&","uri":"https://data.datatourisme.fr/23/7f413a15-fa44-320b-ad93-d78b5c5443a3","dept":"87","reg":"naq"}},{"type":"Feature","geometry":{"type":"Point","coordinates":[1.07943,46.21938]},"properties":{"nom":"No.17 La scellerie","sub":"LodgingBusiness","cm":"87210#Le Dorat","web":"https://no17.promotemyplace.com/","uri":"https://data.datatourisme.fr/23/4f0449a0-9706-37f3-9d6f-296c4752cf9f","dept":"87","reg":"naq"}},{"type":"Feature","geometry":{"type":"Point","coordinates":[1.07951,46.21944]},"properties":{"nom":"No.17 L'écurie","sub":"LodgingBusiness","cm":"87210#Le Dorat","web":"https://gitesledorat.com/","uri":"https://data.datatourisme.fr/23/9d3af475-6d47-3a02-bb8c-d02e4c022d9e","dept":"87","reg":"naq"}},{"type":"Feature","geometry":{"type":"Point","coordinates":[1.28371,45.9319]},"properties":{"nom":"La Ferme de Leychoisier","sub":"BedAndBreakfast","cm":"87270#Bonnac-la-Côte","web":"https://chambres-limousin.com/","uri":"https://data.datatourisme.fr/23/5a1a4643-c0db-3215-86f2-af4c2b1057ac","dept":"87","reg":"naq"}},{"type":"Feature","geometry":{"type":"Point","coordinates":[1.3521,46.00631]},"properties":{"nom":"Le 1810","sub":"LodgingBusiness","cm":"87240#Saint-Sylvestre","web":"https://www.gites-de-france-hautevienne.fr/cgi.php?&OPE=SIRTAQUI&ORI=SIRTAQUI&NUM=87G4412&ACC=G&FICHE=O&INSTANCE=gites87&","uri":"https://data.datatourisme.fr/23/4f6a858e-ee99-31c1-a59b-35b855cbae73","dept":"87","reg":"naq"}},{"type":"Feature","geometry":{"type":"Point","coordinates":[1.0844,46.02326]},"properties":{"nom":"Le Bourg","sub":"LodgingBusiness","cm":"87140#Vaulry","web":"https://www.gites-de-france-hautevienne.fr/cgi.php?&OPE=SIRTAQUI&ORI=SIRTAQUI&NUM=87G2441&ACC=G&FICHE=O&INSTANCE=gites87&","uri":"https://data.datatourisme.fr/23/537dbae2-84f0-3377-a4f0-6f4c8134aa87","dept":"87","reg":"naq"}},{"type":"Feature","geometry":{"type":"Point","coordinates":[1.83107,45.77164]},"properties":{"nom":"Le Bourg - gîte n°5","sub":"LodgingBusiness","cm":"87120#Beaumont-du-Lac","web":"https://www.gites-de-france-hautevienne.fr/cgi.php?&OPE=SIRTAQUI&ORI=SIRTAQUI&NUM=87G5535&ACC=G&FICHE=O&INSTANCE=gites87&","uri":"https://data.datatourisme.fr/23/52079744-0b69-3d3f-b9c5-56df15002690","dept":"87","reg":"naq"}},{"type":"Feature","geometry":{"type":"Point","coordinates":[1.83151,45.77149]},"properties":{"nom":"Le Bourg - gîte n°1","sub":"LodgingBusiness","cm":"87120#Beaumont-du-Lac","web":"https://www.gites-de-france-hautevienne.fr/cgi.php?&OPE=SIRTAQUI&ORI=SIRTAQUI&NUM=87G5531&ACC=G&FICHE=O&INSTANCE=gites87&","uri":"https://data.datatourisme.fr/23/af1ec49c-79b5-35fa-a31e-71a941eb4177","dept":"87","reg":"naq"}},{"type":"Feature","geometry":{"type":"Point","coordinates":[1.83138,45.77166]},"properties":{"nom":"Le Bourg - gîte n°4","sub":"LodgingBusiness","cm":"87120#Beaumont-du-Lac","web":"https://www.gites-de-france-hautevienne.fr/cgi.php?&OPE=SIRTAQUI&ORI=SIRTAQUI&NUM=87G5534&ACC=G&FICHE=O&INSTANCE=gites87&","uri":"https://data.datatourisme.fr/23/305f8aff-1a1d-3dfe-be26-c0227852d04e","dept":"87","reg":"naq"}},{"type":"Feature","geometry":{"type":"Point","coordinates":[1.83104,45.77164]},"properties":{"nom":"Le Bourg - gîte n°6","sub":"LodgingBusiness","cm":"87120#Beaumont-du-Lac","web":"https://www.gites-de-france-hautevienne.fr/cgi.php?&OPE=SIRTAQUI&ORI=SIRTAQUI&NUM=87G5536&ACC=G&FICHE=O&INSTANCE=gites87&","uri":"https://data.datatourisme.fr/23/7fc33bbf-1d4e-3310-8192-79a507a22919","dept":"87","reg":"naq"}},{"type":"Feature","geometry":{"type":"Point","coordinates":[1.83139,45.77161]},"properties":{"nom":"Le Bourg - gîte n°3","sub":"LodgingBusiness","cm":"87120#Beaumont-du-Lac","web":"https://www.gites-de-france-hautevienne.fr/cgi.php?&OPE=SIRTAQUI&ORI=SIRTAQUI&NUM=87G5533&ACC=G&FICHE=O&INSTANCE=gites87&","uri":"https://data.datatourisme.fr/23/d11e04e1-2b20-3420-bc00-15a79c890378","dept":"87","reg":"naq"}},{"type":"Feature","geometry":{"type":"Point","coordinates":[1.83145,45.77145]},"properties":{"nom":"Le Bourg - gîte n°2","sub":"LodgingBusiness","cm":"87120#Beaumont-du-Lac","web":"https://www.gites-de-france-hautevienne.fr/cgi.php?&OPE=SIRTAQUI&ORI=SIRTAQUI&NUM=87G5532&ACC=G&FICHE=O&INSTANCE=gites87&","uri":"https://data.datatourisme.fr/23/6ab3174e-ba7f-3109-b124-a694067988c5","dept":"87","reg":"naq"}},{"type":"Feature","geometry":{"type":"Point","coordinates":[1.489,45.8399]},"properties":{"nom":"F1 bis étape Compostelle","sub":"LodgingBusiness","cm":"87400#Saint-Léonard-de-Noblat","web":"https://airbnb.com/h/rimmostleo","uri":"https://data.datatourisme.fr/23/4e8561b4-9372-3c56-bab8-ddaf2bd19ec0","dept":"87","reg":"naq"}},{"type":"Feature","geometry":{"type":"Point","coordinates":[1.33435,45.59295]},"properties":{"nom":"Les Chambaudies","sub":"LodgingBusiness","cm":"87380#Château-Chervix","web":"https://www.gites-de-france-hautevienne.fr/cgi.php?&OPE=SIRTAQUI&ORI=SIRTAQUI&NUM=87G6010&ACC=G&FICHE=O&INSTANCE=gites87&","uri":"https://data.datatourisme.fr/23/53f752dd-593a-3f04-9c51-a759f027f186","dept":"87","reg":"naq"}},{"type":"Feature","geometry":{"type":"Point","coordinates":[1.65076,45.66116]},"properties":{"nom":"Le Beauséjour - gîte n°3","sub":"LodgingBusiness","cm":"87130#Sussac","web":"https://www.gites-de-france-hautevienne.fr/cgi.php?&OPE=SIRTAQUI&ORI=SIRTAQUI&NUM=87G5513&ACC=G&FICHE=O&INSTANCE=gites87&","uri":"https://data.datatourisme.fr/23/60756110-4ba1-3329-a62b-9bcbe7a147ce","dept":"87","reg":"naq"}},{"type":"Feature","geometry":{"type":"Point","coordinates":[1.651,45.66131]},"properties":{"nom":"Le Beauséjour - gîte n°2","sub":"LodgingBusiness","cm":"87130#Sussac","web":"https://www.gites-de-france-hautevienne.fr/cgi.php?&OPE=SIRTAQUI&ORI=SIRTAQUI&NUM=87G5512&ACC=G&FICHE=O&INSTANCE=gites87&","uri":"https://data.datatourisme.fr/23/9a4aabb9-6b62-34a9-b4b3-86f581379f8b","dept":"87","reg":"naq"}},{"type":"Feature","geometry":{"type":"Point","coordinates":[1.65056,45.66105]},"properties":{"nom":"Le Beauséjour - gîte n°4","sub":"LodgingBusiness","cm":"87130#Sussac","web":"https://www.gites-de-france-hautevienne.fr/cgi.php?&OPE=SIRTAQUI&ORI=SIRTAQUI&NUM=87G5514&ACC=G&FICHE=O&INSTANCE=gites87&","uri":"https://data.datatourisme.fr/23/6d647838-2be6-32f0-b2ce-3faa9f42b638","dept":"87","reg":"naq"}},{"type":"Feature","geometry":{"type":"Point","coordinates":[1.65021,45.66086]},"properties":{"nom":"Le Beauséjour - gîte n°5","sub":"LodgingBusiness","cm":"87130#Sussac","web":"https://www.gites-de-france-hautevienne.fr/cgi.php?&OPE=SIRTAQUI&ORI=SIRTAQUI&NUM=87G5515&ACC=G&FICHE=O&INSTANCE=gites87&","uri":"https://data.datatourisme.fr/23/7d3661cf-18f8-38a9-9f2b-2b7890061b52","dept":"87","reg":"naq"}},{"type":"Feature","geometry":{"type":"Point","coordinates":[1.65122,45.66138]},"properties":{"nom":"Le Beauséjour - gîte n°1","sub":"LodgingBusiness","cm":"87130#Sussac","web":"https://www.gites-de-france-hautevienne.fr/cgi.php?&OPE=SIRTAQUI&ORI=SIRTAQUI&NUM=87G5511&ACC=G&FICHE=O&INSTANCE=gites87&","uri":"https://data.datatourisme.fr/23/0b062928-6d8c-3291-a715-01faa4ab4b01","dept":"87","reg":"naq"}},{"type":"Feature","geometry":{"type":"Point","coordinates":[1.19671,46.32025]},"properties":{"nom":"La Rivaille","sub":"LodgingBusiness","cm":"87360#Lussac-les-Églises","web":"https://www.gites-de-france-hautevienne.fr/cgi.php?&OPE=SIRTAQUI&ORI=SIRTAQUI&NUM=87G1181&ACC=G&FICHE=O&INSTANCE=gites87&","uri":"https://data.datatourisme.fr/23/93ef20f1-4c32-3734-bc09-460566789142","dept":"87","reg":"naq"}},{"type":"Feature","geometry":{"type":"Point","coordinates":[0.89126,45.67275]},"properties":{"nom":"La Grange Neuve","sub":"LodgingBusiness","cm":"87150#Champagnac-la-Rivière","web":"https://www.gites-de-france-hautevienne.fr/cgi.php?&OPE=SIRTAQUI&ORI=SIRTAQUI&NUM=87G7094&ACC=G&FICHE=O&INSTANCE=gites87&","uri":"https://data.datatourisme.fr/23/01453a68-aadd-3f3a-84af-034049f3007d","dept":"87","reg":"naq"}},{"type":"Feature","geometry":{"type":"Point","coordinates":[1.05087,45.83024]},"properties":{"nom":"La Maison Neuve","sub":"LodgingBusiness","cm":"87700#Saint-Priest-sous-Aixe","web":"https://www.gites-de-france-hautevienne.fr/cgi.php?&OPE=SIRTAQUI&ORI=SIRTAQUI&NUM=87G8325&ACC=G&FICHE=O&INSTANCE=gites87&","uri":"https://data.datatourisme.fr/23/834c1d07-b2de-3dd5-b647-d085123f1734","dept":"87","reg":"naq"}},{"type":"Feature","geometry":{"type":"Point","coordinates":[1.09402,46.05815]},"properties":{"nom":"La Grange","sub":"LodgingBusiness","cm":"87300#Berneuil","web":"https://www.gites-de-france-hautevienne.fr/cgi.php?&OPE=SIRTAQUI&ORI=SIRTAQUI&NUM=87G2023&ACC=G&FICHE=O&INSTANCE=gites87&","uri":"https://data.datatourisme.fr/23/11c686a9-e4fb-3f60-8833-f6d947ba582f","dept":"87","reg":"naq"}},{"type":"Feature","geometry":{"type":"Point","coordinates":[0.97363,46.26566]},"properties":{"nom":"Le Presbytère de Thiat","sub":"LodgingBusiness","cm":"87320#Val-d'Oire-et-Gartempe","web":"https://www.gites-de-france-hautevienne.fr/cgi.php?&OPE=SIRTAQUI&ORI=SIRTAQUI&NUM=87G1390&ACC=G&FICHE=O&INSTANCE=gites87&","uri":"https://data.datatourisme.fr/23/9575f485-fe94-3470-9e8c-604cef387cff","dept":"87","reg":"naq"}},{"type":"Feature","geometry":{"type":"Point","coordinates":[1.27891,46.20153]},"properties":{"nom":"Le Monteil","sub":"LodgingBusiness","cm":"87290#Saint-Sornin-Leulac","web":"https://www.gites-de-france-hautevienne.fr/cgi.php?&OPE=SIRTAQUI&ORI=SIRTAQUI&NUM=87G1360&ACC=G&FICHE=O&INSTANCE=gites87&","uri":"https://data.datatourisme.fr/23/9c274464-86f7-3eb2-a5af-b2742189272d","dept":"87","reg":"naq"}},{"type":"Feature","geometry":{"type":"Point","coordinates":[1.20306,45.52056]},"properties":{"nom":"Meublé Le Cadran Solaire","sub":"LodgingBusiness","cm":"87500#Saint-Yrieix-la-Perche","web":"http://lecadransolaire.com/","uri":"https://data.datatourisme.fr/23/923616a7-16b6-398c-a7d0-470c64693d24","dept":"87","reg":"naq"}},{"type":"Feature","geometry":{"type":"Point","coordinates":[1.24473,45.72847]},"properties":{"nom":"Boissac","sub":"LodgingBusiness","cm":"87110#Le Vigen","web":"https://www.gites-de-france-hautevienne.fr/cgi.php?&OPE=SIRTAQUI&ORI=SIRTAQUI&NUM=87G9162&ACC=G&FICHE=O&INSTANCE=gites87&","uri":"https://data.datatourisme.fr/23/8228e854-f164-3fe8-9062-835729409bcf","dept":"87","reg":"naq"}},{"type":"Feature","geometry":{"type":"Point","coordinates":[1.36367,45.91159]},"properties":{"nom":"L'Orangerie","sub":"LodgingBusiness","cm":"87480#Saint-Priest-Taurion","web":"https://www.gites-de-france-hautevienne.fr/cgi.php?&OPE=SIRTAQUI&ORI=SIRTAQUI&NUM=87G9447&ACC=G&FICHE=O&INSTANCE=gites87&","uri":"https://data.datatourisme.fr/23/93a24033-fcc3-36ba-9c50-33df18c0d524","dept":"87","reg":"naq"}},{"type":"Feature","geometry":{"type":"Point","coordinates":[1.19296,45.97702]},"properties":{"nom":"La Grande Forêt","sub":"BedAndBreakfast","cm":"87510#Saint-Jouvent","web":"https://www.gites-de-france-hautevienne.fr/cgi.php?&OPE=SIRTAQUI&ORI=SIRTAQUI&NUM=87G3720&ACC=H&FICHE=O&INSTANCE=gites87&","uri":"https://data.datatourisme.fr/23/960030db-db19-36a3-85fe-461ddda332c8","dept":"87","reg":"naq"}},{"type":"Feature","geometry":{"type":"Point","coordinates":[1.31363,45.71632]},"properties":{"nom":"Les 3 Clefs de GaYa","sub":"LodgingBusiness","cm":"87260#Saint-Jean-Ligoure","web":"https://les3clefsdegaya.com/<>https://les3clefsdegaya.com/index.php/home-3/reservation/","uri":"https://data.datatourisme.fr/23/7ff42006-0801-3bd1-8afd-c0a2907b9dcd","dept":"87","reg":"naq"}},{"type":"Feature","geometry":{"type":"Point","coordinates":[1.53631,45.75816]},"properties":{"nom":"La Grange","sub":"LodgingBusiness","cm":"87400#Saint-Denis-des-Murs","web":"https://www.gites-de-france-hautevienne.fr/cgi.php?&OPE=SIRTAQUI&ORI=SIRTAQUI&NUM=87G5365&ACC=G&FICHE=O&INSTANCE=gites87&","uri":"https://data.datatourisme.fr/23/088a106d-e189-3311-a319-c50940029abd","dept":"87","reg":"naq"}},{"type":"Feature","geometry":{"type":"Point","coordinates":[1.49636,45.6136]},"properties":{"nom":"La Maison de Marie","sub":"LodgingBusiness","cm":"87380#Saint-Germain-les-Belles","web":"https://www.gites-de-france-hautevienne.fr/cgi.php?&OPE=SIRTAQUI&ORI=SIRTAQUI&NUM=87G6352&ACC=G&FICHE=O&INSTANCE=gites87&","uri":"https://data.datatourisme.fr/23/91768050-a4da-30e0-9df7-23df31624405","dept":"87","reg":"naq"}},{"type":"Feature","geometry":{"type":"Point","coordinates":[1.44111,45.68989]},"properties":{"nom":"Les Petites Rivailles","sub":"LodgingBusiness","cm":"87260#Saint-Genest-sur-Roselle","web":"https://www.gites-de-france-hautevienne.fr/cgi.php?&OPE=SIRTAQUI&ORI=SIRTAQUI&NUM=87G6341&ACC=G&FICHE=O&INSTANCE=gites87&","uri":"https://data.datatourisme.fr/23/7f08dab1-ed7b-3d78-80a8-22b4ea99a388","dept":"87","reg":"naq"}},{"type":"Feature","geometry":{"type":"Point","coordinates":[1.57122,45.76303]},"properties":{"nom":"Rosalie","sub":"LodgingBusiness","cm":"87130#Masléon","web":"https://www.gites-de-france-hautevienne.fr/cgi.php?&OPE=SIRTAQUI&ORI=SIRTAQUI&NUM=87G5211&ACC=G&FICHE=O&INSTANCE=gites87&","uri":"https://data.datatourisme.fr/23/2381ffc7-2b43-30d1-85e1-782ddb43e2cf","dept":"87","reg":"naq"}},{"type":"Feature","geometry":{"type":"Point","coordinates":[1.04971,46.12171]},"properties":{"nom":"Hôtel Le Central by Santat!","sub":"Hotel","cm":"87300#Bellac","web":"https://bysantat.fr/","uri":"https://data.datatourisme.fr/23/74382699-2f98-3d17-88a7-57b27eb4f6e2","dept":"87","reg":"naq"}},{"type":"Feature","geometry":{"type":"Point","coordinates":[1.26154,45.83764]},"properties":{"nom":"The Originals City - Hôtel Le Saint-Martial, Limoges Centre","sub":"Hotel","cm":"87100#Limoges","web":"https://reservation.elloha.com/Search/Index/cbf1837f-3718-4678-bc1d-cce651fccdad?idoi=de94d873-cbda-488e-820e-cbaa5fcead8e&searchFirstAvailableDates=1<>https://www.hotel-saint-martial.com/","uri":"https://data.datatourisme.fr/23/77ef4636-a12e-3708-a824-722019eee875","dept":"87","reg":"naq"}},{"type":"Feature","geometry":{"type":"Point","coordinates":[0.89951,45.89659]},"properties":{"nom":"Camping La Glane","sub":"Camping","cm":"87200#Saint-Junien","web":"https://www.campingcarpark.com/fr_FR/sejour/camping/nouvelle-aquitaine/87-haute-vienne/st-junien","uri":"https://data.datatourisme.fr/23/7571e426-1759-3da1-8a27-41dca8aae6ed","dept":"87","reg":"naq"}},{"type":"Feature","geometry":{"type":"Point","coordinates":[0.89957,45.89664]},"properties":{"nom":"Chalets du camping de la Glane","sub":"Camping","cm":"87200#Saint-Junien","web":"http://www.camping-de-la-glane-saint-junien.fr/<>https://reservation.elloha.com/?IdPublication=87a9bd1d-a414-4cf4-afa3-17bcd43f9857&culture=fr-FR&idoi=bb285f7c-f874-4f96-a82f-a2d6babd07a7&searchFirstAvailableDates=1","uri":"https://data.datatourisme.fr/23/34b526b7-8e18-3898-a98f-6c9a9b003019","dept":"87","reg":"naq"}},{"type":"Feature","geometry":{"type":"Point","coordinates":[0.8998,45.8963]},"properties":{"nom":"Aire d'accueil camping-car de Saint-Junien","sub":"CampingAndCaravanning","cm":"87200#Saint-Junien","web":"http://www.campingcarpark.com/fr_FR/sejour/camping/nouvelle-aquitaine/87-haute-vienne/st-junien#0","uri":"https://data.datatourisme.fr/23/5e731a64-d9cd-39f2-9928-f2806b4c696d","dept":"87","reg":"naq"}},{"type":"Feature","geometry":{"type":"Point","coordinates":[0.66403,45.72975]},"properties":{"nom":"La Charnière Chadalais","sub":"LodgingBusiness","cm":"87440#Maisonnais-sur-Tardoire","web":"https://www.giteinperigord.com/<>https://www.giteinperigord.com/booking/<>https://www.airbnb.fr/rooms/19479526","uri":"https://data.datatourisme.fr/23/68832dc2-5e43-32c5-8df2-79148eb02d78","dept":"87","reg":"naq"}},{"type":"Feature","geometry":{"type":"Point","coordinates":[0.98497,45.73586]},"properties":{"nom":"Le Moulin de la Forge","sub":"LodgingBusiness","cm":"87310#Gorre","web":"https://bit.ly/3cIa79z","uri":"https://data.datatourisme.fr/23/a404f489-e9a9-3971-86be-a614f1b0d635","dept":"87","reg":"naq"}},{"type":"Feature","geometry":{"type":"Point","coordinates":[1.405,45.83269]},"properties":{"nom":"de Pelage","sub":"LodgingBusiness","cm":"87590#Saint-Just-le-Martel","web":"https://www.gites-de-france-hautevienne.fr/cgi.php?&OPE=SIRTAQUI&ORI=SIRTAQUI&NUM=87G9375&ACC=G&FICHE=O&INSTANCE=gites87&","uri":"https://data.datatourisme.fr/23/654ae619-1cc6-3473-a784-1f3a04da5b70","dept":"87","reg":"naq"}},{"type":"Feature","geometry":{"type":"Point","coordinates":[1.24003,45.86578]},"properties":{"nom":"Le Magnolia","sub":"LodgingBusiness","cm":"87270#Couzeix","web":"https://www.gites-de-france-hautevienne.fr/cgi.php?&OPE=SIRTAQUI&ORI=SIRTAQUI&NUM=87G9094&ACC=G&FICHE=O&INSTANCE=gites87&","uri":"https://data.datatourisme.fr/23/6b758eb7-aae0-3b84-b660-d23b87cd3324","dept":"87","reg":"naq"}},{"type":"Feature","geometry":{"type":"Point","coordinates":[1.22904,45.82579]},"properties":{"nom":"Meublé de tourisme Apparts Watteau","sub":"LodgingBusiness","cm":"87000#Limoges","web":"https://www.gites.fr/gites_apparts-watteau-climatises_limoges_h440676.htm","uri":"https://data.datatourisme.fr/23/6c3960c0-3808-3499-9df7-27653b43ab59","dept":"87","reg":"naq"}},{"type":"Feature","geometry":{"type":"Point","coordinates":[1.22858,45.78977]},"properties":{"nom":"Chez le Bayle","sub":"LodgingBusiness","cm":"87920#Condat-sur-Vienne","web":"https://www.gites-de-france-hautevienne.fr/cgi.php?&OPE=SIRTAQUI&ORI=SIRTAQUI&NUM=87G9082&ACC=G&FICHE=O&INSTANCE=gites87&","uri":"https://data.datatourisme.fr/23/6daae0d8-9462-322e-956a-db2cc717d2cc","dept":"87","reg":"naq"}},{"type":"Feature","geometry":{"type":"Point","coordinates":[1.31852,45.99486]},"properties":{"nom":"Dominant l'Etang","sub":"LodgingBusiness","cm":"87140#Compreignac","web":"https://www.gites-de-france-hautevienne.fr/cgi.php?&OPE=SIRTAQUI&ORI=SIRTAQUI&NUM=87G3140&ACC=G&FICHE=O&INSTANCE=gites87&","uri":"https://data.datatourisme.fr/23/0297e2b0-c739-31af-8faf-07836c5b5477","dept":"87","reg":"naq"}},{"type":"Feature","geometry":{"type":"Point","coordinates":[1.39572,46.15949]},"properties":{"nom":"Le centre sérénité au coeur du Limousin","sub":"LodgingBusiness","cm":"87250#Fromental","web":"https://www.gites-de-france-hautevienne.fr/cgi.php?&OPE=SIRTAQUI&ORI=SIRTAQUI&NUM=87G3193&ACC=G&FICHE=O&INSTANCE=gites87&","uri":"https://data.datatourisme.fr/23/03b86978-1a77-37e6-bdf8-a5ea4070b9dd","dept":"87","reg":"naq"}},{"type":"Feature","geometry":{"type":"Point","coordinates":[1.39243,46.06238]},"properties":{"nom":"Meublé de tourisme Les Fuschias","sub":"LodgingBusiness","cm":"87370#Bersac-sur-Rivalier","web":"https://www.airbnb.fr/rooms/713730764158866486?adults=1&children=0&enable_m3_private_room=true&infants=0&pets=0&check_in=2023-11-14&check_out=2023-11-19&source_impression_id=p3_1699865844_%2BFzP2vfzsvXB1utP&previous_page_section_name=1000&federated_search_id=5434551f-6468-4261-9ae7-cb9d08570b3e","uri":"https://data.datatourisme.fr/23/072fdbcf-7177-36b8-9b6d-8b172853b14c","dept":"87","reg":"naq"}},{"type":"Feature","geometry":{"type":"Point","coordinates":[1.40209,46.13483]},"properties":{"nom":"Chez Marie-Louise","sub":"LodgingBusiness","cm":"87250#Fromental","web":"https://www.gites-de-france-hautevienne.fr/cgi.php?&OPE=SIRTAQUI&ORI=SIRTAQUI&NUM=87G3192&ACC=G&FICHE=O&INSTANCE=gites87&","uri":"https://data.datatourisme.fr/23/9658e5d4-d9d3-3d5c-b556-c45063f9b346","dept":"87","reg":"naq"}},{"type":"Feature","geometry":{"type":"Point","coordinates":[1.26679,45.99904]},"properties":{"nom":"La Rode","sub":"LodgingBusiness","cm":"87140#Compreignac","web":"https://www.gites-de-france-hautevienne.fr/cgi.php?&OPE=SIRTAQUI&ORI=SIRTAQUI&NUM=87G3146&ACC=G&FICHE=O&INSTANCE=gites87&","uri":"https://data.datatourisme.fr/23/98c5861f-16b0-3fd0-91e0-e9d56f5b8a22","dept":"87","reg":"naq"}},{"type":"Feature","geometry":{"type":"Point","coordinates":[0.76644,45.75691]},"properties":{"nom":"Le Coudert","sub":"BedAndBreakfast","cm":"87600#Chéronnac","web":"https://www.gites-de-france-hautevienne.fr/cgi.php?&OPE=SIRTAQUI&ORI=SIRTAQUI&NUM=87G7703&ACC=H&FICHE=O&INSTANCE=gites87&","uri":"https://data.datatourisme.fr/23/067cfb4e-b571-3e31-af43-3b557476565b","dept":"87","reg":"naq"}},{"type":"Feature","geometry":{"type":"Point","coordinates":[0.83196,45.75963]},"properties":{"nom":"La Guinandie","sub":"LodgingBusiness","cm":"87600#Vayres","web":"https://www.gites-de-france-hautevienne.fr/cgi.php?&OPE=SIRTAQUI&ORI=SIRTAQUI&NUM=87G8424&ACC=G&FICHE=O&INSTANCE=gites87&","uri":"https://data.datatourisme.fr/23/181e3dd5-16ff-3653-879f-c8e4593c4416","dept":"87","reg":"naq"}},{"type":"Feature","geometry":{"type":"Point","coordinates":[1.28262,45.66514]},"properties":{"nom":"Babaud","sub":"LodgingBusiness","cm":"87800#Saint-Priest-Ligoure","web":"https://www.gites-de-france-hautevienne.fr/cgi.php?&OPE=SIRTAQUI&ORI=SIRTAQUI&NUM=87G6406&ACC=G&FICHE=O&INSTANCE=gites87&","uri":"https://data.datatourisme.fr/23/6b80b64d-a0ef-30bb-955e-4b32c7c1a2b4","dept":"87","reg":"naq"}},{"type":"Feature","geometry":{"type":"Point","coordinates":[0.99969,45.6514]},"properties":{"nom":"Glycinelage","sub":"LodgingBusiness","cm":"87230#Châlus","web":"https://www.gites-de-france-hautevienne.fr/cgi.php?&OPE=SIRTAQUI&ORI=SIRTAQUI&NUM=87G7044&ACC=G&FICHE=O&INSTANCE=gites87&","uri":"https://data.datatourisme.fr/23/6be07404-a831-3156-a75b-ce8abb2ff6c9","dept":"87","reg":"naq"}},{"type":"Feature","geometry":{"type":"Point","coordinates":[1.83498,45.73194]},"properties":{"nom":"Mazeau Nicot","sub":"LodgingBusiness","cm":"87120#Nedde","web":"https://www.gites-de-france-hautevienne.fr/cgi.php?&OPE=SIRTAQUI&ORI=SIRTAQUI&NUM=87G5250&ACC=G&FICHE=O&INSTANCE=gites87&","uri":"https://data.datatourisme.fr/23/19b81fab-522a-306a-9cd8-f444598143f3","dept":"87","reg":"naq"}},{"type":"Feature","geometry":{"type":"Point","coordinates":[1.77293,45.81481]},"properties":{"nom":"La Forge","sub":"LodgingBusiness","cm":"87470#Peyrat-le-Château","web":"https://www.gites-de-france-hautevienne.fr/cgi.php?&OPE=SIRTAQUI&ORI=SIRTAQUI&NUM=87G5292&ACC=G&FICHE=O&INSTANCE=gites87&","uri":"https://data.datatourisme.fr/23/8c9cef0f-3e39-3111-a4d9-6bf0ddbfc5fc","dept":"87","reg":"naq"}},{"type":"Feature","geometry":{"type":"Point","coordinates":[1.43819,45.81543]},"properties":{"nom":"Les Bois de Saint Auvent","sub":"BedAndBreakfast","cm":"87400#La Geneytouse","web":"https://www.gites-de-france-hautevienne.fr/cgi.php?&OPE=SIRTAQUI&ORI=SIRTAQUI&NUM=87G5727&ACC=H&FICHE=O&INSTANCE=gites87&","uri":"https://data.datatourisme.fr/23/66ee2963-c03a-3d74-b9d4-58fe527be8f9","dept":"87","reg":"naq"}},{"type":"Feature","geometry":{"type":"Point","coordinates":[1.43645,45.54335]},"properties":{"nom":"La Roche","sub":"LodgingBusiness","cm":"87380#Meuzac","web":"https://www.gites-de-france-hautevienne.fr/cgi.php?&OPE=SIRTAQUI&ORI=SIRTAQUI&NUM=87G6294&ACC=G&FICHE=O&INSTANCE=gites87&","uri":"https://data.datatourisme.fr/23/66fd9ade-6125-3764-b6ea-2e335082883b","dept":"87","reg":"naq"}},{"type":"Feature","geometry":{"type":"Point","coordinates":[1.4489,45.63392]},"properties":{"nom":"Le 1906","sub":"LodgingBusiness","cm":"87380#Glanges","web":"https://www.gites-de-france-hautevienne.fr/cgi.php?&OPE=SIRTAQUI&ORI=SIRTAQUI&NUM=87G6090&ACC=G&FICHE=O&INSTANCE=gites87&","uri":"https://data.datatourisme.fr/23/6dc653ca-df5b-3580-b6dc-4bc9596e7ad4","dept":"87","reg":"naq"}},{"type":"Feature","geometry":{"type":"Point","coordinates":[1.68536,45.82278]},"properties":{"nom":"Le Petit Paradis","sub":"LodgingBusiness","cm":"87460#Saint-Julien-le-Petit","web":null,"uri":"https://data.datatourisme.fr/23/04f57746-c8f7-372d-bfdc-32d57bebcb52","dept":"87","reg":"naq"}},{"type":"Feature","geometry":{"type":"Point","coordinates":[1.68536,45.82278]},"properties":{"nom":"La bohème","sub":"LodgingBusiness","cm":"87460#Saint-Julien-le-Petit","web":null,"uri":"https://data.datatourisme.fr/23/8da80b66-6841-3a4c-bae6-d5388fa9b581","dept":"87","reg":"naq"}},{"type":"Feature","geometry":{"type":"Point","coordinates":[1.07182,45.80534]},"properties":{"nom":"3 Bellevue","sub":"BedAndBreakfast","cm":"87700#Aixe-sur-Vienne","web":"https://www.gites-de-france-hautevienne.fr/cgi.php?&OPE=SIRTAQUI&ORI=SIRTAQUI&NUM=87G8716&ACC=H&FICHE=O&INSTANCE=gites87&","uri":"https://data.datatourisme.fr/23/7d32c9a5-d204-300f-a864-309531f700b2","dept":"87","reg":"naq"}},{"type":"Feature","geometry":{"type":"Point","coordinates":[0.95654,46.19599]},"properties":{"nom":"Le Haut Tour","sub":"LodgingBusiness","cm":"87210#Saint-Sornin-la-Marche","web":"https://www.gites-de-france-hautevienne.fr/cgi.php?&OPE=SIRTAQUI&ORI=SIRTAQUI&NUM=87G1350&ACC=G&FICHE=O&INSTANCE=gites87&","uri":"https://data.datatourisme.fr/23/7b6015a6-6144-3138-a149-013d3dd95769","dept":"87","reg":"naq"}},{"type":"Feature","geometry":{"type":"Point","coordinates":[1.26005,45.86166]},"properties":{"nom":"Chambre d'hôtes Edouard et Louise","sub":"BedAndBreakfast","cm":"87100#Limoges","web":"https://reservation.elloha.com/?idPublication=9d8ce0b8-cd3b-4585-ac83-bc001c1463d1&idoi=a31892d5-5657-41ca-be55-e912434a8027&culture=fr-FR&reload=1&searchFirstAvailableDates=1<>https://www.edouard-et-louise.fr/","uri":"https://data.datatourisme.fr/23/7c9ad043-54d2-37dd-8659-2d1305bc3f36","dept":"87","reg":"naq"}},{"type":"Feature","geometry":{"type":"Point","coordinates":[1.84181,45.7004]},"properties":{"nom":"Claveyrolas","sub":"LodgingBusiness","cm":"87120#Nedde","web":"https://www.gites-de-france-hautevienne.fr/cgi.php?&OPE=SIRTAQUI&ORI=SIRTAQUI&NUM=87G5242&ACC=G&FICHE=O&INSTANCE=gites87&","uri":"https://data.datatourisme.fr/23/74a574fd-ee8f-3c4e-82b5-a9fe2b89a767","dept":"87","reg":"naq"}},{"type":"Feature","geometry":{"type":"Point","coordinates":[1.21244,46.30124]},"properties":{"nom":"Le Puy de Saint Jean","sub":"LodgingBusiness","cm":"87190#Saint-Léger-Magnazeix","web":"https://www.gites-de-france-hautevienne.fr/cgi.php?&OPE=SIRTAQUI&ORI=SIRTAQUI&NUM=87G1312&ACC=G&FICHE=O&INSTANCE=gites87&","uri":"https://data.datatourisme.fr/23/2f317e7b-a189-309b-8f13-3f1efdc8a7c5","dept":"87","reg":"naq"}},{"type":"Feature","geometry":{"type":"Point","coordinates":[0.93739,45.68739]},"properties":{"nom":"Cros","sub":"LodgingBusiness","cm":"87230#Champsac","web":"https://www.gites-de-france-hautevienne.fr/cgi.php?&OPE=SIRTAQUI&ORI=SIRTAQUI&NUM=87G7121&ACC=G&FICHE=O&INSTANCE=gites87&","uri":"https://data.datatourisme.fr/23/21f3797a-16f7-3f21-947b-f3f18565fec9","dept":"87","reg":"naq"}},{"type":"Feature","geometry":{"type":"Point","coordinates":[0.88686,45.65577]},"properties":{"nom":"Le Puyconnieux","sub":"LodgingBusiness","cm":"87230#Dournazac","web":"https://www.gites-de-france-hautevienne.fr/cgi.php?&OPE=SIRTAQUI&ORI=SIRTAQUI&NUM=87G7205&ACC=G&FICHE=O&INSTANCE=gites87&","uri":"https://data.datatourisme.fr/23/1e141035-a75a-3567-876a-7c169135668b","dept":"87","reg":"naq"}},{"type":"Feature","geometry":{"type":"Point","coordinates":[1.13957,45.79827]},"properties":{"nom":"Camping Les Grèves","sub":"Camping","cm":"87700#Aixe-sur-Vienne","web":"https://www.mairie-aixesurvienne.fr/","uri":"https://data.datatourisme.fr/23/19927f8e-12a7-3343-b159-a1646d1bc84c","dept":"87","reg":"naq"}},{"type":"Feature","geometry":{"type":"Point","coordinates":[1.27034,46.13205]},"properties":{"nom":"Camping de la Gartempe","sub":"Camping","cm":"87290#Châteauponsac","web":"https://reservation.elloha.com/?idPublication=557bd5de-f9c2-4db1-9abd-054e223109fb&idoi=aed4ca40-c6cd-464f-bd44-05fd26d82a58&culture=fr-FR&reload=1&searchFirstAvailableDates=1<>https://www.campingdelagartempe.fr/","uri":"https://data.datatourisme.fr/23/1ad2407e-429b-3a85-9795-4eea1f6136ef","dept":"87","reg":"naq"}},{"type":"Feature","geometry":{"type":"Point","coordinates":[0.91625,46.08637]},"properties":{"nom":"Château du Fraisse","sub":"BedAndBreakfast","cm":"87330#Nouic","web":"https://www.chateau-du-fraisse.com/","uri":"https://data.datatourisme.fr/23/ac7b25ed-165c-3847-ad22-4215b181fb34","dept":"87","reg":"naq"}},{"type":"Feature","geometry":{"type":"Point","coordinates":[1.83316,45.71786]},"properties":{"nom":"VVF Villages de Nedde-Vassivière","sub":"CollectiveAccommodation","cm":"87120#Nedde","web":"https://www.vvf-villages.fr/villages-vacances/vacances-nedde-vvf-villages.html","uri":"https://data.datatourisme.fr/23/fc3eb18e-ae1a-3543-acce-a29f90a7e6e5","dept":"87","reg":"naq"}},{"type":"Feature","geometry":{"type":"Point","coordinates":[0.98514,45.68635]},"properties":{"nom":"Aire de stationnement à La Chèvrerie de la Peytavigne","sub":"CampingAndCaravanning","cm":"87230#Champsac","web":null,"uri":"https://data.datatourisme.fr/23/ba9863d1-beec-3f3c-a56b-ae0a2eaf5eff","dept":"87","reg":"naq"}},{"type":"Feature","geometry":{"type":"Point","coordinates":[1.06538,45.96089]},"properties":{"nom":"Camping à la ferme Le Rucher Ân'imé","sub":"Camping","cm":"87520#Cieux","web":"https://lerucheranime.fr/camping-a-la-ferme/","uri":"https://data.datatourisme.fr/23/1dd13676-79a2-3579-a2d2-76379e463fa0","dept":"87","reg":"naq"}},{"type":"Feature","geometry":{"type":"Point","coordinates":[1.88229,45.78588]},"properties":{"nom":"Meublé de tourisme de groupe Port Nergout","sub":"CollectiveAccommodation","cm":"87120#Beaumont-du-Lac","web":"http://www.gite-location-vassiviere.com/","uri":"https://data.datatourisme.fr/23/818d975a-0d9d-3af3-8387-7c40b2e682c0","dept":"87","reg":"naq"}},{"type":"Feature","geometry":{"type":"Point","coordinates":[1.88218,45.78591]},"properties":{"nom":"Chanterelle","sub":"LodgingBusiness","cm":"87120#Beaumont-du-Lac","web":"https://www.gite-location-vassiviere.com/","uri":"https://data.datatourisme.fr/23/8da7164a-8411-38ca-9003-c50f15ee1867","dept":"87","reg":"naq"}},{"type":"Feature","geometry":{"type":"Point","coordinates":[1.88233,45.7859]},"properties":{"nom":"Meublé de tourisme La Loutre","sub":"LodgingBusiness","cm":"87120#Beaumont-du-Lac","web":"http://www.gite-location-vassiviere.com/","uri":"https://data.datatourisme.fr/23/a256d917-67e5-368c-aea3-2902c07b25aa","dept":"87","reg":"naq"}},{"type":"Feature","geometry":{"type":"Point","coordinates":[1.88215,45.78589]},"properties":{"nom":"Meublé de tourisme Mille Sources","sub":"LodgingBusiness","cm":"87120#Beaumont-du-Lac","web":"http://www.gite-location-vassiviere.com/","uri":"https://data.datatourisme.fr/23/0055c2a1-66b8-3236-9923-5744d006588a","dept":"87","reg":"naq"}},{"type":"Feature","geometry":{"type":"Point","coordinates":[1.09273,46.05759]},"properties":{"nom":"Hameau de gîtes Virat","sub":"CollectiveAccommodation","cm":"87300#Berneuil","web":"https://www.gitesdevirat.fr/","uri":"https://data.datatourisme.fr/23/8e6b0fc4-aa2f-3d6c-b6f8-6e733b57edac","dept":"87","reg":"naq"}},{"type":"Feature","geometry":{"type":"Point","coordinates":[1.2869,45.55544]},"properties":{"nom":"Meublé Le Chataignol","sub":"LodgingBusiness","cm":"87500#Coussac-Bonneval","web":"https://www.airbnb.fr/rooms/19742272?viralityEntryPoint=1&s=76","uri":"https://data.datatourisme.fr/23/ae3139d0-a5a8-3299-9a7a-d1fc7f2787f3","dept":"87","reg":"naq"}},{"type":"Feature","geometry":{"type":"Point","coordinates":[1.20753,45.51128]},"properties":{"nom":"Chambres d'hôtes Référence Maison du Bois charmant","sub":"BedAndBreakfast","cm":"87500#Saint-Yrieix-la-Perche","web":null,"uri":"https://data.datatourisme.fr/23/7777317f-1af3-3fae-9ad3-84f72aec27ed","dept":"87","reg":"naq"}},{"type":"Feature","geometry":{"type":"Point","coordinates":[0.87356,45.68316]},"properties":{"nom":"Les Chênes","sub":"LodgingBusiness","cm":"87150#Cussac","web":"https://www.gites-de-france-hautevienne.fr/cgi.php?&OPE=SIRTAQUI&ORI=SIRTAQUI&NUM=87G7546&ACC=G&FICHE=O&INSTANCE=gites87&","uri":"https://data.datatourisme.fr/23/522732f1-db5d-39e8-9021-8e2cb4283dbb","dept":"87","reg":"naq"}},{"type":"Feature","geometry":{"type":"Point","coordinates":[0.87356,45.68316]},"properties":{"nom":"Les Frênes","sub":"LodgingBusiness","cm":"87150#Cussac","web":"https://www.gites-de-france-hautevienne.fr/cgi.php?&OPE=SIRTAQUI&ORI=SIRTAQUI&NUM=87G7541&ACC=G&FICHE=O&INSTANCE=gites87&","uri":"https://data.datatourisme.fr/23/b77e6615-95c1-310f-975e-df58bac8bab2","dept":"87","reg":"naq"}},{"type":"Feature","geometry":{"type":"Point","coordinates":[0.87356,45.68316]},"properties":{"nom":"Les Bouleaux","sub":"LodgingBusiness","cm":"87150#Cussac","web":"https://www.gites-de-france-hautevienne.fr/cgi.php?&OPE=SIRTAQUI&ORI=SIRTAQUI&NUM=87G7548&ACC=G&FICHE=O&INSTANCE=gites87&","uri":"https://data.datatourisme.fr/23/752f4e93-874d-30de-a1bb-3960d1b0cb1f","dept":"87","reg":"naq"}},{"type":"Feature","geometry":{"type":"Point","coordinates":[0.87356,45.68316]},"properties":{"nom":"Les Châtaigniers","sub":"LodgingBusiness","cm":"87150#Cussac","web":"https://www.gites-de-france-hautevienne.fr/cgi.php?&OPE=SIRTAQUI&ORI=SIRTAQUI&NUM=87G7547&ACC=G&FICHE=O&INSTANCE=gites87&","uri":"https://data.datatourisme.fr/23/95dea70a-dc12-350d-97eb-45754df98c73","dept":"87","reg":"naq"}},{"type":"Feature","geometry":{"type":"Point","coordinates":[0.93071,45.80556]},"properties":{"nom":"Meublé de tourisme - La récré","sub":"LodgingBusiness","cm":"87310#Saint-Auvent","web":"https://www.a-lecole.com/accueil","uri":"https://data.datatourisme.fr/23/53f559dc-d352-3856-9981-8a13d62ac896","dept":"87","reg":"naq"}},{"type":"Feature","geometry":{"type":"Point","coordinates":[0.93088,45.8058]},"properties":{"nom":"Meublé de tourisme - Le Maître","sub":"LodgingBusiness","cm":"87310#Saint-Auvent","web":"https://www.a-lecole.com/accueil","uri":"https://data.datatourisme.fr/23/2af94a2d-aa1a-30c3-b8d2-c0d353f6491e","dept":"87","reg":"naq"}},{"type":"Feature","geometry":{"type":"Point","coordinates":[0.97147,45.82981]},"properties":{"nom":"Verlhiac","sub":"LodgingBusiness","cm":"87310#Cognac-la-Forêt","web":"https://www.gites-de-france-hautevienne.fr/cgi.php?&OPE=SIRTAQUI&ORI=SIRTAQUI&NUM=87G8050&ACC=G&FICHE=O&INSTANCE=gites87&","uri":"https://data.datatourisme.fr/23/7b21375d-740b-306b-bcf8-709803fa6c37","dept":"87","reg":"naq"}},{"type":"Feature","geometry":{"type":"Point","coordinates":[1.14573,45.89717]},"properties":{"nom":"Le Domaine du  Boschaudérier","sub":"LodgingBusiness","cm":"87510#Saint-Gence","web":"https://www.gites-de-france-hautevienne.fr/cgi.php?&OPE=SIRTAQUI&ORI=SIRTAQUI&NUM=87G9291&ACC=G&FICHE=O&INSTANCE=gites87&","uri":"https://data.datatourisme.fr/23/4a5d68cd-5db3-3438-b04a-97917dd868f1","dept":"87","reg":"naq"}},{"type":"Feature","geometry":{"type":"Point","coordinates":[1.26897,45.88897]},"properties":{"nom":"Le Rucher de Saint Florent","sub":"LodgingBusiness","cm":"87280#Limoges","web":"https://www.gites-de-france-hautevienne.fr/cgi.php?&OPE=SIRTAQUI&ORI=SIRTAQUI&NUM=87G9226&ACC=G&FICHE=O&INSTANCE=gites87&","uri":"https://data.datatourisme.fr/23/5963e6db-9b4e-3516-a5af-4b53bc0fd835","dept":"87","reg":"naq"}},{"type":"Feature","geometry":{"type":"Point","coordinates":[1.31585,45.82005]},"properties":{"nom":"Le Mas Chambart","sub":"LodgingBusiness","cm":"87350#Panazol","web":"https://www.gites-de-france-hautevienne.fr/cgi.php?&OPE=SIRTAQUI&ORI=SIRTAQUI&NUM=87G9231&ACC=G&FICHE=O&INSTANCE=gites87&","uri":"https://data.datatourisme.fr/23/620914fe-6051-3ca5-99fe-9bc495cf6eed","dept":"87","reg":"naq"}},{"type":"Feature","geometry":{"type":"Point","coordinates":[0.96563,45.88072]},"properties":{"nom":"Le Chambéry","sub":"LodgingBusiness","cm":"87200#Saint-Brice-sur-Vienne","web":"https://www.gites-de-france-hautevienne.fr/cgi.php?&OPE=SIRTAQUI&ORI=SIRTAQUI&NUM=87G8180&ACC=G&FICHE=O&INSTANCE=gites87&","uri":"https://data.datatourisme.fr/23/64f5ed86-784a-3bf1-9e35-0e27e1c3b865","dept":"87","reg":"naq"}},{"type":"Feature","geometry":{"type":"Point","coordinates":[0.96563,45.88072]},"properties":{"nom":"Le Chambéry","sub":"LodgingBusiness","cm":"87200#Saint-Brice-sur-Vienne","web":"https://www.gites-de-france-hautevienne.fr/cgi.php?&OPE=SIRTAQUI&ORI=SIRTAQUI&NUM=87G8181&ACC=G&FICHE=O&INSTANCE=gites87&","uri":"https://data.datatourisme.fr/23/bb0622fa-6c72-3a7c-8d91-6fd7c37c57b9","dept":"87","reg":"naq"}},{"type":"Feature","geometry":{"type":"Point","coordinates":[0.96563,45.88072]},"properties":{"nom":"Le Chambéry","sub":"LodgingBusiness","cm":"87200#Saint-Brice-sur-Vienne","web":"https://www.gites-de-france-hautevienne.fr/cgi.php?&OPE=SIRTAQUI&ORI=SIRTAQUI&NUM=87G8182&ACC=G&FICHE=O&INSTANCE=gites87&","uri":"https://data.datatourisme.fr/23/d1016c96-8d86-3571-a71d-77d8567ec9eb","dept":"87","reg":"naq"}},{"type":"Feature","geometry":{"type":"Point","coordinates":[0.96563,45.88072]},"properties":{"nom":"Le Chambéry","sub":"LodgingBusiness","cm":"87200#Saint-Brice-sur-Vienne","web":"https://www.gites-de-france-hautevienne.fr/cgi.php?&OPE=SIRTAQUI&ORI=SIRTAQUI&NUM=87G8183&ACC=G&FICHE=O&INSTANCE=gites87&","uri":"https://data.datatourisme.fr/23/f4e879e9-4731-393f-bd34-ad5cd9af5c5a","dept":"87","reg":"naq"}},{"type":"Feature","geometry":{"type":"Point","coordinates":[0.96497,45.88053]},"properties":{"nom":"Gîtes du site de Chambéry","sub":"CollectiveAccommodation","cm":"87200#Saint-Brice-sur-Vienne","web":null,"uri":"https://data.datatourisme.fr/23/6631a3df-2c0e-380d-963e-d351f8f51c4a","dept":"87","reg":"naq"}},{"type":"Feature","geometry":{"type":"Point","coordinates":[1.88227,45.78506]},"properties":{"nom":"Meublé de tourisme Les Bruyères","sub":"LodgingBusiness","cm":"87120#Beaumont-du-Lac","web":"http://www.gite-location-vassiviere.com/","uri":"https://data.datatourisme.fr/23/56dfbf79-9bb0-33e9-acf2-ee0b911b7326","dept":"87","reg":"naq"}},{"type":"Feature","geometry":{"type":"Point","coordinates":[1.88228,45.78505]},"properties":{"nom":"Meublé de tourisme Le Châtaignier","sub":"LodgingBusiness","cm":"87120#Beaumont-du-Lac","web":"http://www.gite-location-vassiviere.com/","uri":"https://data.datatourisme.fr/23/6a794db2-abc4-366b-b15a-31d1788a841e","dept":"87","reg":"naq"}},{"type":"Feature","geometry":{"type":"Point","coordinates":[1.84056,45.72278]},"properties":{"nom":"Meublé de tourisme Lenoble Monique ou Jean Francis","sub":"LodgingBusiness","cm":"87120#Nedde","web":null,"uri":"https://data.datatourisme.fr/23/707ed3e3-915e-3687-b16f-d98bcf2af55e","dept":"87","reg":"naq"}},{"type":"Feature","geometry":{"type":"Point","coordinates":[1.76476,45.83221]},"properties":{"nom":"Roulotte de la Ferme des Anes de Vassivière","sub":"LodgingBusiness","cm":"87470#Peyrat-le-Château","web":"https://www.anes-de-vassiviere.com/<>https://reservation.elloha.com/?idPublication=f8359c0d-978c-432c-a924-bcd422602c68&idoi=5200208b-42cc-4451-8396-efe56b479e04&TypeOi=4&searchFirstAvailableDates=1&dateTo=07/11/2024&NbAdultes=2&culture=fr-FR","uri":"https://data.datatourisme.fr/23/751ada61-fb3e-3c6d-999c-9cf9452626ad","dept":"87","reg":"naq"}},{"type":"Feature","geometry":{"type":"Point","coordinates":[1.76555,45.83144]},"properties":{"nom":"Meublé de tourisme Les Ânes de Vassivière","sub":"LodgingBusiness","cm":"87470#Peyrat-le-Château","web":"https://reservation.elloha.com/?idPublication=f7c462ae-92b7-42cf-bc75-e4bd63165361&idoi=5200208b-42cc-4451-8396-efe56b479e04&idPrestation=f542fae1-be8b-43e1-8c04-90aec726572f&culture=fr-FR&reload=1&searchFirstAvailableDates=1<>https://www.anes-de-vassiviere.com/","uri":"https://data.datatourisme.fr/23/7086aea1-5330-3854-b9d4-391474c6c64a","dept":"87","reg":"naq"}},{"type":"Feature","geometry":{"type":"Point","coordinates":[1.76476,45.83221]},"properties":{"nom":"Yourtes de la Ferme des Ânes de Vassivière","sub":"LodgingBusiness","cm":"87470#Peyrat-le-Château","web":"https://reservation.elloha.com/?idPublication=02747c06-98ac-487d-9e81-fa8597fe5a26&idoi=5200208b-42cc-4451-8396-efe56b479e04&idPrestation=fb704237-19ef-423a-89af-63486cf72ce2&culture=fr-FR&reload=1&searchFirstAvailableDates=1<>https://www.anes-de-vassiviere.com/","uri":"https://data.datatourisme.fr/23/3258e57d-a6c6-3949-b20a-7b176a3c272c","dept":"87","reg":"naq"}},{"type":"Feature","geometry":{"type":"Point","coordinates":[1.42672,45.82605]},"properties":{"nom":"Le Masbareau","sub":"BedAndBreakfast","cm":"87400#Royères","web":"https://www.gites-de-france-hautevienne.fr/cgi.php?&OPE=SIRTAQUI&ORI=SIRTAQUI&NUM=87G5714&ACC=H&FICHE=O&INSTANCE=gites87&","uri":"https://data.datatourisme.fr/23/481ed5c5-679c-33d5-b56c-bf03adb5cb0d","dept":"87","reg":"naq"}},{"type":"Feature","geometry":{"type":"Point","coordinates":[1.42659,45.82617]},"properties":{"nom":"Le Masbareau, Gîte le Vieux Domaine","sub":"LodgingBusiness","cm":"87400#Royères","web":"https://www.gites-de-france-hautevienne.fr/cgi.php?&OPE=SIRTAQUI&ORI=SIRTAQUI&NUM=87G5321&ACC=G&FICHE=O&INSTANCE=gites87&","uri":"https://data.datatourisme.fr/23/dd18d1e0-c226-3c9c-adae-ef6f624f66b8","dept":"87","reg":"naq"}},{"type":"Feature","geometry":{"type":"Point","coordinates":[1.42716,45.82602]},"properties":{"nom":"Accueil pèlerins du Masbareau","sub":"CollectiveAccommodation","cm":"87400#Royères","web":"https://www.masbareau.com/<>https://reservation.itea.fr/resa/etape1.php?ident=gites87_b2023.1.87G5321.G&exe=2023&modeResa=G&OPE=webprop&widget=1&duree=7&adultes=0&enfants=0&bebe=0","uri":"https://data.datatourisme.fr/23/9de27499-7177-3fc8-9729-b4d6695d3e20","dept":"87","reg":"naq"}},{"type":"Feature","geometry":{"type":"Point","coordinates":[1.5437,45.76882]},"properties":{"nom":"Les deux chênes","sub":"BedAndBreakfast","cm":"87400#Saint-Denis-des-Murs","web":"https://www.gites-de-france-hautevienne.fr/cgi.php?&OPE=SIRTAQUI&ORI=SIRTAQUI&NUM=87G5730&ACC=H&FICHE=O&INSTANCE=gites87&","uri":"https://data.datatourisme.fr/23/5511e0c4-e876-3f39-b2e3-a9cebc35db53","dept":"87","reg":"naq"}},{"type":"Feature","geometry":{"type":"Point","coordinates":[1.52131,45.88322]},"properties":{"nom":"Le Congé","sub":"LodgingBusiness","cm":"87400#Moissannes","web":"https://www.gites-de-france-hautevienne.fr/cgi.php?&OPE=SIRTAQUI&ORI=SIRTAQUI&NUM=87G5222&ACC=G&FICHE=O&INSTANCE=gites87&","uri":"https://data.datatourisme.fr/23/5d733fcd-1ee4-3e7e-a8ba-20a855784af5","dept":"87","reg":"naq"}},{"type":"Feature","geometry":{"type":"Point","coordinates":[1.38543,45.64732]},"properties":{"nom":"Le Vieux Château","sub":"LodgingBusiness","cm":"87260#Vicq-sur-Breuilh","web":"https://www.gites-de-france-hautevienne.fr/cgi.php?&OPE=SIRTAQUI&ORI=SIRTAQUI&NUM=87G6477&ACC=G&FICHE=O&INSTANCE=gites87&","uri":"https://data.datatourisme.fr/23/42fd7bab-4a92-35a4-999e-15513730d150","dept":"87","reg":"naq"}},{"type":"Feature","geometry":{"type":"Point","coordinates":[1.38545,45.64732]},"properties":{"nom":"Le Vieux Château","sub":"LodgingBusiness","cm":"87260#Vicq-sur-Breuilh","web":"https://www.gites-de-france-hautevienne.fr/cgi.php?&OPE=SIRTAQUI&ORI=SIRTAQUI&NUM=87G6476&ACC=G&FICHE=O&INSTANCE=gites87&","uri":"https://data.datatourisme.fr/23/3e21c182-c38a-3653-95e6-95ba23e4528e","dept":"87","reg":"naq"}},{"type":"Feature","geometry":{"type":"Point","coordinates":[1.44376,45.54946]},"properties":{"nom":"Le Mazeau","sub":"LodgingBusiness","cm":"87380#Meuzac","web":"https://www.gites-de-france-hautevienne.fr/cgi.php?&OPE=SIRTAQUI&ORI=SIRTAQUI&NUM=87G6534&ACC=G&FICHE=O&INSTANCE=gites87&","uri":"https://data.datatourisme.fr/23/4458f145-98fc-3213-877f-38b98ba8a528","dept":"87","reg":"naq"}},{"type":"Feature","geometry":{"type":"Point","coordinates":[1.44371,45.54939]},"properties":{"nom":"Pierrelaine","sub":"LodgingBusiness","cm":"87380#Meuzac","web":"https://www.gites-de-france-hautevienne.fr/cgi.php?&OPE=SIRTAQUI&ORI=SIRTAQUI&NUM=87G6533&ACC=G&FICHE=O&INSTANCE=gites87&","uri":"https://data.datatourisme.fr/23/d595350e-116d-3732-87e2-69953c4d44e0","dept":"87","reg":"naq"}},{"type":"Feature","geometry":{"type":"Point","coordinates":[1.44336,45.54938]},"properties":{"nom":"Royer","sub":"LodgingBusiness","cm":"87380#Meuzac","web":"https://www.gites-de-france-hautevienne.fr/cgi.php?&OPE=SIRTAQUI&ORI=SIRTAQUI&NUM=87G6531&ACC=G&FICHE=O&INSTANCE=gites87&","uri":"https://data.datatourisme.fr/23/9a6cd813-ba17-34ee-ad6e-0c164b51b238","dept":"87","reg":"naq"}},{"type":"Feature","geometry":{"type":"Point","coordinates":[1.44366,45.54961]},"properties":{"nom":"Chataignol","sub":"LodgingBusiness","cm":"87380#Meuzac","web":"https://www.gites-de-france-hautevienne.fr/cgi.php?&OPE=SIRTAQUI&ORI=SIRTAQUI&NUM=87G6535&ACC=G&FICHE=O&INSTANCE=gites87&","uri":"https://data.datatourisme.fr/23/dbfc32d8-deec-3642-909a-079f7ce22f3e","dept":"87","reg":"naq"}},{"type":"Feature","geometry":{"type":"Point","coordinates":[1.44373,45.54964]},"properties":{"nom":"Chavagnac","sub":"LodgingBusiness","cm":"87380#Meuzac","web":"https://www.gites-de-france-hautevienne.fr/cgi.php?&OPE=SIRTAQUI&ORI=SIRTAQUI&NUM=87G6536&ACC=G&FICHE=O&INSTANCE=gites87&","uri":"https://data.datatourisme.fr/23/b13291a2-661c-3741-8a0e-efd181bdcb67","dept":"87","reg":"naq"}},{"type":"Feature","geometry":{"type":"Point","coordinates":[1.44343,45.54944]},"properties":{"nom":"Basse Roche","sub":"LodgingBusiness","cm":"87380#Meuzac","web":"https://www.gites-de-france-hautevienne.fr/cgi.php?&OPE=SIRTAQUI&ORI=SIRTAQUI&NUM=87G6532&ACC=G&FICHE=O&INSTANCE=gites87&","uri":"https://data.datatourisme.fr/23/f37c2cc2-5be8-3185-974c-f458967bf290","dept":"87","reg":"naq"}},{"type":"Feature","geometry":{"type":"Point","coordinates":[1.84098,45.80781]},"properties":{"nom":"Gîte du Lac de Vassivière","sub":"LodgingBusiness","cm":"87470#Peyrat-le-Château","web":"https://www.gites-de-france-hautevienne.fr/cgi.php?&OPE=SIRTAQUI&ORI=SIRTAQUI&NUM=87G5290&ACC=G&FICHE=O&INSTANCE=gites87&","uri":"https://data.datatourisme.fr/23/1f92fb02-9a1b-3015-b732-941ce5585a2d","dept":"87","reg":"naq"}},{"type":"Feature","geometry":{"type":"Point","coordinates":[1.84173,45.70032]},"properties":{"nom":"Les soleils","sub":"LodgingBusiness","cm":"87120#Nedde","web":"https://www.gites-de-france-hautevienne.fr/cgi.php?&OPE=SIRTAQUI&ORI=SIRTAQUI&NUM=87G5243&ACC=G&FICHE=O&INSTANCE=gites87&","uri":"https://data.datatourisme.fr/23/2dbb2b69-4c13-3a1f-a45c-74b2481a22cd","dept":"87","reg":"naq"}},{"type":"Feature","geometry":{"type":"Point","coordinates":[1.41359,45.66323]},"properties":{"nom":"Les Hauts Prés de Fressanges","sub":"LodgingBusiness","cm":"87260#Vicq-sur-Breuilh","web":"https://www.gites-de-france-hautevienne.fr/cgi.php?&OPE=SIRTAQUI&ORI=SIRTAQUI&NUM=87G6470&ACC=G&FICHE=O&INSTANCE=gites87&","uri":"https://data.datatourisme.fr/23/2e70c354-92a7-3bdf-89a7-f6dfc3449e98","dept":"87","reg":"naq"}},{"type":"Feature","geometry":{"type":"Point","coordinates":[1.18363,45.63465]},"properties":{"nom":"Le Jolicy","sub":"LodgingBusiness","cm":"87800#Nexon","web":"https://www.booking.com/hotel/fr/le-jolicy.fr.html","uri":"https://data.datatourisme.fr/23/6a22be2a-dabb-3dfb-a383-04c34b60f6a0","dept":"87","reg":"naq"}},{"type":"Feature","geometry":{"type":"Point","coordinates":[1.29274,45.60111]},"properties":{"nom":"Maison Dulice","sub":"LodgingBusiness","cm":"87800#Saint-Priest-Ligoure","web":"https://www.chateaudefreyssinet.com/<>https://chateau-de-freyssinet.bookingmood.com/fr-FR/1-maison-dulice","uri":"https://data.datatourisme.fr/23/40b2fb60-7b78-3278-b318-bdd1e67d2eaa","dept":"87","reg":"naq"}},{"type":"Feature","geometry":{"type":"Point","coordinates":[1.29191,45.59968]},"properties":{"nom":"Maison Jourdaine","sub":"LodgingBusiness","cm":"87800#Saint-Priest-Ligoure","web":"https://www.chateaudefreyssinet.com/<>https://chateau-de-freyssinet.bookingmood.com/fr-FR/2-maison-jourdaine","uri":"https://data.datatourisme.fr/23/e69230e6-e6e5-3092-b584-49320b23c81b","dept":"87","reg":"naq"}},{"type":"Feature","geometry":{"type":"Point","coordinates":[1.45693,45.84649]},"properties":{"nom":"La petite maison d'Éliane","sub":"LodgingBusiness","cm":"87400#Saint-Léonard-de-Noblat","web":"https://www.airbnb.fr/rooms/28232539?source_impression_id=p3_1685009347_zTLYnNkS66GxkY42","uri":"https://data.datatourisme.fr/23/75d073ab-d05c-319b-af5e-15a7fd45ad3f","dept":"87","reg":"naq"}},{"type":"Feature","geometry":{"type":"Point","coordinates":[1.03642,45.62596]},"properties":{"nom":"Unalhome","sub":"LodgingBusiness","cm":"87230#Bussière-Galant","web":"https://www.airbnb.fr/rooms/48226549?source_impression_id=p3_1695028418_pxUix%2BauDm%2FIcSr5","uri":"https://data.datatourisme.fr/23/47b2fb70-4a03-364a-8c46-425aef5798af","dept":"87","reg":"naq"}},{"type":"Feature","geometry":{"type":"Point","coordinates":[1.20683,45.52942]},"properties":{"nom":"Hôtel La Tour Blanche Brit Hotel","sub":"Hotel","cm":"87500#Saint-Yrieix-la-Perche","web":"https://saint-yrieix.brithotel.fr/<>https://saint-yrieix.brithotel.fr/chambres?action=moteur_resa&count=6&checkindate=27%2F03%2F2023&checkoutdate=28%2F03%2F2023&grecaptcha=03AKH6MRHC_Umn6L7G_mZ2rBQhyoUEypzkobNFrKQPmV-qlqwEXxC5HM4HGvFE34JEC62b9lYbm8BbDkUWD998V2mrrq9VVPWyHct3iPz35C7XH79IYraxNvc_weC7TMGW6xNYDc5zP55zK6Yg7vJolGlJSmVKdrO3ld","uri":"https://data.datatourisme.fr/23/35333b42-8773-3a73-85b0-1144ac188427","dept":"87","reg":"naq"}},{"type":"Feature","geometry":{"type":"Point","coordinates":[0.90855,46.23564]},"properties":{"nom":"Gîte Adaptours","sub":"LodgingBusiness","cm":"87320#Val-d'Oire-et-Gartempe","web":"https://www.adaptours.fr/gite-adaptours-location-vacances-pmr/","uri":"https://data.datatourisme.fr/23/e1d50fac-0863-3381-88d1-1c3596aa73d3","dept":"87","reg":"naq"}},{"type":"Feature","geometry":{"type":"Point","coordinates":[1.3885,46.30194]},"properties":{"nom":"Les Rebras","sub":"LodgingBusiness","cm":"87160#Saint-Sulpice-les-Feuilles","web":"https://www.gites-de-france-hautevienne.fr/cgi.php?&OPE=SIRTAQUI&ORI=SIRTAQUI&NUM=87G1373&ACC=G&FICHE=O&INSTANCE=gites87&","uri":"https://data.datatourisme.fr/23/dbccd1a9-dbd8-3b9f-934c-83a44c61a208","dept":"87","reg":"naq"}},{"type":"Feature","geometry":{"type":"Point","coordinates":[1.17816,45.51873]},"properties":{"nom":"La réserve","sub":"LodgingBusiness","cm":"87500#Saint-Yrieix-la-Perche","web":"https://www.gites-de-france-hautevienne.fr/cgi.php?&OPE=SIRTAQUI&ORI=SIRTAQUI&NUM=87G6460&ACC=G&FICHE=O&INSTANCE=gites87&","uri":"https://data.datatourisme.fr/23/e53299f8-8d15-30d0-a46f-95e48fcbd3a3","dept":"87","reg":"naq"}},{"type":"Feature","geometry":{"type":"Point","coordinates":[1.31743,45.5409]},"properties":{"nom":"L' Ecurbie","sub":"LodgingBusiness","cm":"87500#Coussac-Bonneval","web":"https://www.gites-de-france-hautevienne.fr/cgi.php?&OPE=SIRTAQUI&ORI=SIRTAQUI&NUM=87G6044&ACC=G&FICHE=O&INSTANCE=gites87&","uri":"https://data.datatourisme.fr/23/f3ca7223-a900-34d7-b0bd-bf47d0f6c2e1","dept":"87","reg":"naq"}},{"type":"Feature","geometry":{"type":"Point","coordinates":[0.92819,45.7096]},"properties":{"nom":"Artbarn","sub":"LodgingBusiness","cm":"87230#Champsac","web":"https://www.gites-de-france-hautevienne.fr/cgi.php?&OPE=SIRTAQUI&ORI=SIRTAQUI&NUM=87G7120&ACC=G&FICHE=O&INSTANCE=gites87&","uri":"https://data.datatourisme.fr/23/dd9eb9cf-4d04-3296-bfca-8104fda175eb","dept":"87","reg":"naq"}},{"type":"Feature","geometry":{"type":"Point","coordinates":[1.28458,45.75389]},"properties":{"nom":"Le Terrier","sub":"LodgingBusiness","cm":"87110#Solignac","web":"https://www.gites-de-france-hautevienne.fr/cgi.php?&OPE=SIRTAQUI&ORI=SIRTAQUI&NUM=87G9456&ACC=G&FICHE=O&INSTANCE=gites87&","uri":"https://data.datatourisme.fr/23/e4ecd04b-a777-3f85-8f4f-414622577ed6","dept":"87","reg":"naq"}},{"type":"Feature","geometry":{"type":"Point","coordinates":[1.29982,45.95535]},"properties":{"nom":"Fuste","sub":"LodgingBusiness","cm":"87270#Bonnac-la-Côte","web":"https://www.gites-de-france-hautevienne.fr/cgi.php?&OPE=SIRTAQUI&ORI=SIRTAQUI&NUM=87G9040&ACC=G&FICHE=O&INSTANCE=gites87&","uri":"https://data.datatourisme.fr/23/ea23a33b-c601-3dd4-baa0-d0511778c9e0","dept":"87","reg":"naq"}},{"type":"Feature","geometry":{"type":"Point","coordinates":[1.20586,45.79685]},"properties":{"nom":"La Métairie","sub":"LodgingBusiness","cm":"87170#Isle","web":"https://www.gites-de-france-hautevienne.fr/cgi.php?&OPE=SIRTAQUI&ORI=SIRTAQUI&NUM=87G9151&ACC=G&FICHE=O&INSTANCE=gites87&","uri":"https://data.datatourisme.fr/23/2d991658-aa43-3da8-b770-f4bcbc713ef5","dept":"87","reg":"naq"}},{"type":"Feature","geometry":{"type":"Point","coordinates":[1.32741,46.04789]},"properties":{"nom":"La Couze","sub":"LodgingBusiness","cm":"87640#Razès","web":"https://www.gites-de-france-hautevienne.fr/cgi.php?&OPE=SIRTAQUI&ORI=SIRTAQUI&NUM=87G3303&ACC=G&FICHE=O&INSTANCE=gites87&","uri":"https://data.datatourisme.fr/23/e4ea37da-458d-3c9b-9fb6-0e709ef087e7","dept":"87","reg":"naq"}},{"type":"Feature","geometry":{"type":"Point","coordinates":[1.34074,45.98901]},"properties":{"nom":"Gîte de Chabanne","sub":"LodgingBusiness","cm":"87240#Saint-Sylvestre","web":"https://www.gites-de-france-hautevienne.fr/cgi.php?&OPE=SIRTAQUI&ORI=SIRTAQUI&NUM=87G4410&ACC=G&FICHE=O&INSTANCE=gites87&","uri":"https://data.datatourisme.fr/23/ec46c3d7-4c7d-3f6c-abab-8d08184ba3a1","dept":"87","reg":"naq"}},{"type":"Feature","geometry":{"type":"Point","coordinates":[1.38023,46.07672]},"properties":{"nom":"Kernad","sub":"BedAndBreakfast","cm":"87370#Bersac-sur-Rivalier","web":"https://www.gites-de-france-hautevienne.fr/cgi.php?&OPE=SIRTAQUI&ORI=SIRTAQUI&NUM=87G4709&ACC=H&FICHE=O&INSTANCE=gites87&","uri":"https://data.datatourisme.fr/23/efd1a4ea-ae4c-3c8a-928d-1f62bcef7704","dept":"87","reg":"naq"}},{"type":"Feature","geometry":{"type":"Point","coordinates":[0.94492,45.91289]},"properties":{"nom":"Chambres d'hôtes référence Domaine Georges V","sub":"BedAndBreakfast","cm":"87200#Saint-Junien","web":"http://domainegeorgesv.com/<>https://reservation.elloha.com/?idPublication=f764834a-b488-4bca-b4b6-66124cb72575&idoi=788c0a0c-ba36-4003-99d7-a02d53ff78e5&culture=fr-FR&reload=1&searchFirstAvailableDates=1","uri":"https://data.datatourisme.fr/23/ea7ce08b-5183-3b17-978d-70ea7df23883","dept":"87","reg":"naq"}},{"type":"Feature","geometry":{"type":"Point","coordinates":[1.48423,45.83776]},"properties":{"nom":"Sous les Serves","sub":"LodgingBusiness","cm":"87400#Saint-Léonard-de-Noblat","web":"https://www.gites-de-france-hautevienne.fr/cgi.php?&OPE=SIRTAQUI&ORI=SIRTAQUI&NUM=87G5405&ACC=G&FICHE=O&INSTANCE=gites87&","uri":"https://data.datatourisme.fr/23/f398aea9-8307-3ff2-934f-b0bdcb38caa2","dept":"87","reg":"naq"}},{"type":"Feature","geometry":{"type":"Point","coordinates":[1.54241,45.60336]},"properties":{"nom":"La Ferme de Lapeyrousse","sub":"BedAndBreakfast","cm":"87380#Saint-Vitte-sur-Briance","web":"https://www.gites-de-france-hautevienne.fr/cgi.php?&OPE=SIRTAQUI&ORI=SIRTAQUI&NUM=87G6710&ACC=H&FICHE=O&INSTANCE=gites87&","uri":"https://data.datatourisme.fr/23/e1cadf89-b11d-333d-97d6-5c56758689e7","dept":"87","reg":"naq"}},{"type":"Feature","geometry":{"type":"Point","coordinates":[1.62495,45.79765]},"properties":{"nom":"Plaisance","sub":"LodgingBusiness","cm":"87460#Bujaleuf","web":"https://www.gites-de-france-hautevienne.fr/cgi.php?&OPE=SIRTAQUI&ORI=SIRTAQUI&NUM=87G5032&ACC=G&FICHE=O&INSTANCE=gites87&","uri":"https://data.datatourisme.fr/23/f34b2fc4-7c31-305f-9d0d-9e8554138ea6","dept":"87","reg":"naq"}},{"type":"Feature","geometry":{"type":"Point","coordinates":[1.46055,46.12423]},"properties":{"nom":"Le Chalet Limousin","sub":"LodgingBusiness","cm":"87250#Folles","web":"https://lechaletlimousin.fr/<>https://www.booking.com/hotel/fr/le-chalet-du-limousin.fr.html<>https://www.airbnb.fr/rooms/883068228251609671?adults=1&children=0&enable_m3_private_room=true&infants=0&pets=0&check_in=2023-11-17&check_out=2023-11-22&source_impression_id=p3_1700044977_ceG%2FaCkji5A6fJ%2Fv&previous_page_section_name=1000&federated_search_id=4d424dc3-56a0-410d-83bc-474378c5b92a","uri":"https://data.datatourisme.fr/23/cdb26e1a-72f3-398b-98e8-6e33eea1d979","dept":"87","reg":"naq"}},{"type":"Feature","geometry":{"type":"Point","coordinates":[1.27575,46.09003]},"properties":{"nom":"La Mousselade","sub":"BedAndBreakfast","cm":"87290#Châteauponsac","web":"http://www.lamousselade.jimdo.com/","uri":"https://data.datatourisme.fr/23/d721623e-f520-3c9c-bcff-e89340b23198","dept":"87","reg":"naq"}},{"type":"Feature","geometry":{"type":"Point","coordinates":[1.0595,46.32161]},"properties":{"nom":"La Petite maison de Mouton","sub":"LodgingBusiness","cm":"87360#Azat-le-Ris","web":"https://petitemaisondemouton.com/","uri":"https://data.datatourisme.fr/23/f55f1edf-088e-3841-b93e-7d7075a82f00","dept":"87","reg":"naq"}},{"type":"Feature","geometry":{"type":"Point","coordinates":[1.35868,46.27269]},"properties":{"nom":"Gîte du Chatelat","sub":"LodgingBusiness","cm":"87160#Arnac-la-Poste","web":null,"uri":"https://data.datatourisme.fr/23/9cb8509c-56c5-3257-82eb-310fdfbaf3b9","dept":"87","reg":"naq"}},{"type":"Feature","geometry":{"type":"Point","coordinates":[1.21008,46.31107]},"properties":{"nom":"Les Cheyroux","sub":"LodgingBusiness","cm":"87190#Saint-Léger-Magnazeix","web":"https://www.gites-de-france-hautevienne.fr/cgi.php?&OPE=SIRTAQUI&ORI=SIRTAQUI&NUM=87G1310&ACC=G&FICHE=O&INSTANCE=gites87&","uri":"https://data.datatourisme.fr/23/a19028e7-7176-3490-bf0b-72125ece8a04","dept":"87","reg":"naq"}},{"type":"Feature","geometry":{"type":"Point","coordinates":[0.90992,46.12131]},"properties":{"nom":"Bonnefont","sub":"LodgingBusiness","cm":"87330#Val d'Issoire","web":"https://www.gites-de-france-hautevienne.fr/cgi.php?&OPE=SIRTAQUI&ORI=SIRTAQUI&NUM=87G2210&ACC=G&FICHE=O&INSTANCE=gites87&","uri":"https://data.datatourisme.fr/23/a763f836-c5b8-323d-9518-f5b1f9cf1610","dept":"87","reg":"naq"}},{"type":"Feature","geometry":{"type":"Point","coordinates":[1.39398,46.3431]},"properties":{"nom":"Le Grand Moulin","sub":"BedAndBreakfast","cm":"87160#Les Grands-Chézeaux","web":null,"uri":"https://data.datatourisme.fr/23/a8907848-63a7-3e4c-b344-7474eca9a539","dept":"87","reg":"naq"}},{"type":"Feature","geometry":{"type":"Point","coordinates":[1.11249,45.75799]},"properties":{"nom":"Le Moulin de Pont Pery","sub":"LodgingBusiness","cm":"87700#Saint-Martin-le-Vieux","web":"https://www.gites-de-france-hautevienne.fr/cgi.php?&OPE=SIRTAQUI&ORI=SIRTAQUI&NUM=87G9390&ACC=G&FICHE=O&INSTANCE=gites87&","uri":"https://data.datatourisme.fr/23/7b65dbed-cc33-350d-9f44-c613897677ef","dept":"87","reg":"naq"}},{"type":"Feature","geometry":{"type":"Point","coordinates":[1.01253,45.98872]},"properties":{"nom":"L'Etable des Saveurs","sub":"BedAndBreakfast","cm":"87520#Cieux","web":"https://www.gites-de-france-hautevienne.fr/cgi.php?&OPE=SIRTAQUI&ORI=SIRTAQUI&NUM=87G2708&ACC=H&FICHE=O&INSTANCE=gites87&","uri":"https://data.datatourisme.fr/23/7c730e7e-1c61-31ae-a6ff-6c23a4825455","dept":"87","reg":"naq"}},{"type":"Feature","geometry":{"type":"Point","coordinates":[1.09284,46.05727]},"properties":{"nom":"La Bergerie","sub":"LodgingBusiness","cm":"87300#Berneuil","web":"https://www.gites-de-france-hautevienne.fr/cgi.php?&OPE=SIRTAQUI&ORI=SIRTAQUI&NUM=87G2024&ACC=G&FICHE=O&INSTANCE=gites87&","uri":"https://data.datatourisme.fr/23/ade4ddd8-1350-3861-93f9-ae838bc427ae","dept":"87","reg":"naq"}},{"type":"Feature","geometry":{"type":"Point","coordinates":[1.29033,46.0428]},"properties":{"nom":"Roulotte La vert-Dîne","sub":"LodgingBusiness","cm":"87250#Saint-Pardoux-le-Lac","web":"https://roulotte-lacdesaintpardoux.jimdofree.com/","uri":"https://data.datatourisme.fr/23/b45aa939-e335-334c-a7dd-84e2b3121f0b","dept":"87","reg":"naq"}},{"type":"Feature","geometry":{"type":"Point","coordinates":[1.29036,46.04279]},"properties":{"nom":"Roulotte La vert-Dîne","sub":"BedAndBreakfast","cm":"87250#Saint-Pardoux-le-Lac","web":"https://roulotte-lacdesaintpardoux.jimdofree.com/","uri":"https://data.datatourisme.fr/23/0c1101d6-c35b-32c1-91ef-bb892914007a","dept":"87","reg":"naq"}},{"type":"Feature","geometry":{"type":"Point","coordinates":[1.30345,45.50789]},"properties":{"nom":"Domaines du  Moulin Authier : Meublé Le Gîte du Moulin.","sub":"LodgingBusiness","cm":"87500#Coussac-Bonneval","web":"http://www.lemoulinauthier.com/","uri":"https://data.datatourisme.fr/23/d91db849-b6a5-3312-a613-a184f024246d","dept":"87","reg":"naq"}},{"type":"Feature","geometry":{"type":"Point","coordinates":[1.18121,45.49814]},"properties":{"nom":"Meublé : Le moulin des Jalladas","sub":"LodgingBusiness","cm":"87500#Saint-Yrieix-la-Perche","web":null,"uri":"https://data.datatourisme.fr/23/907bf953-3383-3f0c-8025-c744a3702d93","dept":"87","reg":"naq"}},{"type":"Feature","geometry":{"type":"Point","coordinates":[0.82506,45.608]},"properties":{"nom":"Le Moulin de Pensol \"Le cerisier\"","sub":"LodgingBusiness","cm":"87440#Pensol","web":"https://lemoulindepensol.com/fr/referencement/cerisier-gite/<>https://secure.bookalet.co.uk/widget?id=b54b6331-685b-4dc8-8962-7e7cadd2887f&property=8404&monthcount=6","uri":"https://data.datatourisme.fr/23/ced2ec6f-69f6-3466-a17a-f666bd00976f","dept":"87","reg":"naq"}},{"type":"Feature","geometry":{"type":"Point","coordinates":[1.22336,45.81202]},"properties":{"nom":"Les Bayles","sub":"LodgingBusiness","cm":"87170#Isle","web":"https://www.gites-de-france-hautevienne.fr/cgi.php?&OPE=SIRTAQUI&ORI=SIRTAQUI&NUM=87G9153&ACC=G&FICHE=O&INSTANCE=gites87&","uri":"https://data.datatourisme.fr/23/c6217dee-b547-3706-a20e-2023b555f929","dept":"87","reg":"naq"}},{"type":"Feature","geometry":{"type":"Point","coordinates":[1.26542,45.76165]},"properties":{"nom":"Leygat","sub":"LodgingBusiness","cm":"87110#Solignac","web":"https://www.gites-de-france-hautevienne.fr/cgi.php?&OPE=SIRTAQUI&ORI=SIRTAQUI&NUM=87G9462&ACC=G&FICHE=O&INSTANCE=gites87&","uri":"https://data.datatourisme.fr/23/d1fdb624-1101-3de0-80bb-c0b07ad17d30","dept":"87","reg":"naq"}},{"type":"Feature","geometry":{"type":"Point","coordinates":[1.47733,46.04992]},"properties":{"nom":"Meublé de tourisme Les Ginkgos","sub":"LodgingBusiness","cm":"87370#Saint-Sulpice-Laurière","web":null,"uri":"https://data.datatourisme.fr/23/7c55d29b-9738-3657-8229-5c6f9e77ca4b","dept":"87","reg":"naq"}},{"type":"Feature","geometry":{"type":"Point","coordinates":[1.36457,45.97636]},"properties":{"nom":"La cabane du Vieux Huraud","sub":"BedAndBreakfast","cm":"87240#Saint-Sylvestre","web":"https://www.gites-de-france-hautevienne.fr/cgi.php?&OPE=SIRTAQUI&ORI=SIRTAQUI&NUM=87G4708&ACC=H&FICHE=O&INSTANCE=gites87&","uri":"https://data.datatourisme.fr/23/abf64b2a-b884-3b56-b339-7fbac90a2977","dept":"87","reg":"naq"}},{"type":"Feature","geometry":{"type":"Point","coordinates":[0.96714,45.97546]},"properties":{"nom":"Ecogîte des Monts de Blond","sub":"LodgingBusiness","cm":"87520#Javerdat","web":"https://www.gites-de-france-hautevienne.fr/cgi.php?&OPE=SIRTAQUI&ORI=SIRTAQUI&NUM=87G2203&ACC=G&FICHE=O&INSTANCE=gites87&","uri":"https://data.datatourisme.fr/23/da1be706-4e0f-3837-b620-50d385b8a601","dept":"87","reg":"naq"}},{"type":"Feature","geometry":{"type":"Point","coordinates":[0.91169,45.64356]},"properties":{"nom":"Latterie","sub":"LodgingBusiness","cm":"87230#Dournazac","web":"https://www.gites-de-france-hautevienne.fr/cgi.php?&OPE=SIRTAQUI&ORI=SIRTAQUI&NUM=87G7202&ACC=G&FICHE=O&INSTANCE=gites87&","uri":"https://data.datatourisme.fr/23/77a6a6cf-3e89-3eba-9eb8-35a822814d8f","dept":"87","reg":"naq"}},{"type":"Feature","geometry":{"type":"Point","coordinates":[1.06441,45.7156]},"properties":{"nom":"Le Clos de l'Arthonnet","sub":"BedAndBreakfast","cm":"87230#Flavignac","web":"https://www.gites-de-france-hautevienne.fr/cgi.php?&OPE=SIRTAQUI&ORI=SIRTAQUI&NUM=87G7714&ACC=H&FICHE=O&INSTANCE=gites87&","uri":"https://data.datatourisme.fr/23/cb373564-7c50-3b06-bc6e-680fae677b1d","dept":"87","reg":"naq"}},{"type":"Feature","geometry":{"type":"Point","coordinates":[1.83565,45.77083]},"properties":{"nom":"Meublé Clévacances Beaumont","sub":"LodgingBusiness","cm":"87120#Beaumont-du-Lac","web":"https://www.airbnb.fr/rooms/714421823684063467?guests=1&adults=1&s=67&unique_share_id=d29673ec-302c-4901-a5a9-6883bc8537a2","uri":"https://data.datatourisme.fr/23/a660410e-91d8-3a8c-960a-40a1eef27555","dept":"87","reg":"naq"}},{"type":"Feature","geometry":{"type":"Point","coordinates":[1.49002,45.83744]},"properties":{"nom":"Maison Gay Lussac","sub":"BedAndBreakfast","cm":"87400#Saint-Léonard-de-Noblat","web":"https://www.gites-de-france-hautevienne.fr/cgi.php?&OPE=SIRTAQUI&ORI=SIRTAQUI&NUM=87G5729&ACC=H&FICHE=O&INSTANCE=gites87&","uri":"https://data.datatourisme.fr/23/7fd64691-becf-3c2a-99c3-9d0fc6964eb0","dept":"87","reg":"naq"}},{"type":"Feature","geometry":{"type":"Point","coordinates":[1.48972,45.83859]},"properties":{"nom":"La Rapiette de Noblat","sub":"BedAndBreakfast","cm":"87400#Saint-Léonard-de-Noblat","web":"https://www.gites-de-france-hautevienne.fr/cgi.php?&OPE=SIRTAQUI&ORI=SIRTAQUI&NUM=87G5728&ACC=H&FICHE=O&INSTANCE=gites87&","uri":"https://data.datatourisme.fr/23/d55c791d-ab0e-3563-b26b-f826ca2a8513","dept":"87","reg":"naq"}},{"type":"Feature","geometry":{"type":"Point","coordinates":[1.4385,45.81496]},"properties":{"nom":"Cabane sur Pilotis les Bois de Saint Auvent","sub":"LodgingBusiness","cm":"87400#La Geneytouse","web":"https://www.abracadaroom.com/fr/reservation-les-bois-de-saint-auvent-cabane-sur-pilotis-chalet-sur-pilotis-2690/<>https://www.leboncoin.fr/hebergements_insolites/1924061447.htm<>https://www.lesboisdesaintauvent.com/","uri":"https://data.datatourisme.fr/23/d76ff2d0-f9fe-3faf-b344-16b458d84b59","dept":"87","reg":"naq"}},{"type":"Feature","geometry":{"type":"Point","coordinates":[1.4386,45.81498]},"properties":{"nom":"Roulotte les Bois de Saint-Auvent","sub":"LodgingBusiness","cm":"87400#La Geneytouse","web":"https://www.facebook.com/boisdesaintauvent/<>https://www.lesboisdesaintauvent.com/locations.html","uri":"https://data.datatourisme.fr/23/cf5dbb6d-879c-329d-af74-de275529ccc9","dept":"87","reg":"naq"}},{"type":"Feature","geometry":{"type":"Point","coordinates":[1.46611,45.81091]},"properties":{"nom":"Gîte des Dâmes","sub":"LodgingBusiness","cm":"87400#Saint-Léonard-de-Noblat","web":"https://www.gites-de-france-hautevienne.fr/cgi.php?&OPE=SIRTAQUI&ORI=SIRTAQUI&NUM=87G5403&ACC=G&FICHE=O&INSTANCE=gites87&","uri":"https://data.datatourisme.fr/23/99905c90-9495-3e9d-9c00-2fd67c8444bd","dept":"87","reg":"naq"}},{"type":"Feature","geometry":{"type":"Point","coordinates":[1.39908,45.59712]},"properties":{"nom":"La Flotte","sub":"LodgingBusiness","cm":"87380#Château-Chervix","web":"https://www.gites-de-france-hautevienne.fr/cgi.php?&OPE=SIRTAQUI&ORI=SIRTAQUI&NUM=87G6003&ACC=G&FICHE=O&INSTANCE=gites87&","uri":"https://data.datatourisme.fr/23/8c1f9976-37d3-3bf8-8aab-5f5291a79782","dept":"87","reg":"naq"}},{"type":"Feature","geometry":{"type":"Point","coordinates":[1.72752,45.67134]},"properties":{"nom":"Brenac","sub":"LodgingBusiness","cm":"87120#Eymoutiers","web":"https://www.gites-de-france-hautevienne.fr/cgi.php?&OPE=SIRTAQUI&ORI=SIRTAQUI&NUM=87G5140&ACC=G&FICHE=O&INSTANCE=gites87&","uri":"https://data.datatourisme.fr/23/c86ff405-0641-349b-b55f-9283d5145e21","dept":"87","reg":"naq"}},{"type":"Feature","geometry":{"type":"Point","coordinates":[1.69727,45.80302]},"properties":{"nom":"Samis","sub":"LodgingBusiness","cm":"87460#Saint-Julien-le-Petit","web":"https://www.gites-de-france-hautevienne.fr/cgi.php?&OPE=SIRTAQUI&ORI=SIRTAQUI&NUM=87G5384&ACC=G&FICHE=O&INSTANCE=gites87&","uri":"https://data.datatourisme.fr/23/cbf957d9-8369-3f03-8a82-d70fb6e0991b","dept":"87","reg":"naq"}},{"type":"Feature","geometry":{"type":"Point","coordinates":[1.69742,45.80306]},"properties":{"nom":"Samis","sub":"LodgingBusiness","cm":"87460#Saint-Julien-le-Petit","web":"https://www.gites-de-france-hautevienne.fr/cgi.php?&OPE=SIRTAQUI&ORI=SIRTAQUI&NUM=87G5383&ACC=G&FICHE=O&INSTANCE=gites87&","uri":"https://data.datatourisme.fr/23/073a11c2-cd19-34b2-a30f-675194628962","dept":"87","reg":"naq"}},{"type":"Feature","geometry":{"type":"Point","coordinates":[1.69618,45.8011]},"properties":{"nom":"Samis Sud 26","sub":"LodgingBusiness","cm":"87460#Saint-Julien-le-Petit","web":"https://www.gites-de-france-hautevienne.fr/cgi.php?&OPE=SIRTAQUI&ORI=SIRTAQUI&NUM=87G5382&ACC=G&FICHE=O&INSTANCE=gites87&","uri":"https://data.datatourisme.fr/23/7b385b06-b489-33cb-ae1b-fc3a8c81db92","dept":"87","reg":"naq"}},{"type":"Feature","geometry":{"type":"Point","coordinates":[1.6863,45.7639]},"properties":{"nom":"Chambres d’hôtes Référence Maison du Masjoubert","sub":"BedAndBreakfast","cm":"87120#Augne","web":"https://chambre-limousin-masjoubert.fr/<>https://reservation.elloha.com/?idPublication=08bfe7ad-c58c-4e65-a171-d1c07dc969d1&idoi=a211da87-7454-4fec-b427-2e4ff57768af&culture=fr-FR&reload=1&searchFirstAvailableDates=1","uri":"https://data.datatourisme.fr/23/93cd39ae-d01c-384d-be5d-f219bcef0703","dept":"87","reg":"naq"}},{"type":"Feature","geometry":{"type":"Point","coordinates":[1.57514,45.71179]},"properties":{"nom":"Gîte de Lavergne","sub":"LodgingBusiness","cm":"87130#Châteauneuf-la-Forêt","web":"https://www.gites-de-france-hautevienne.fr/cgi.php?&OPE=SIRTAQUI&ORI=SIRTAQUI&NUM=87G5072&ACC=G&FICHE=O&INSTANCE=gites87&","uri":"https://data.datatourisme.fr/23/9db043ed-5a46-3872-8523-486f76348f21","dept":"87","reg":"naq"}},{"type":"Feature","geometry":{"type":"Point","coordinates":[1.01253,45.98872]},