{"type":"FeatureCollection","features":[{"type":"Feature","geometry":{"type":"Point","coordinates":[2.5624,49.01092]},"properties":{"nom":"Radisson Blu CDG Airport Terminal Hotel","sub":"HotelRestaurant","cm":"93290#Tremblay-en-France","web":"https://www.radissonhotels.com/fr-fr/hotels/radisson-blu-paris-roissy-CDG-airport","uri":"https://data.datatourisme.fr/13/90287157-ab2e-3554-a072-f076aa38f1cf","dept":"93","reg":"idf"}},{"type":"Feature","geometry":{"type":"Point","coordinates":[2.34318,48.9222]},"properties":{"nom":"Hôtel - Courtyard By Marriott Paris Saint-Denis","sub":"HotelRestaurant","cm":"93210#Saint-Denis","web":"http://www.courtyardsaintdenis.fr/","uri":"https://data.datatourisme.fr/13/3a6a8756-b0bc-3dc5-9a50-5ec22c05357a","dept":"93","reg":"idf"}},{"type":"Feature","geometry":{"type":"Point","coordinates":[2.34038,48.92902]},"properties":{"nom":"Ibis Styles Paris Saint-Denis Pleyel","sub":"Hotel","cm":"93200#Saint-Denis","web":"https://all.accor.com/hotel/C1V8/index.fr.shtml?utm_campaign=seo+maps&utm_medium=seo+maps&utm_source=google+Maps","uri":"https://data.datatourisme.fr/19/a66c1653-45ae-365e-be84-f33f3a23b8dd","dept":"93","reg":"idf"}},{"type":"Feature","geometry":{"type":"Point","coordinates":[2.34043,48.92895]},"properties":{"nom":"Hôtel - Ibis Styles Paris Saint Denis Pleyel","sub":"HotelRestaurant","cm":"93200#Saint-Denis","web":"https://all.accor.com/hotel/C1V8/index.fr.shtml","uri":"https://data.datatourisme.fr/13/30ae43da-58ef-32f6-9b54-a8dab6d5e03f","dept":"93","reg":"idf"}},{"type":"Feature","geometry":{"type":"Point","coordinates":[2.41617,48.86333]},"properties":{"nom":"Novotel Paris Est Centre de Conférence","sub":"Hotel","cm":"93177#Bagnolet","web":"https://www.accorhotels.com/fr/hotel-0380-novotel-paris-est/index.shtml","uri":"https://data.datatourisme.fr/19/6dcb8cff-208d-323e-bc42-3f038a197e4f","dept":"93","reg":"idf"}},{"type":"Feature","geometry":{"type":"Point","coordinates":[2.35461,48.92574]},"properties":{"nom":"Hôtel - Ibis Saint-Denis Stade Ouest","sub":"HotelRestaurant","cm":"93210#Saint-Denis","web":"https://all.accor.com/hotel/1940/index.fr.shtml","uri":"https://data.datatourisme.fr/13/bf86fe01-126c-3ab1-8147-e13c5f456af2","dept":"93","reg":"idf"}},{"type":"Feature","geometry":{"type":"Point","coordinates":[2.36297,48.92365]},"properties":{"nom":"Hôtel - Novotel Suites Paris Stade de France","sub":"Hotel","cm":"93210#Saint-Denis","web":"https://all.accor.com/hotel/3325/index.fr.shtml","uri":"https://data.datatourisme.fr/13/324ea3ce-8aff-3648-b947-abadc891f71a","dept":"93","reg":"idf"}},{"type":"Feature","geometry":{"type":"Point","coordinates":[2.35712,48.93]},"properties":{"nom":"Hôtel - Novotel Paris Saint-Denis Stade Basilique","sub":"HotelRestaurant","cm":"93200#Saint-Denis","web":"https://all.accor.com/hotel/9720/index.fr.shtml#origin=novotel","uri":"https://data.datatourisme.fr/13/02e0a1aa-4b0f-301b-9dab-d5b410241c92","dept":"93","reg":"idf"}},{"type":"Feature","geometry":{"type":"Point","coordinates":[2.40339,48.8911]},"properties":{"nom":"Campanile Paris Est Pantin","sub":"Hotel","cm":"93500#Pantin","web":"https://paris-est-pantin.campanile.com/","uri":"https://data.datatourisme.fr/19/7b07be6d-2237-39d8-8ec1-c60c7495f0c7","dept":"93","reg":"idf"}},{"type":"Feature","geometry":{"type":"Point","coordinates":[2.34323,48.92181]},"properties":{"nom":"Hôtel - B&B Hôtel Paris Saint-Denis Pleyel","sub":"Hotel","cm":"93210#Saint-Denis","web":"http://www.hotel-bb.com/","uri":"https://data.datatourisme.fr/13/8c881d5a-bd28-3b1a-a40d-3d14a95dae64","dept":"93","reg":"idf"}},{"type":"Feature","geometry":{"type":"Point","coordinates":[2.47533,48.87848]},"properties":{"nom":"Première Classe Paris Est - Rosny-sous-Bois","sub":"Hotel","cm":"93110#Rosny-sous-Bois","web":"http://premiere-classe-rosny-sous-bois.fr/","uri":"https://data.datatourisme.fr/19/69d530f8-cfa1-3895-9b62-6e8bb17da19c","dept":"93","reg":"idf"}},{"type":"Feature","geometry":{"type":"Point","coordinates":[2.5605,49.011]},"properties":{"nom":"Ibis Paris CDG Airport","sub":"HotelRestaurant","cm":"93290#Tremblay-en-France","web":"http://www.ibis.com/fr/hotel-1404-ibis-paris-cdg-airport/index.shtml","uri":"https://data.datatourisme.fr/13/3eff5c5b-76b0-328b-9495-423ed2daf41d","dept":"93","reg":"idf"}},{"type":"Feature","geometry":{"type":"Point","coordinates":[2.41918,48.92891]},"properties":{"nom":"Hôtel - B&B Hôtel Paris Le Bourget","sub":"Hotel","cm":"93120#La Courneuve","web":"http://www.hotel-bb.com/","uri":"https://data.datatourisme.fr/13/341fd359-d7f3-325d-9a9d-6c9646f2acd9","dept":"93","reg":"idf"}},{"type":"Feature","geometry":{"type":"Point","coordinates":[2.41054,48.93237]},"properties":{"nom":"Hôtel - Ibis Le Bourget","sub":"HotelRestaurant","cm":"93120#La Courneuve","web":"https://all.accor.com/hotel/3438/index.fr.shtml?dateIn=&nights=&compositions=1&stayplus=false#origin=ibis","uri":"https://data.datatourisme.fr/13/cea1a4ca-3042-3ada-9394-a952b8196fc9","dept":"93","reg":"idf"}},{"type":"Feature","geometry":{"type":"Point","coordinates":[2.41728,48.86619]},"properties":{"nom":"Hôtel Reseda Paris","sub":"Hotel","cm":"93170#Bagnolet","web":"http://www.hotel-reseda-paris.com/","uri":"https://data.datatourisme.fr/13/317fd083-ce49-3171-a9a1-bff63a2c1e0f","dept":"93","reg":"idf"}},{"type":"Feature","geometry":{"type":"Point","coordinates":[2.30814,48.95409]},"properties":{"nom":"Hôtel - Ibis Epinay-Sur-Seine Gennevilliers","sub":"HotelRestaurant","cm":"93800#Épinay-sur-Seine","web":"http://www.ibis.com/","uri":"https://data.datatourisme.fr/13/898c34ae-2e69-3d05-863a-45598771288e","dept":"93","reg":"idf"}},{"type":"Feature","geometry":{"type":"Point","coordinates":[2.36402,48.92121]},"properties":{"nom":"Hôtel - Ibis Saint-Denis Stade Sud","sub":"Hotel","cm":"93210#Saint-Denis","web":"https://all.accor.com/hotel/2792/index.fr.shtml","uri":"https://data.datatourisme.fr/13/8c80c03b-176f-3da7-b865-0ca9c332727e","dept":"93","reg":"idf"}},{"type":"Feature","geometry":{"type":"Point","coordinates":[2.43483,48.91147]},"properties":{"nom":"Hôtel Première Classe Drancy","sub":"Hotel","cm":"93700#Drancy","web":"https://www.premiereclasse.com/fr-fr/nos-hotels/france/ile-de-france/hotels-drancy/","uri":"https://data.datatourisme.fr/19/10190c1b-990c-3a81-bea7-f02bc38105c1","dept":"93","reg":"idf"}},{"type":"Feature","geometry":{"type":"Point","coordinates":[2.46559,48.95044]},"properties":{"nom":"Première Classe Le Blanc-Mesnil","sub":"Hotel","cm":"93150#Le Blanc-Mesnil","web":"http://premiere-classe-le-blanc-mesnil.fr/","uri":"https://data.datatourisme.fr/19/8de85342-9f1e-3069-8154-48cac584ad9c","dept":"93","reg":"idf"}},{"type":"Feature","geometry":{"type":"Point","coordinates":[2.46558,48.95042]},"properties":{"nom":"Kyriad Le Blanc-Mesnil","sub":"Hotel","cm":"93150#Le Blanc-Mesnil","web":"https://www.kyriad.com/fr/hotels/kyriad-le-blanc-mesnil","uri":"https://data.datatourisme.fr/19/e6d92fcb-373f-3aaf-b034-3b6348c90512","dept":"93","reg":"idf"}},{"type":"Feature","geometry":{"type":"Point","coordinates":[2.46648,48.95073]},"properties":{"nom":"Campanile Le Blanc-Mesnil","sub":"Hotel","cm":"93150#Le Blanc-Mesnil","web":"http://www.campanile-blanc-mesnil.fr/fr","uri":"https://data.datatourisme.fr/19/bf55a449-0675-3423-adf0-3b8f89806cc5","dept":"93","reg":"idf"}},{"type":"Feature","geometry":{"type":"Point","coordinates":[2.32889,48.90163]},"properties":{"nom":"Kyriad Paris Nord Porte de Saint-Ouen","sub":"Hotel","cm":"93400#Saint-Ouen-sur-Seine","web":"http://www.kyriad-paris-nord-porte-de-saint-ouen.fr/","uri":"https://data.datatourisme.fr/19/99f3b067-5b9a-32f5-aa02-5e634425a066","dept":"93","reg":"idf"}},{"type":"Feature","geometry":{"type":"Point","coordinates":[2.41544,48.86531]},"properties":{"nom":"Campanile Paris Est - Porte de Bagnolet","sub":"Hotel","cm":"93170#Bagnolet","web":"http://campanile-paris-est-porte-de-bagnolet.fr/","uri":"https://data.datatourisme.fr/19/e0e10a20-c193-3969-9a81-d0cdf2f88a08","dept":"93","reg":"idf"}},{"type":"Feature","geometry":{"type":"Point","coordinates":[2.33741,48.91567]},"properties":{"nom":"Le Charmant","sub":"Hotel","cm":"93400#Saint-Ouen-sur-Seine","web":"https://hotel-lecharmant-saint-ouen.fr/","uri":"https://data.datatourisme.fr/19/75e061eb-90cd-3b60-a28c-e51fb356d9f1","dept":"93","reg":"idf"}},{"type":"Feature","geometry":{"type":"Point","coordinates":[2.33869,48.90957]},"properties":{"nom":"Hôtel - B&B Home Paris Mairie de Saint-Ouen","sub":"Hotel","cm":"93400#Saint-Ouen-sur-Seine","web":"https://www.hotel-bb.com/fr/hotel/paris-mairie-de-saint-ouen?gps%5Bvalue%5D=48.9093087%2C2.3347745&gps%5Bdistance%5D%5Bfrom%5D=10&bounds=%7B%22south%22%3A48.9004018%2C%22west%22%3A2.3138058%2C%22north%22%3A48.9231545%2C%22east%22%3A2.3519341%2C%22type%22%3A%22postal_code%22%7D&loc_country=FR&arrival_date=09%2F01%2F2024&departure_date=09%2F02%2F2024&destination=93400&internal_keywords=93400&viewport=1940x660&r1_ad=1&currency_code=EUR#rooms-block-scroll","uri":"https://data.datatourisme.fr/13/b0d4b767-5c3c-3c1e-af46-002d7beec8c9","dept":"93","reg":"idf"}},{"type":"Feature","geometry":{"type":"Point","coordinates":[2.43092,48.93985]},"properties":{"nom":"Kyriad Le Bourget Centre - Parc des Expositions","sub":"Hotel","cm":"93350#Le Bourget","web":"https://le-bourget-centre-parc-des-expositions.kyriad.com/fr-fr/","uri":"https://data.datatourisme.fr/19/d176d63e-ab41-3e41-bdfd-d7178ee8bda2","dept":"93","reg":"idf"}},{"type":"Feature","geometry":{"type":"Point","coordinates":[2.44407,48.95644]},"properties":{"nom":"AC Hôtel Paris le Bourget Airport","sub":"Hotel","cm":"93440#Le Bourget","web":"https://www.marriott.com/hotels/travel/paral-ac-hotel-paris-le-bourget-airport/","uri":"https://data.datatourisme.fr/19/d94ebb46-e064-3987-98fe-962f0515cb74","dept":"93","reg":"idf"}},{"type":"Feature","geometry":{"type":"Point","coordinates":[2.5171,48.966]},"properties":{"nom":"Ibis Villepinte Parc des Expositions","sub":"Hotel","cm":"93420#Villepinte","web":"https://all.accor.com/hotel/0976/index.fr.shtml","uri":"https://data.datatourisme.fr/13/3cd2abda-0109-3a83-92dd-cea6a7e96b6b","dept":"93","reg":"idf"}},{"type":"Feature","geometry":{"type":"Point","coordinates":[2.38035,48.91039]},"properties":{"nom":"Hôtel - Ibis Budget Paris Aubervilliers","sub":"Hotel","cm":"93300#Aubervilliers","web":"https://all.accor.com/hotel/3491/index.fr.shtml?dateIn=&nights=&compositions=1&stayplus=false#origin=ibis","uri":"https://data.datatourisme.fr/13/30dc0f9e-52d0-3b10-abb5-d5fe8be7022e","dept":"93","reg":"idf"}},{"type":"Feature","geometry":{"type":"Point","coordinates":[2.32874,48.90164]},"properties":{"nom":"Hôtel - Ibis Paris Nord Porte de Saint Ouen","sub":"HotelRestaurant","cm":"93400#Saint-Ouen-sur-Seine","web":"https://all.accor.com/ssr/app/ibis/rates/C419/index.fr.shtml?compositions=1&stayplus=false&snu=false&accessibleRooms=false&hideWDR=false&productCode=null&hideHotelDetails=false&_gl=1%2A5k4x93%2A_ga%2AMTU1NTU0Mjg1NS4xNzU3ODYxNDI4%2A_ga_SS2636QBDW%2AczE3NTc4NjE0MjckbzEkZzEkdDE3NTc4NjE0NDMkajQ0JGwwJGgxODc5MzU0ODk4%2A_fplc%2AZ0JFNFVxS3R6UnppY0E4QllHM0lKQmQwaUFJQ0JQeHVmS2t3MEJlR0FDeGF1ZnUxWlpXTmw5bTZuR1IlMkJ3bGphcjFvTU1rcWlEZjBXMWU5QU15MkRGTmtDdVRVVVklMkZZY2VybndqdzNTbTBuQXFEVjFod3g4MzV4V2tYQ0NrUSUzRCUzRA..%2A_ga_1H477PYKBJ%2AczE3NTc4NjE0NDEkbzEkZzAkdDE3NTc4NjE0NDEkajYwJGwwJGgxOTc5MTM2MDEx","uri":"https://data.datatourisme.fr/13/40a6e46b-ff7f-3e76-b222-79d8f99b1a63","dept":"93","reg":"idf"}},{"type":"Feature","geometry":{"type":"Point","coordinates":[2.37332,48.93386]},"properties":{"nom":"Hôtel - B&B Hôtel Saint-Denis Porte de Paris","sub":"Hotel","cm":"93200#Saint-Denis","web":"https://www.hotel-bb.com/fr/hotel/saint-denis-porte-de-paris?gclid=CjwKCAjw2ZaGBhBoEiwA8pfP_r2DpSBqpUzUHWLQ0t512LzPAE294K7J1HkpEgz8XikC-Jgstc_-RRoCDhoQAvD_BwE&gclsrc=aw.ds","uri":"https://data.datatourisme.fr/13/70ded2e1-44f8-3b5b-8e86-d973944c2bfa","dept":"93","reg":"idf"}},{"type":"Feature","geometry":{"type":"Point","coordinates":[2.33239,48.90612]},"properties":{"nom":"Hôtel - L'Avenir","sub":"HotelRestaurant","cm":"93400#Saint-Ouen-sur-Seine","web":null,"uri":"https://data.datatourisme.fr/13/eaeb2272-ef57-3fb2-b78a-c93c6d9661b5","dept":"93","reg":"idf"}},{"type":"Feature","geometry":{"type":"Point","coordinates":[2.53518,48.8532]},"properties":{"nom":"Camping les Rives de Paris","sub":"Camping","cm":"93330#Neuilly-sur-Marne","web":"https://camping.lesrivesdeparis.fr/","uri":"https://data.datatourisme.fr/19/4c553b64-b6c5-37ae-8531-2ad9a9b43f18","dept":"93","reg":"idf"}},{"type":"Feature","geometry":{"type":"Point","coordinates":[2.55349,48.96075]},"properties":{"nom":"Campanile Villepinte - Parc des Expositions","sub":"Hotel","cm":"93420#Villepinte","web":"https://www.campanile.com/fr/hotels/campanile-villepinte-parc-des-expositions","uri":"https://data.datatourisme.fr/19/87d4c492-e324-3d68-8d60-906af167cb42","dept":"93","reg":"idf"}},{"type":"Feature","geometry":{"type":"Point","coordinates":[2.44936,48.96245]},"properties":{"nom":"Campanile Le Bourget Airport","sub":"Hotel","cm":"93350#Le Bourget","web":"https://le-bourget-aeroport.campanile.com/fr-fr/","uri":"https://data.datatourisme.fr/19/e4e8d533-8f5f-3628-9efd-c4dcf43dd42b","dept":"93","reg":"idf"}},{"type":"Feature","geometry":{"type":"Point","coordinates":[2.45764,48.90586]},"properties":{"nom":"Campanile Paris Est Bobigny","sub":"Hotel","cm":"93000#Bobigny","web":"http://campanile-paris-est-bobigny.fr/","uri":"https://data.datatourisme.fr/19/eeaf1b08-21ed-316f-bef8-643d09d32a17","dept":"93","reg":"idf"}},{"type":"Feature","geometry":{"type":"Point","coordinates":[2.35831,48.91412]},"properties":{"nom":"Hôtel - Ibis Styles Paris Saint-Denis Plaine","sub":"Hotel","cm":"93210#Saint-Denis","web":"https://all.accor.com/hotel/8538/index.fr.shtml?dateIn=2020-02-03&nights=1&compositions=1&stayplus=false#origin=ibis","uri":"https://data.datatourisme.fr/13/a6cb2541-cdbc-3f7c-bff9-028906f62799","dept":"93","reg":"idf"}},{"type":"Feature","geometry":{"type":"Point","coordinates":[2.3354,48.91299]},"properties":{"nom":"Tribe Paris Saint Ouen","sub":"Hotel","cm":"93400#Saint-Ouen-sur-Seine","web":"https://tribehotels.com/fr/france/paris-saint-ouen/","uri":"https://data.datatourisme.fr/19/7a9cb2f9-55e4-3f3f-a1a6-43e229cffff9","dept":"93","reg":"idf"}},{"type":"Feature","geometry":{"type":"Point","coordinates":[2.33348,48.92537]},"properties":{"nom":"Hôtel - All Suites Hôtel - Paris Pleyel","sub":"Hotel","cm":"93450#L'Île-Saint-Denis","web":"https://www.allsuites.com/hotel/hotel-paris-pleyel","uri":"https://data.datatourisme.fr/13/c747631c-0665-349e-92da-cf10681bb166","dept":"93","reg":"idf"}},{"type":"Feature","geometry":{"type":"Point","coordinates":[2.42964,48.89479]},"properties":{"nom":"Ibis Styles Paris Romainville","sub":"Hotel","cm":"93230#Romainville","web":"https://all.accor.com/hotel/B5U8/index.fr.shtml","uri":"https://data.datatourisme.fr/19/a657498c-d14f-31d8-bcc6-edc4666d7c5d","dept":"93","reg":"idf"}},{"type":"Feature","geometry":{"type":"Point","coordinates":[2.33419,48.90419]},"properties":{"nom":"Mob Hotel","sub":"Hotel","cm":"93400#Saint-Ouen-sur-Seine","web":"http://mobhotel.com/","uri":"https://data.datatourisme.fr/19/965dc16d-b7df-3e3f-ac15-c7da02cfa26c","dept":"93","reg":"idf"}},{"type":"Feature","geometry":{"type":"Point","coordinates":[2.33762,48.90488]},"properties":{"nom":"Mob House","sub":"Hotel","cm":"93400#Saint-Ouen-sur-Seine","web":"https://www.mobhouse.com/","uri":"https://data.datatourisme.fr/19/d6d09ab5-63a8-3e07-a8bf-336812135bef","dept":"93","reg":"idf"}},{"type":"Feature","geometry":{"type":"Point","coordinates":[2.57089,49.00398]},"properties":{"nom":"Sheraton Paris Airport Hotel & Conference Centre","sub":"HotelRestaurant","cm":"93290#Tremblay-en-France","web":"https://www.marriott.com/en-us/hotels/parsi-sheraton-paris-charles-de-gaulle-airport-hotel/overview/","uri":"https://data.datatourisme.fr/13/dc303b02-6262-36a5-a92f-3388f966b912","dept":"93","reg":"idf"}},{"type":"Feature","geometry":{"type":"Point","coordinates":[2.33634,48.91207]},"properties":{"nom":"Hôtel - Best Western 11BAUER Paris Saint-Ouen","sub":"Hotel","cm":"93400#Saint-Ouen-sur-Seine","web":"https://www.hotel-11bauer.com/","uri":"https://data.datatourisme.fr/13/1ae3459b-1b70-36e3-b0c9-4382dd70212c","dept":"93","reg":"idf"}},{"type":"Feature","geometry":{"type":"Point","coordinates":[2.33588,48.90561]},"properties":{"nom":"Hôtel - Mob Hotel Paris Les Puces","sub":"HotelRestaurant","cm":"93400#Saint-Ouen-sur-Seine","web":"https://www.mobhotel.com/","uri":"https://data.datatourisme.fr/13/6e554c86-89fc-3297-86a0-b81ffb36fcc6","dept":"93","reg":"idf"}},{"type":"Feature","geometry":{"type":"Point","coordinates":[2.34247,48.91842]},"properties":{"nom":"Adagio access Saint-Denis - Pleyel","sub":"HolidayResort","cm":"93200#Saint-Denis","web":"http://www.adagio-city.com/","uri":"https://data.datatourisme.fr/19/bd13d67f-eff6-3335-84ad-eaae933935a8","dept":"93","reg":"idf"}},{"type":"Feature","geometry":{"type":"Point","coordinates":[2.33523,48.91293]},"properties":{"nom":"Hôtel - Tribe Paris Saint-Ouen","sub":"Hotel","cm":"93400#Saint-Ouen-sur-Seine","web":"https://all.accor.com/hotel/B717/index.fr.shtml?utm_campaign=seo+maps&utm_medium=seo+maps&utm_source=google+Maps","uri":"https://data.datatourisme.fr/13/386baab2-5945-3cf3-bdd6-a890447d789b","dept":"93","reg":"idf"}},{"type":"Feature","geometry":{"type":"Point","coordinates":[2.33761,48.90497]},"properties":{"nom":"Hôtel - Mob House Paris Les Puces","sub":"HotelRestaurant","cm":"93400#Saint-Ouen-sur-Seine","web":"https://www.mobhouse.com/","uri":"https://data.datatourisme.fr/13/ac0462c7-8338-3eed-8805-fd96352cb97e","dept":"93","reg":"idf"}},{"type":"Feature","geometry":{"type":"Point","coordinates":[2.33084,48.9025]},"properties":{"nom":"Hôtel - Mercure Paris Saint-Ouen","sub":"HotelRestaurant","cm":"93400#Saint-Ouen-sur-Seine","web":"https://all.accor.com/hotel/A780/index.fr.shtml","uri":"https://data.datatourisme.fr/13/e26c10e6-2879-3e6c-9ed0-4671934940d9","dept":"93","reg":"idf"}},{"type":"Feature","geometry":{"type":"Point","coordinates":[2.55385,48.96114]},"properties":{"nom":"Première Classe Villepinte Centre - Parc des Expositions","sub":"Hotel","cm":"93420#Villepinte","web":"https://www.premiereclasse.com/fr-fr/","uri":"https://data.datatourisme.fr/19/b1d59520-fdb7-361f-84b2-ce11883823a7","dept":"93","reg":"idf"}},{"type":"Feature","geometry":{"type":"Point","coordinates":[2.43122,48.86849]},"properties":{"nom":"Première Classe Montreuil","sub":"Hotel","cm":"93100#Montreuil","web":"https://montreuil.premiereclasse.com/fr-fr/","uri":"https://data.datatourisme.fr/19/0b0c050a-3b30-3cf0-8d31-0c34902b78cb","dept":"93","reg":"idf"}},{"type":"Feature","geometry":{"type":"Point","coordinates":[2.34274,48.91834]},"properties":{"nom":"Hôtel - Adagio access Paris Saint-Denis Pleyel","sub":"HolidayResort","cm":"93210#Saint-Denis","web":"https://www.adagio-city.com/fr/hotel-8400-aparthotel-adagio-access-paris-saint-denis-pleyel/index.shtml?q=93200&apartment%5B%5D=2%2C0%2C0%2C6229c77253817","uri":"https://data.datatourisme.fr/13/cbbf1876-f07f-3786-9a4a-381027f1db2c","dept":"93","reg":"idf"}},{"type":"Feature","geometry":{"type":"Point","coordinates":[2.365,48.90665]},"properties":{"nom":"Centre de colloques du campus Condorcet","sub":"Rental","cm":"93300#Aubervilliers","web":"https://www.campus-condorcet.fr/","uri":"https://data.datatourisme.fr/13/a7f9c593-fa9e-32fe-8ed6-d4432b595582","dept":"93","reg":"idf"}},{"type":"Feature","geometry":{"type":"Point","coordinates":[2.34544,48.9208]},"properties":{"nom":"H4 Hotel Wyndham Paris Pleyel Resort","sub":"Hotel","cm":"93200#Saint-Denis","web":"https://www.h4hotelwyndham.com/fr/","uri":"https://data.datatourisme.fr/19/253e072b-7a8a-3af6-b7fa-834c03d2bef6","dept":"93","reg":"idf"}},{"type":"Feature","geometry":{"type":"Point","coordinates":[2.32337,48.91469]},"properties":{"nom":"Hôtel - Residhome Appart Hotel Saint-Ouen","sub":"HolidayResort","cm":"93400#Saint-Ouen-sur-Seine","web":"https://www.residhome.com/residence-hoteliere-aparthotel-saintouen-351.html","uri":"https://data.datatourisme.fr/13/f08b6145-7656-3ce9-a43d-ac2a5e4aec54","dept":"93","reg":"idf"}},{"type":"Feature","geometry":{"type":"Point","coordinates":[2.35598,48.93193]},"properties":{"nom":"Tiers-lieu - Coopérative Pointcarré","sub":"Rental","cm":"93200#Saint-Denis","web":"https://www.pointcarre.coop/","uri":"https://data.datatourisme.fr/13/44c53883-f35c-3500-a857-5b35dd28be1f","dept":"93","reg":"idf"}}]}