{"type":"FeatureCollection","features":[{"type":"Feature","geometry":{"type":"Point","coordinates":[2.48676,48.7685]},"properties":{"nom":"Kyriad Créteil Bonneuil-sur-Marne","sub":"Hotel","cm":"94380#Bonneuil-sur-Marne","web":"http://kyriad-bonneuil-sur-marne.fr/","uri":"https://data.datatourisme.fr/19/a4e175da-9574-3c2d-98ad-6bad8b8bcde4","dept":"94","reg":"idf"}},{"type":"Feature","geometry":{"type":"Point","coordinates":[2.44541,48.76121]},"properties":{"nom":"Kyriad Villeneuve-Saint-Georges","sub":"Hotel","cm":"94194#Villeneuve-Saint-Georges","web":"https://villeneuve-saint-georges.kyriad.com/fr-fr/","uri":"https://data.datatourisme.fr/19/79ef93b6-0a0c-3c9f-9c21-f5f3352e029e","dept":"94","reg":"idf"}},{"type":"Feature","geometry":{"type":"Point","coordinates":[2.49341,48.83215]},"properties":{"nom":"Adagio access Nogent sur Marne","sub":"HolidayResort","cm":"94130#Nogent-sur-Marne","web":"http://www.adagio-city.com/","uri":"https://data.datatourisme.fr/19/80ad538d-38f5-396f-abf6-ef40d2de7f27","dept":"94","reg":"idf"}},{"type":"Feature","geometry":{"type":"Point","coordinates":[2.45957,48.78446]},"properties":{"nom":"Campanile Créteil Centre","sub":"Hotel","cm":"94000#Créteil","web":"http://campanile-creteil-centre.fr/","uri":"https://data.datatourisme.fr/19/132a6645-3225-3921-92f8-093607a7d348","dept":"94","reg":"idf"}},{"type":"Feature","geometry":{"type":"Point","coordinates":[2.34607,48.75967]},"properties":{"nom":"Première Classe Orly Rungis","sub":"Hotel","cm":"94150#Rungis","web":"http://premiere-classe-orly-rungis.fr/","uri":"https://data.datatourisme.fr/19/3074081c-b0a1-332f-90d5-787865f56864","dept":"94","reg":"idf"}},{"type":"Feature","geometry":{"type":"Point","coordinates":[2.422,48.81804]},"properties":{"nom":"Kyriad Paris Est - Bois de Vincennes","sub":"Hotel","cm":"94410#Saint-Maurice","web":"http://kyriad-paris-saint-maurice.fr/","uri":"https://data.datatourisme.fr/19/d6f9b527-ba70-3768-980e-aba780411272","dept":"94","reg":"idf"}},{"type":"Feature","geometry":{"type":"Point","coordinates":[2.3281,48.81013]},"properties":{"nom":"Courtyard by Marriott Paris Arcueil","sub":"Hotel","cm":"94110#Arcueil","web":"https://www.marriott.com/hotels/travel/parac-courtyard-paris-arcueil/","uri":"https://data.datatourisme.fr/19/f32f2bf1-e9d2-3ac6-8807-c388e40f015a","dept":"94","reg":"idf"}},{"type":"Feature","geometry":{"type":"Point","coordinates":[2.3968,48.81476]},"properties":{"nom":"Adagio access Paris Quai d'Ivry","sub":"HolidayResort","cm":"94200#Ivry-sur-Seine","web":"http://www.adagio-city.com/","uri":"https://data.datatourisme.fr/19/fb446e8d-fb70-3f36-84cb-da246857c7f6","dept":"94","reg":"idf"}},{"type":"Feature","geometry":{"type":"Point","coordinates":[2.43264,48.84531]},"properties":{"nom":"Hôtel Daumesnil-Vincennes***","sub":"Hotel","cm":"94300#Vincennes","web":"http://www.hotel-daumesnil.com/fr","uri":"https://data.datatourisme.fr/13/ee451831-5163-3e3e-8834-91cc96e0d90b","dept":"94","reg":"idf"}},{"type":"Feature","geometry":{"type":"Point","coordinates":[2.39947,48.81861]},"properties":{"nom":"Mercure Paris Ivry - Quai de Seine","sub":"Hotel","cm":"94200#Ivry-sur-Seine","web":"https://www.accorhotels.com/","uri":"https://data.datatourisme.fr/19/14b56455-a647-32f8-af32-39a2a7a8ec14","dept":"94","reg":"idf"}},{"type":"Feature","geometry":{"type":"Point","coordinates":[2.3382,48.8163]},"properties":{"nom":"JO&JOE Paris - Gentilly","sub":"Hostel","cm":"94250#Gentilly","web":"https://www.joandjoe.com/fr/paris-gentilly","uri":"https://data.datatourisme.fr/19/c68b1780-20cd-31e0-ab37-d581cf3f603a","dept":"94","reg":"idf"}},{"type":"Feature","geometry":{"type":"Point","coordinates":[2.3599,48.81574]},"properties":{"nom":"Campanile Paris Sud - Porte d'Italie","sub":"Hotel","cm":"94270#Le Kremlin-Bicêtre","web":"http://campanile-paris-sud-porte-ditalie.fr/","uri":"https://data.datatourisme.fr/19/58f9b4a3-085c-305f-8b78-2fd9eaeb3033","dept":"94","reg":"idf"}},{"type":"Feature","geometry":{"type":"Point","coordinates":[2.40592,48.82614]},"properties":{"nom":"Novotel Paris Sud Porte de Charenton","sub":"Hotel","cm":"94220#Charenton-le-Pont","web":"http://www.novotel.com/","uri":"https://data.datatourisme.fr/19/97c791e7-3261-3ec7-8f1b-4c28a8a3b902","dept":"94","reg":"idf"}},{"type":"Feature","geometry":{"type":"Point","coordinates":[2.34788,48.79739]},"properties":{"nom":"Campanile Villejuif","sub":"Hotel","cm":"94800#Villejuif","web":"http://www.campanile-villejuif.fr/fr","uri":"https://data.datatourisme.fr/19/c4d79cf4-c1c2-3778-a78b-972be921b904","dept":"94","reg":"idf"}},{"type":"Feature","geometry":{"type":"Point","coordinates":[2.49121,48.7706]},"properties":{"nom":"Campanile Créteil Bonneuil-sur-Marne","sub":"Hotel","cm":"94380#Bonneuil-sur-Marne","web":"http://campanile-bonneuil-sur-marne-petits-carreaux.fr/","uri":"https://data.datatourisme.fr/19/d45a98bc-36da-31c3-bcd1-18122b765b79","dept":"94","reg":"idf"}},{"type":"Feature","geometry":{"type":"Point","coordinates":[2.37107,48.78857]},"properties":{"nom":"ibis Styles Paris Villejuif","sub":"Hotel","cm":"94800#Villejuif","web":"https://all.accor.com/hotel/B9Q7/index.fr.shtml","uri":"https://data.datatourisme.fr/19/c9ccddb9-ca06-30fa-8970-87fcfbe3663b","dept":"94","reg":"idf"}},{"type":"Feature","geometry":{"type":"Point","coordinates":[2.46454,48.76794]},"properties":{"nom":"B&B Paris Créteil","sub":"Hotel","cm":"94000#Créteil","web":"https://www.hotel-bb.com/fr/hotel/paris-creteil","uri":"https://data.datatourisme.fr/19/3e2b92a2-201a-3962-a904-3347f54ba3d7","dept":"94","reg":"idf"}},{"type":"Feature","geometry":{"type":"Point","coordinates":[2.43542,48.84508]},"properties":{"nom":"Hôtel Best Western Saint-Louis****","sub":"Hotel","cm":"94300#Vincennes","web":"https://www.hotel-saint-louis-vincennes.com/","uri":"https://data.datatourisme.fr/13/6b381595-ff24-3935-8f45-833facceb791","dept":"94","reg":"idf"}},{"type":"Feature","geometry":{"type":"Point","coordinates":[2.4644,48.76805]},"properties":{"nom":"Courtyard by Marriott Paris Créteil","sub":"Hotel","cm":"94000#Créteil","web":"https://www.marriott.com/fr/hotels/parcc-courtyard-paris-creteil/overview/","uri":"https://data.datatourisme.fr/19/94ee7869-5703-3ed3-aa52-7bcafa8ad39b","dept":"94","reg":"idf"}},{"type":"Feature","geometry":{"type":"Point","coordinates":[2.43332,48.8452]},"properties":{"nom":"Adagio Paris Vincennes","sub":"HolidayResort","cm":"94300#Vincennes","web":"http://www.adagio-city.com/","uri":"https://data.datatourisme.fr/19/861b7950-82b6-38d1-b4bc-16d9f5739cda","dept":"94","reg":"idf"}},{"type":"Feature","geometry":{"type":"Point","coordinates":[2.43336,48.84525]},"properties":{"nom":"Adagio City Aparthotel Paris Vincennes****","sub":"HolidayResort","cm":"94300#Vincennes","web":"https://www.adagio-city.com/fr/hotel-8164-aparthotel-adagio-paris-vincennes/index.shtml","uri":"https://data.datatourisme.fr/13/5ac70df2-8daa-347a-989c-a1a5a26d25b8","dept":"94","reg":"idf"}},{"type":"Feature","geometry":{"type":"Point","coordinates":[2.49373,48.83233]},"properties":{"nom":"Campanile Nogent-sur-Marne","sub":"Hotel","cm":"94130#Nogent-sur-Marne","web":"http://campanile-nogent-sur-marne.fr/","uri":"https://data.datatourisme.fr/19/df7b668c-aa52-35d4-b0e5-1df3a7c9805c","dept":"94","reg":"idf"}},{"type":"Feature","geometry":{"type":"Point","coordinates":[2.43498,48.84513]},"properties":{"nom":"Hôtel du Château**","sub":"Hotel","cm":"94300#Vincennes","web":"https://www.hotel-du-chateau.com/","uri":"https://data.datatourisme.fr/13/bb38b624-b14d-3508-a06f-025c96e6887e","dept":"94","reg":"idf"}},{"type":"Feature","geometry":{"type":"Point","coordinates":[2.32584,48.80552]},"properties":{"nom":"Campanile Paris Sud Porte d'Orléans Arcueil","sub":"Hotel","cm":"94110#Arcueil","web":"http://campanile-paris-sud-porte-dorleans-arcueil.fr/","uri":"https://data.datatourisme.fr/19/cf568257-6bcd-31c5-93ab-fdc3b5a79551","dept":"94","reg":"idf"}},{"type":"Feature","geometry":{"type":"Point","coordinates":[2.48838,48.85414]},"properties":{"nom":"Hôtel Mercure Paris Val de Fontenay****","sub":"HotelRestaurant","cm":"94120#Fontenay-sous-Bois","web":"https://all.accor.com/hotel/1037/index.fr.shtml","uri":"https://data.datatourisme.fr/13/c39f8c1a-6d8b-3544-9fc9-b8bd8879db82","dept":"94","reg":"idf"}},{"type":"Feature","geometry":{"type":"Point","coordinates":[2.47194,48.79994]},"properties":{"nom":"B&B HOTEL Saint-Maur Créteil***","sub":"Hotel","cm":"94100#Saint-Maur-des-Fossés","web":"https://www.hotel-bb.com/fr/hotel/saint-maur-creteil","uri":"https://data.datatourisme.fr/13/ef8726b7-2ac1-39d3-9e39-1ecc7091ac16","dept":"94","reg":"idf"}},{"type":"Feature","geometry":{"type":"Point","coordinates":[2.43227,48.79992]},"properties":{"nom":"Hôtel des Bains**","sub":"Hotel","cm":"94700#Maisons-Alfort","web":"https://hoteldesbains-94.fr/","uri":"https://data.datatourisme.fr/13/0b2dea34-1284-3ec5-b017-950815951f90","dept":"94","reg":"idf"}},{"type":"Feature","geometry":{"type":"Point","coordinates":[2.4187,48.81495]},"properties":{"nom":"Adagio access Paris Maisons-Alfort","sub":"HolidayResort","cm":"94700#Maisons-Alfort","web":"http://www.adagio-city.com/","uri":"https://data.datatourisme.fr/19/78ffc4b9-cb61-3d0c-b548-aeedbaa6fbaa","dept":"94","reg":"idf"}},{"type":"Feature","geometry":{"type":"Point","coordinates":[2.44543,48.76137]},"properties":{"nom":"Première Classe Villeneuve-Saint-Georges - Créteil Sud","sub":"Hotel","cm":"94190#Villeneuve-Saint-Georges","web":"http://premiere-classe-villeneuve-saint-georges.fr/","uri":"https://data.datatourisme.fr/19/32aad273-77e0-36a8-b630-fdce97e11e9c","dept":"94","reg":"idf"}},{"type":"Feature","geometry":{"type":"Point","coordinates":[2.47694,48.82933]},"properties":{"nom":"Camping Paris Est****","sub":"Camping","cm":"94500#Champigny-sur-Marne","web":"https://www.campingchampigny.paris/","uri":"https://data.datatourisme.fr/13/b47b7d1d-c58c-345b-977a-c62d533edfcc","dept":"94","reg":"idf"}},{"type":"Feature","geometry":{"type":"Point","coordinates":[2.47865,48.81895]},"properties":{"nom":"Alliance Hôtel***","sub":"Hotel","cm":"94340#Joinville-le-Pont","web":"http://www.hotel-cinepole.com/","uri":"https://data.datatourisme.fr/13/aee6d459-c841-315c-82fa-564693b54571","dept":"94","reg":"idf"}},{"type":"Feature","geometry":{"type":"Point","coordinates":[2.42046,48.8157]},"properties":{"nom":"Le Grand Albert 1er Hotel**","sub":"Hotel","cm":"94700#Maisons-Alfort","web":"https://www.hotelgrandalbert.com/","uri":"https://data.datatourisme.fr/13/4d4b44ae-090d-32a4-95c0-997524d7ab95","dept":"94","reg":"idf"}},{"type":"Feature","geometry":{"type":"Point","coordinates":[2.45885,48.81605]},"properties":{"nom":"Hôtel Ibis budget Saint-Maurice**","sub":"Hotel","cm":"94410#Saint-Maurice","web":"https://all.accor.com/hotel/2712/index.fr.shtml","uri":"https://data.datatourisme.fr/13/1dff8eda-37dc-3762-867f-8b95f0489968","dept":"94","reg":"idf"}},{"type":"Feature","geometry":{"type":"Point","coordinates":[2.48924,48.83354]},"properties":{"nom":"Ibis Nogent-sur-Marne***","sub":"HotelRestaurant","cm":"94130#Nogent-sur-Marne","web":"https://all.accor.com/hotel/3406/index.fr.shtml","uri":"https://data.datatourisme.fr/13/79b2e71a-8f72-3167-8024-44a9c3b54809","dept":"94","reg":"idf"}},{"type":"Feature","geometry":{"type":"Point","coordinates":[2.41629,48.84621]},"properties":{"nom":"Le Ruisseau***","sub":"HotelRestaurant","cm":"94160#Saint-Mandé","web":"https://leruisseau.fr/","uri":"https://data.datatourisme.fr/13/7b1124fa-f3c2-3202-8aca-2ebdcab861a9","dept":"94","reg":"idf"}},{"type":"Feature","geometry":{"type":"Point","coordinates":[2.49381,48.83209]},"properties":{"nom":"Hôtel Campanile Nogent-sur-Marne***","sub":"HotelRestaurant","cm":"94130#Nogent-sur-Marne","web":"https://nogent-sur-marne.campanile.com/fr-fr/","uri":"https://data.datatourisme.fr/13/c7fba017-6e25-36ca-8708-21ad99597a23","dept":"94","reg":"idf"}},{"type":"Feature","geometry":{"type":"Point","coordinates":[2.42206,48.81807]},"properties":{"nom":"Hôtel Kyriad Paris Est Bois de Vincennes***","sub":"Hotel","cm":"94410#Saint-Maurice","web":"https://paris-est-bois-de-vincennes.kyriad.com/fr-fr/","uri":"https://data.datatourisme.fr/13/c9d23f00-1d80-3b81-8997-8df9994ee671","dept":"94","reg":"idf"}},{"type":"Feature","geometry":{"type":"Point","coordinates":[2.5199,48.82749]},"properties":{"nom":"B&B Hotel Champigny sur Marne***","sub":"Hotel","cm":"94500#Champigny-sur-Marne","web":"https://www.hotel-bb.com/fr/hotel/champigny-sur-marne","uri":"https://data.datatourisme.fr/13/e91355c3-71c3-384e-9aa9-49e471030472","dept":"94","reg":"idf"}},{"type":"Feature","geometry":{"type":"Point","coordinates":[2.39416,48.82522]},"properties":{"nom":"Hôtel ibis Paris Porte de Bercy***","sub":"HotelRestaurant","cm":"94220#Charenton-le-Pont","web":"https://all.accor.com/hotel/2041/index.fr.shtml","uri":"https://data.datatourisme.fr/13/0462441b-6032-3307-a392-4a1eeeff28bc","dept":"94","reg":"idf"}},{"type":"Feature","geometry":{"type":"Point","coordinates":[2.39416,48.82522]},"properties":{"nom":"Hôtel ibis budget Paris Porte de Bercy**","sub":"HotelRestaurant","cm":"94220#Charenton-le-Pont","web":"https://all.accor.com/hotel/2587/index.fr.shtml","uri":"https://data.datatourisme.fr/13/f40b2268-d513-3617-966d-9f523afc9789","dept":"94","reg":"idf"}},{"type":"Feature","geometry":{"type":"Point","coordinates":[2.49011,48.83222]},"properties":{"nom":"Hôtel du Port****","sub":"Hotel","cm":"94130#Nogent-sur-Marne","web":"https://hotelduportnogent.com/","uri":"https://data.datatourisme.fr/13/44f3d6d5-8a29-3bc7-bfba-adf76090d99d","dept":"94","reg":"idf"}},{"type":"Feature","geometry":{"type":"Point","coordinates":[2.48742,48.85338]},"properties":{"nom":"Hôtel ibis Styles Paris Val de Fontenay***","sub":"HotelRestaurant","cm":"94120#Fontenay-sous-Bois","web":"https://all.accor.com/hotel/6923/index.fr.shtml","uri":"https://data.datatourisme.fr/13/56f67e05-5894-30a8-a079-fd1bfafc5d11","dept":"94","reg":"idf"}},{"type":"Feature","geometry":{"type":"Point","coordinates":[2.36045,48.76336]},"properties":{"nom":"Campanile Rungis - Orly","sub":"Hotel","cm":"94550#Chevilly-Larue","web":"https://paris-orly-rungis.campanile.com/fr-fr/","uri":"https://data.datatourisme.fr/19/8a7f516d-f87b-3466-9670-340604d629f8","dept":"94","reg":"idf"}},{"type":"Feature","geometry":{"type":"Point","coordinates":[2.53217,48.83328]},"properties":{"nom":"Hôtel Ibis Budget Marne la Vallée Bry-sur-Marne**","sub":"Hotel","cm":"94360#Bry-sur-Marne","web":"https://all.accor.com/hotel/2538/index.fr.shtml","uri":"https://data.datatourisme.fr/13/4cf49a92-1931-353a-8e77-4e0b5a34ed8f","dept":"94","reg":"idf"}},{"type":"Feature","geometry":{"type":"Point","coordinates":[2.47491,48.81997]},"properties":{"nom":"Tulip Residences Joinville-le-Pont***","sub":"Hotel","cm":"94340#Joinville-le-Pont","web":"https://www.tulip-residences-joinville.com/","uri":"https://data.datatourisme.fr/13/3d519991-d879-33e0-9fa6-87c26dd11cc1","dept":"94","reg":"idf"}},{"type":"Feature","geometry":{"type":"Point","coordinates":[2.40511,48.82645]},"properties":{"nom":"Novotel Paris Sud Porte de Charenton****","sub":"HotelRestaurant","cm":"94220#Charenton-le-Pont","web":"https://all.accor.com/hotel/1549/index.fr.shtml","uri":"https://data.datatourisme.fr/13/5476944e-6d4b-3abc-a02d-4d8211255e48","dept":"94","reg":"idf"}},{"type":"Feature","geometry":{"type":"Point","coordinates":[2.42027,48.8151]},"properties":{"nom":"Au Petit Caporal ***","sub":"HotelRestaurant","cm":"94700#Maisons-Alfort","web":"https://www.hotelpetitcaporal.com/","uri":"https://data.datatourisme.fr/13/e14fce5c-05cc-3879-b4be-a407a47b660a","dept":"94","reg":"idf"}},{"type":"Feature","geometry":{"type":"Point","coordinates":[2.55213,48.70662]},"properties":{"nom":"PEP75 - Centre Paris-Mandres","sub":"Hostel","cm":"94520#Mandres-les-Roses","web":"http://paris-mandres.pep75.org/","uri":"https://data.datatourisme.fr/19/81fdecd1-b856-3e0c-99bf-41148a416d1e","dept":"94","reg":"idf"}},{"type":"Feature","geometry":{"type":"Point","coordinates":[2.4363,48.844]},"properties":{"nom":"La salle du Château (casemate)","sub":"Rental","cm":"94300#Vincennes","web":"http://www.chateau-de-vincennes.fr/","uri":"https://data.datatourisme.fr/13/635700cb-e15b-3705-8d98-2e72b000919d","dept":"94","reg":"idf"}},{"type":"Feature","geometry":{"type":"Point","coordinates":[2.43571,48.84973]},"properties":{"nom":"Espace Sorano","sub":"Rental","cm":"94300#Vincennes","web":"http://www.espacesorano.com/utils-contacts/","uri":"https://data.datatourisme.fr/13/df9cbdbc-c18a-351d-9d27-63f8bc606861","dept":"94","reg":"idf"}},{"type":"Feature","geometry":{"type":"Point","coordinates":[2.35549,48.80128]},"properties":{"nom":"Espace Congrès Les Esselières","sub":"Rental","cm":"94800#Villejuif","web":"http://www.lesesselieres.fr/","uri":"https://data.datatourisme.fr/13/3c4f9b01-6980-31b8-8605-d8ff0fcae85b","dept":"94","reg":"idf"}},{"type":"Feature","geometry":{"type":"Point","coordinates":[2.50064,48.82253]},"properties":{"nom":"Le Jardin d'Aristide","sub":"BedAndBreakfast","cm":"94500#Champigny-sur-Marne","web":"http://www.lejardindaristide.fr/","uri":"https://data.datatourisme.fr/19/610c9e85-b9c7-393d-a7bc-cf1ea808213a","dept":"94","reg":"idf"}},{"type":"Feature","geometry":{"type":"Point","coordinates":[2.47503,48.83329]},"properties":{"nom":"Espace de location - Pavillon Baltard","sub":"Rental","cm":"94130#Nogent-sur-Marne","web":"https://www.pavillonbaltard.fr/louer-baltard/","uri":"https://data.datatourisme.fr/13/e65cb9f3-ef38-3506-804c-f5906f0ef04b","dept":"94","reg":"idf"}},{"type":"Feature","geometry":{"type":"Point","coordinates":[2.40123,48.82921]},"properties":{"nom":"Adagio access Paris Porte de Charenton","sub":"HolidayResort","cm":"94220#Charenton-le-Pont","web":"http://www.adagio-city.com/","uri":"https://data.datatourisme.fr/19/c02c1abd-b440-38a8-9999-bd68828a1461","dept":"94","reg":"idf"}},{"type":"Feature","geometry":{"type":"Point","coordinates":[2.47495,48.81985]},"properties":{"nom":"Tulip Residences Joinville-le-Pont","sub":"HolidayResort","cm":"94340#Joinville-le-Pont","web":"https://www.tulip-residences-joinville.com/","uri":"https://data.datatourisme.fr/19/9dbcbb2e-d8d1-3a10-9654-132001a8a937","dept":"94","reg":"idf"}},{"type":"Feature","geometry":{"type":"Point","coordinates":[2.51992,48.83543]},"properties":{"nom":"Salle de réception de l'Hôtel de Ville","sub":"Rental","cm":"94360#Bry-sur-Marne","web":"https://www.brysurmarne.fr/Louez-la-salle-de-l-Hotel-de-Ville-pour-vos-evenements.html","uri":"https://data.datatourisme.fr/13/57230022-8523-3384-bc59-9419b57c3071","dept":"94","reg":"idf"}},{"type":"Feature","geometry":{"type":"Point","coordinates":[2.35925,48.81521]},"properties":{"nom":"Première Classe Hosho Paris Sud Porte d'Italie","sub":"Hostel","cm":"94270#Le Kremlin-Bicêtre","web":"https://hosho-paris-sud-porte-italie.premiereclasse.com/fr-fr/","uri":"https://data.datatourisme.fr/19/10f4dd93-66ae-3791-b50b-03681db55748","dept":"94","reg":"idf"}},{"type":"Feature","geometry":{"type":"Point","coordinates":[2.50145,48.75981]},"properties":{"nom":"Première Classe Boissy-Saint-Léger","sub":"Hotel","cm":"94470#Boissy-Saint-Léger","web":"http://premiere-classe-boissy-saint-leger.fr/","uri":"https://data.datatourisme.fr/19/de7dcb3e-5e4f-3af6-a706-ebb793413c2a","dept":"94","reg":"idf"}},{"type":"Feature","geometry":{"type":"Point","coordinates":[2.45029,48.84833]},"properties":{"nom":"Royal Regency Paris Vincennes***","sub":"HolidayResort","cm":"94300#Vincennes","web":"https://www.diamondresortsandhotels.com/Resorts/Royal-Regency-Paris-Vincennes","uri":"https://data.datatourisme.fr/13/5c4fcfeb-068c-37f4-9bf2-75fd29cf3488","dept":"94","reg":"idf"}},{"type":"Feature","geometry":{"type":"Point","coordinates":[2.43635,48.8444]},"properties":{"nom":"Espace pro - Château de Vincennes","sub":"Rental","cm":"94300#Vincennes","web":"https://www.chateau-de-vincennes.fr/privatisation/evenements-professionnels-cocktails-seminaires","uri":"https://data.datatourisme.fr/13/c0f37767-88cd-35fc-ad86-968e7129f5ae","dept":"94","reg":"idf"}},{"type":"Feature","geometry":{"type":"Point","coordinates":[2.40151,48.82931]},"properties":{"nom":"Aparthotel Adagio Access Paris Porte de Charenton**","sub":"HolidayResort","cm":"94220#Charenton-le-Pont","web":"https://www.adagio-city.com/fr/hotel-8365-aparthotel-adagio-access-paris-porte-de-charenton/index.shtml?q=porte+de+charenton&apartment%5B%5D=2%2C0%2C0%2C658573f779f82","uri":"https://data.datatourisme.fr/13/c211229d-a315-371b-8926-0253de85b6a7","dept":"94","reg":"idf"}},{"type":"Feature","geometry":{"type":"Point","coordinates":[2.44439,48.84625]},"properties":{"nom":"Espace pro - Metafore Vincennes Foch","sub":"Rental","cm":"94300#Vincennes","web":null,"uri":"https://data.datatourisme.fr/13/e6657ab1-9500-3fad-bb4c-536931efae89","dept":"94","reg":"idf"}},{"type":"Feature","geometry":{"type":"Point","coordinates":[2.519,48.80723]},"properties":{"nom":"Location de paddle et kayak à Beach Paddle","sub":"Rental","cm":"94100#Saint-Maur-des-Fossés","web":"https://beachpaddle.fr/#contact<>https://beachpaddle.fr/balades-paddle-bords-de-marne/","uri":"https://data.datatourisme.fr/13/a0df6329-c14d-32a3-a256-05d42b4ddc68","dept":"94","reg":"idf"}},{"type":"Feature","geometry":{"type":"Point","coordinates":[2.4228,48.81804]},"properties":{"nom":"City Residence Saint-Maurice***","sub":"HolidayResort","cm":"94410#Saint-Maurice","web":"https://www.cityresidence.fr/fr/residence/paris-saint-maurice","uri":"https://data.datatourisme.fr/13/816cc321-4c68-3e52-bd1c-da34581b8dd0","dept":"94","reg":"idf"}},{"type":"Feature","geometry":{"type":"Point","coordinates":[2.49317,48.83267]},"properties":{"nom":"Appart'Hôtel Paris Quai de Marne - Vacancéole***","sub":"HolidayResort","cm":"94130#Nogent-sur-Marne","web":"https://www.vacanceole.com/location-vacances/315-appart-hotel-paris-quai-de-marne-nogent-sur-marne","uri":"https://data.datatourisme.fr/13/18f1a669-011c-3fd6-a665-20906e849aaf","dept":"94","reg":"idf"}},{"type":"Feature","geometry":{"type":"Point","coordinates":[2.47349,48.85]},"properties":{"nom":"Mijo's Appartement Hotel***","sub":"Hotel","cm":"94120#Fontenay-sous-Bois","web":"https://www.mijoshotel.com/","uri":"https://data.datatourisme.fr/13/6fb592da-3ea3-32d4-abe6-3743608fb699","dept":"94","reg":"idf"}}]}